{
   "plus_code" : {
      "compound_code" : "QGRJ+MC6 Odunpazarı/Eskişehir, Turkey",
      "global_code" : "8GFGQGRJ+MC6"
   },
   "results" : [
      {
         "address_components" : [
            {
               "long_name" : "10",
               "short_name" : "10",
               "types" : [ "street_number" ]
            },
            {
               "long_name" : "Çataltepe Sokak",
               "short_name" : "Çataltepe Sk.",
               "types" : [ "route" ]
            },
            {
               "long_name" : "Zafer",
               "short_name" : "Zafer",
               "types" : [ "administrative_area_level_4", "political" ]
            },
            {
               "long_name" : "Tepebaşı",
               "short_name" : "Tepebaşı",
               "types" : [ "administrative_area_level_2", "political" ]
            },
            {
               "long_name" : "Eskişehir",
               "short_name" : "Eskişehir",
               "types" : [ "administrative_area_level_1", "political" ]
            },
            {
               "long_name" : "Turkey",
               "short_name" : "TR",
               "types" : [ "country", "political" ]
            },
            {
               "long_name" : "26220",
               "short_name" : "26220",
               "types" : [ "postal_code" ]
            }
         ],
         "formatted_address" : "Zafer, Çataltepe Sk. No:10, 26220 Tepebaşı/Eskişehir, Turkey",
         "geometry" : {
            "location" : {
               "lat" : 39.79161819999999,
               "lng" : 30.5309345
            },
            "location_type" : "ROOFTOP",
            "viewport" : {
               "northeast" : {
                  "lat" : 39.79296718029149,
                  "lng" : 30.53228348029149
               },
               "southwest" : {
                  "lat" : 39.79026921970849,
                  "lng" : 30.5295855197085
               }
            }
         },
         "place_id" : "ChIJX_0BeR8-zBQRAZdMlJdDfAY",
         "plus_code" : {
            "compound_code" : "QGRJ+J9 Odunpazarı/Eskişehir, Turkey",
            "global_code" : "8GFGQGRJ+J9"
         },
         "types" : [ "street_address" ]
      },
      {
         "address_components" : [
            {
               "long_name" : "9",
               "short_name" : "9",
               "types" : [ "street_number" ]
            },
            {
               "long_name" : "Çataltepe Sokak",
               "short_name" : "Çataltepe Sk.",
               "types" : [ "route" ]
            },
            {
               "long_name" : "Zafer",
               "short_name" : "Zafer",
               "types" : [ "administrative_area_level_4", "political" ]
            },
            {
               "long_name" : "Tepebaşı",
               "short_name" : "Tepebaşı",
               "types" : [ "administrative_area_level_2", "political" ]
            },
            {
               "long_name" : "Eskişehir",
               "short_name" : "Eskişehir",
               "types" : [ "administrative_area_level_1", "political" ]
            },
            {
               "long_name" : "Turkey",
               "short_name" : "TR",
               "types" : [ "country", "political" ]
            },
            {
               "long_name" : "26220",
               "short_name" : "26220",
               "types" : [ "postal_code" ]
            }
         ],
         "formatted_address" : "Zafer, Çataltepe Sk. No:9, 26220 Tepebaşı/Eskişehir, Turkey",
         "geometry" : {
            "location" : {
               "lat" : 39.7916579,
               "lng" : 30.5309407
            },
            "location_type" : "RANGE_INTERPOLATED",
            "viewport" : {
               "northeast" : {
                  "lat" : 39.7930068802915,
                  "lng" : 30.53228968029149
               },
               "southwest" : {
                  "lat" : 39.7903089197085,
                  "lng" : 30.5295917197085
               }
            }
         },
         "place_id" : "Ej9aYWZlciwgw4dhdGFsdGVwZSBTay4gTm86OSwgMjYyMjAgVGVwZWJhxZ_EsS9Fc2tpxZ9laGlyLCBUdXJrZXkiGhIYChQKEgnVe6F4Hz7MFBEauas__qmgjRAJ",
         "types" : [ "street_address" ]
      },
      {
         "address_components" : [
            {
               "long_name" : "9-1",
               "short_name" : "9-1",
               "types" : [ "street_number" ]
            },
            {
               "long_name" : "Çataltepe Sokak",
               "short_name" : "Çataltepe Sk.",
               "types" : [ "route" ]
            },
            {
               "long_name" : "Zafer",
               "short_name" : "Zafer",
               "types" : [ "administrative_area_level_4", "political" ]
            },
            {
               "long_name" : "Tepebaşı",
               "short_name" : "Tepebaşı",
               "types" : [ "administrative_area_level_2", "political" ]
            },
            {
               "long_name" : "Eskişehir",
               "short_name" : "Eskişehir",
               "types" : [ "administrative_area_level_1", "political" ]
            },
            {
               "long_name" : "Turkey",
               "short_name" : "TR",
               "types" : [ "country", "political" ]
            },
            {
               "long_name" : "26220",
               "short_name" : "26220",
               "types" : [ "postal_code" ]
            }
         ],
         "formatted_address" : "Zafer, Çataltepe Sk. 9-1, 26220 Tepebaşı/Eskişehir, Turkey",
         "geometry" : {
            "bounds" : {
               "northeast" : {
                  "lat" : 39.7918969,
                  "lng" : 30.5311575
               },
               "southwest" : {
                  "lat" : 39.7915615,
                  "lng" : 30.5304029
               }
            },
            "location" : {
               "lat" : 39.7917292,
               "lng" : 30.5307802
            },
            "location_type" : "GEOMETRIC_CENTER",
            "viewport" : {
               "northeast" : {
                  "lat" : 39.7930781802915,
                  "lng" : 30.5321291802915
               },
               "southwest" : {
                  "lat" : 39.7903802197085,
                  "lng" : 30.5294312197085
               }
            }
         },
         "place_id" : "ChIJ1XuheB8-zBQRGrmrP_6poI0",
         "types" : [ "route" ]
      },
      {
         "address_components" : [
            {
               "long_name" : "QGRJ+MC",
               "short_name" : "QGRJ+MC",
               "types" : [ "plus_code" ]
            },
            {
               "long_name" : "Odunpazarı",
               "short_name" : "Odunpazarı",
               "types" : [ "administrative_area_level_2", "political" ]
            },
            {
               "long_name" : "Eskişehir",
               "short_name" : "Eskişehir",
               "types" : [ "administrative_area_level_1", "political" ]
            },
            {
               "long_name" : "Turkey",
               "short_name" : "TR",
               "types" : [ "country", "political" ]
            }
         ],
         "formatted_address" : "QGRJ+MC Odunpazarı/Eskişehir, Turkey",
         "geometry" : {
            "bounds" : {
               "northeast" : {
                  "lat" : 39.79175,
                  "lng" : 30.531125
               },
               "southwest" : {
                  "lat" : 39.791625,
                  "lng" : 30.531
               }
            },
            "location" : {
               "lat" : 39.7916548,
               "lng" : 30.5310059
            },
            "location_type" : "GEOMETRIC_CENTER",
            "viewport" : {
               "northeast" : {
                  "lat" : 39.7930364802915,
                  "lng" : 30.5324114802915
               },
               "southwest" : {
                  "lat" : 39.7903385197085,
                  "lng" : 30.5297135197085
               }
            }
         },
         "place_id" : "GhIJV9zJ8VTlQ0ARqXuuAPCHPkA",
         "plus_code" : {
            "compound_code" : "QGRJ+MC Odunpazarı/Eskişehir, Turkey",
            "global_code" : "8GFGQGRJ+MC"
         },
         "types" : [ "plus_code" ]
      },
      {
         "address_components" : [
            {
               "long_name" : "Zafer",
               "short_name" : "Zafer",
               "types" : [ "administrative_area_level_4", "political" ]
            },
            {
               "long_name" : "Tepebaşı",
               "short_name" : "Tepebaşı",
               "types" : [ "administrative_area_level_2", "political" ]
            },
            {
               "long_name" : "Eskişehir",
               "short_name" : "Eskişehir",
               "types" : [ "administrative_area_level_1", "political" ]
            },
            {
               "long_name" : "Turkey",
               "short_name" : "TR",
               "types" : [ "country", "political" ]
            },
            {
               "long_name" : "26220",
               "short_name" : "26220",
               "types" : [ "postal_code" ]
            }
         ],
         "formatted_address" : "Zafer, 26220 Tepebaşı/Eskişehir, Turkey",
         "geometry" : {
            "bounds" : {
               "northeast" : {
                  "lat" : 39.801578,
                  "lng" : 30.53398
               },
               "southwest" : {
                  "lat" : 39.786671,
                  "lng" : 30.5222781
               }
            },
            "location" : {
               "lat" : 39.7960168,
               "lng" : 30.5293488
            },
            "location_type" : "APPROXIMATE",
            "viewport" : {
               "northeast" : {
                  "lat" : 39.801578,
                  "lng" : 30.53398
               },
               "southwest" : {
                  "lat" : 39.786671,
                  "lng" : 30.5222781
               }
            }
         },
         "place_id" : "ChIJqXLJeSA-zBQRkjQjnBv3WCo",
         "types" : [ "administrative_area_level_4", "political" ]
      },
      {
         "address_components" : [
            {
               "long_name" : "26220",
               "short_name" : "26220",
               "types" : [ "postal_code" ]
            },
            {
               "long_name" : "Zafer",
               "short_name" : "Zafer",
               "types" : [ "administrative_area_level_4", "political" ]
            },
            {
               "long_name" : "Tepebaşı",
               "short_name" : "Tepebaşı",
               "types" : [ "administrative_area_level_2", "political" ]
            },
            {
               "long_name" : "Eskişehir",
               "short_name" : "Eskişehir",
               "types" : [ "administrative_area_level_1", "political" ]
            },
            {
               "long_name" : "Turkey",
               "short_name" : "TR",
               "types" : [ "country", "political" ]
            }
         ],
         "formatted_address" : "Zafer, 26220 Tepebaşı/Eskişehir, Turkey",
         "geometry" : {
            "bounds" : {
               "northeast" : {
                  "lat" : 39.801578,
                  "lng" : 30.53398
               },
               "southwest" : {
                  "lat" : 39.786671,
                  "lng" : 30.5222781
               }
            },
            "location" : {
               "lat" : 39.7960168,
               "lng" : 30.5293488
            },
            "location_type" : "APPROXIMATE",
            "viewport" : {
               "northeast" : {
                  "lat" : 39.801578,
                  "lng" : 30.53398
               },
               "southwest" : {
                  "lat" : 39.786671,
                  "lng" : 30.5222781
               }
            }
         },
         "place_id" : "ChIJ71bhQIoVzBQRzovh9YD57rc",
         "types" : [ "postal_code" ]
      },
      {
         "address_components" : [
            {
               "long_name" : "Eskişehir",
               "short_name" : "Eskişehir",
               "types" : [ "locality", "political" ]
            },
            {
               "long_name" : "Eskişehir",
               "short_name" : "Eskişehir",
               "types" : [ "administrative_area_level_1", "political" ]
            },
            {
               "long_name" : "Turkey",
               "short_name" : "TR",
               "types" : [ "country", "political" ]
            }
         ],
         "formatted_address" : "Eskişehir, Turkey",
         "geometry" : {
            "bounds" : {
               "northeast" : {
                  "lat" : 39.828122,
                  "lng" : 30.680574
               },
               "southwest" : {
                  "lat" : 39.702564,
                  "lng" : 30.409055
               }
            },
            "location" : {
               "lat" : 39.7667061,
               "lng" : 30.52563109999999
            },
            "location_type" : "APPROXIMATE",
            "viewport" : {
               "northeast" : {
                  "lat" : 39.828122,
                  "lng" : 30.680574
               },
               "southwest" : {
                  "lat" : 39.702564,
                  "lng" : 30.409055
               }
            }
         },
         "place_id" : "ChIJXw4MIgg-zBQRCJoEOFk5ibw",
         "types" : [ "locality", "political" ]
      },
      {
         "address_components" : [
            {
               "long_name" : "Tepebaşı",
               "short_name" : "Tepebaşı",
               "types" : [ "administrative_area_level_2", "political" ]
            },
            {
               "long_name" : "Eskişehir",
               "short_name" : "Eskişehir",
               "types" : [ "administrative_area_level_1", "political" ]
            },
            {
               "long_name" : "Turkey",
               "short_name" : "TR",
               "types" : [ "country", "political" ]
            }
         ],
         "formatted_address" : "Tepebaşı/Eskişehir, Turkey",
         "geometry" : {
            "bounds" : {
               "northeast" : {
                  "lat" : 40.016533,
                  "lng" : 30.972644
               },
               "southwest" : {
                  "lat" : 39.6223259,
                  "lng" : 30.1834609
               }
            },
            "location" : {
               "lat" : 39.8998742,
               "lng" : 30.4818446
            },
            "location_type" : "APPROXIMATE",
            "viewport" : {
               "northeast" : {
                  "lat" : 40.016533,
                  "lng" : 30.972644
               },
               "southwest" : {
                  "lat" : 39.6223259,
                  "lng" : 30.1834609
               }
            }
         },
         "place_id" : "ChIJyTIOP3Q_zBQRPhu6f8xRdbE",
         "types" : [ "administrative_area_level_2", "political" ]
      },
      {
         "address_components" : [
            {
               "long_name" : "Eskişehir",
               "short_name" : "Eskişehir",
               "types" : [ "administrative_area_level_1", "political" ]
            },
            {
               "long_name" : "Turkey",
               "short_name" : "TR",
               "types" : [ "country", "political" ]
            }
         ],
         "formatted_address" : "Eskişehir, Turkey",
         "geometry" : {
            "bounds" : {
               "northeast" : {
                  "lat" : 40.158349,
                  "lng" : 32.009396
               },
               "southwest" : {
                  "lat" : 39.029024,
                  "lng" : 29.97498299999999
               }
            },
            "location" : {
               "lat" : 39.6329657,
               "lng" : 31.2626366
            },
            "location_type" : "APPROXIMATE",
            "viewport" : {
               "northeast" : {
                  "lat" : 40.158349,
                  "lng" : 32.009396
               },
               "southwest" : {
                  "lat" : 39.029024,
                  "lng" : 29.97498299999999
               }
            }
         },
         "place_id" : "ChIJF44c-PoVzBQRTydTJ7V7mtg",
         "types" : [ "administrative_area_level_1", "political" ]
      },
      {
         "address_components" : [
            {
               "long_name" : "Turkey",
               "short_name" : "TR",
               "types" : [ "country", "political" ]
            }
         ],
         "formatted_address" : "Turkey",
         "geometry" : {
            "bounds" : {
               "northeast" : {
                  "lat" : 42.3666999,
                  "lng" : 44.8178449
               },
               "southwest" : {
                  "lat" : 35.808592,
                  "lng" : 25.5377
               }
            },
            "location" : {
               "lat" : 38.963745,
               "lng" : 35.243322
            },
            "location_type" : "APPROXIMATE",
            "viewport" : {
               "northeast" : {
                  "lat" : 42.3666999,
                  "lng" : 44.8178449
               },
               "southwest" : {
                  "lat" : 35.808592,
                  "lng" : 25.5377
               }
            }
         },
         "place_id" : "ChIJcSZPllwVsBQRKl9iKtTb2UA",
         "types" : [ "country", "political" ]
      }
   ],
   "status" : "OK"
}
