{
   "plus_code" : {
      "compound_code" : "PXRR+RG Başiskele/Kocaeli, Turkey",
      "global_code" : "8GGFPXRR+RG"
   },
   "results" : [
      {
         "address_components" : [
            {
               "long_name" : "PXRR+RG",
               "short_name" : "PXRR+RG",
               "types" : [ "plus_code" ]
            },
            {
               "long_name" : "Başiskele",
               "short_name" : "Başiskele",
               "types" : [ "administrative_area_level_2", "political" ]
            },
            {
               "long_name" : "Kocaeli",
               "short_name" : "Kocaeli",
               "types" : [ "administrative_area_level_1", "political" ]
            },
            {
               "long_name" : "Turkey",
               "short_name" : "TR",
               "types" : [ "country", "political" ]
            }
         ],
         "formatted_address" : "PXRR+RG Başiskele/Kocaeli, Turkey",
         "geometry" : {
            "bounds" : {
               "northeast" : {
                  "lat" : 40.742125,
                  "lng" : 29.991375
               },
               "southwest" : {
                  "lat" : 40.742,
                  "lng" : 29.99125
               }
            },
            "location" : {
               "lat" : 40.7420548,
               "lng" : 29.9913025
            },
            "location_type" : "GEOMETRIC_CENTER",
            "viewport" : {
               "northeast" : {
                  "lat" : 40.7434114802915,
                  "lng" : 29.9926614802915
               },
               "southwest" : {
                  "lat" : 40.7407135197085,
                  "lng" : 29.9899635197085
               }
            }
         },
         "place_id" : "GhIJf-vUpvteREARbPEpAMb9PUA",
         "plus_code" : {
            "compound_code" : "PXRR+RG Başiskele/Kocaeli, Turkey",
            "global_code" : "8GGFPXRR+RG"
         },
         "types" : [ "plus_code" ]
      },
      {
         "address_components" : [
            {
               "long_name" : "99",
               "short_name" : "99",
               "types" : [ "street_number" ]
            },
            {
               "long_name" : "Çuhane Caddesi",
               "short_name" : "Çuhane Cd.",
               "types" : [ "route" ]
            },
            {
               "long_name" : "Gaziler Mahallesi",
               "short_name" : "Gaziler",
               "types" : [ "administrative_area_level_4", "political" ]
            },
            {
               "long_name" : "Kartepe",
               "short_name" : "Kartepe",
               "types" : [ "administrative_area_level_2", "political" ]
            },
            {
               "long_name" : "Kocaeli",
               "short_name" : "Kocaeli",
               "types" : [ "administrative_area_level_1", "political" ]
            },
            {
               "long_name" : "Turkey",
               "short_name" : "TR",
               "types" : [ "country", "political" ]
            },
            {
               "long_name" : "41250",
               "short_name" : "41250",
               "types" : [ "postal_code" ]
            }
         ],
         "formatted_address" : "Gaziler, Çuhane Cd. No:99, 41250 Kartepe/Kocaeli, Turkey",
         "geometry" : {
            "location" : {
               "lat" : 40.7429185,
               "lng" : 29.9941402
            },
            "location_type" : "ROOFTOP",
            "viewport" : {
               "northeast" : {
                  "lat" : 40.74426748029151,
                  "lng" : 29.9954891802915
               },
               "southwest" : {
                  "lat" : 40.74156951970851,
                  "lng" : 29.9927912197085
               }
            }
         },
         "place_id" : "ChIJ1wocf6FayxQRttYRrsFJK0U",
         "plus_code" : {
            "compound_code" : "PXVV+5M Kartepe/Kocaeli, Turkey",
            "global_code" : "8GGFPXVV+5M"
         },
         "types" : [ "street_address" ]
      },
      {
         "address_components" : [
            {
               "long_name" : "Otobüs Durağı",
               "short_name" : "Otobüs Durağı",
               "types" : [ "establishment", "point_of_interest", "transit_station" ]
            },
            {
               "long_name" : "Çuhane Caddesi",
               "short_name" : "Çuhane Cd",
               "types" : [ "route" ]
            },
            {
               "long_name" : "Köseköy",
               "short_name" : "Köseköy",
               "types" : [ "administrative_area_level_4", "political" ]
            },
            {
               "long_name" : "Kartepe",
               "short_name" : "Kartepe",
               "types" : [ "administrative_area_level_2", "political" ]
            },
            {
               "long_name" : "Kocaeli",
               "short_name" : "Kocaeli",
               "types" : [ "administrative_area_level_1", "political" ]
            },
            {
               "long_name" : "Turkey",
               "short_name" : "TR",
               "types" : [ "country", "political" ]
            },
            {
               "long_name" : "41250",
               "short_name" : "41250",
               "types" : [ "postal_code" ]
            }
         ],
         "formatted_address" : "Köseköy, Otobüs Durağı, Çuhane Cd, 41250 Kartepe/Kocaeli, Turkey",
         "geometry" : {
            "location" : {
               "lat" : 40.743961,
               "lng" : 29.993523
            },
            "location_type" : "GEOMETRIC_CENTER",
            "viewport" : {
               "northeast" : {
                  "lat" : 40.74530998029149,
                  "lng" : 29.9948719802915
               },
               "southwest" : {
                  "lat" : 40.7426120197085,
                  "lng" : 29.9921740197085
               }
            }
         },
         "place_id" : "ChIJubikEqFayxQRvVWK2sSurtU",
         "plus_code" : {
            "compound_code" : "PXVV+HC Kartepe/Kocaeli, Turkey",
            "global_code" : "8GGFPXVV+HC"
         },
         "types" : [ "establishment", "point_of_interest", "transit_station" ]
      },
      {
         "address_components" : [
            {
               "long_name" : "99",
               "short_name" : "99",
               "types" : [ "street_number" ]
            },
            {
               "long_name" : "Çuhane Caddesi",
               "short_name" : "Çuhane Cd.",
               "types" : [ "route" ]
            },
            {
               "long_name" : "Köseköy",
               "short_name" : "Köseköy",
               "types" : [ "administrative_area_level_4", "political" ]
            },
            {
               "long_name" : "Kartepe",
               "short_name" : "Kartepe",
               "types" : [ "administrative_area_level_2", "political" ]
            },
            {
               "long_name" : "Kocaeli",
               "short_name" : "Kocaeli",
               "types" : [ "administrative_area_level_1", "political" ]
            },
            {
               "long_name" : "Turkey",
               "short_name" : "TR",
               "types" : [ "country", "political" ]
            },
            {
               "long_name" : "41250",
               "short_name" : "41250",
               "types" : [ "postal_code" ]
            }
         ],
         "formatted_address" : "Köseköy, Çuhane Cd. No:99, 41250 Kartepe/Kocaeli, Turkey",
         "geometry" : {
            "location" : {
               "lat" : 40.7428681,
               "lng" : 29.9939285
            },
            "location_type" : "RANGE_INTERPOLATED",
            "viewport" : {
               "northeast" : {
                  "lat" : 40.74421708029149,
                  "lng" : 29.9952774802915
               },
               "southwest" : {
                  "lat" : 40.74151911970849,
                  "lng" : 29.9925795197085
               }
            }
         },
         "place_id" : "EjtLw7ZzZWvDtnksIMOHdWhhbmUgQ2QuIE5vOjk5LCA0MTI1MCBLYXJ0ZXBlL0tvY2FlbGksIFR1cmtleSIaEhgKFAoSCWkVqTKiWssUEe24tNjbPRcUEGM",
         "types" : [ "street_address" ]
      },
      {
         "address_components" : [
            {
               "long_name" : "Çuhane Caddesi",
               "short_name" : "Çuhane Cd.",
               "types" : [ "route" ]
            },
            {
               "long_name" : "Ovacık",
               "short_name" : "Ovacık",
               "types" : [ "administrative_area_level_4", "political" ]
            },
            {
               "long_name" : "Başiskele",
               "short_name" : "Başiskele",
               "types" : [ "administrative_area_level_2", "political" ]
            },
            {
               "long_name" : "Kocaeli",
               "short_name" : "Kocaeli",
               "types" : [ "administrative_area_level_1", "political" ]
            },
            {
               "long_name" : "Turkey",
               "short_name" : "TR",
               "types" : [ "country", "political" ]
            },
            {
               "long_name" : "41250",
               "short_name" : "41250",
               "types" : [ "postal_code" ]
            }
         ],
         "formatted_address" : "Ovacık, Çuhane Cd., 41250 Başiskele/Kocaeli, Turkey",
         "geometry" : {
            "bounds" : {
               "northeast" : {
                  "lat" : 40.7439161,
                  "lng" : 29.9951369
               },
               "southwest" : {
                  "lat" : 40.7399567,
                  "lng" : 29.9934937
               }
            },
            "location" : {
               "lat" : 40.7419363,
               "lng" : 29.9943151
            },
            "location_type" : "GEOMETRIC_CENTER",
            "viewport" : {
               "northeast" : {
                  "lat" : 40.7439161,
                  "lng" : 29.9956642802915
               },
               "southwest" : {
                  "lat" : 40.7399567,
                  "lng" : 29.9929663197085
               }
            }
         },
         "place_id" : "ChIJaRWpMqJayxQR7Li02Ns9FxQ",
         "types" : [ "route" ]
      },
      {
         "address_components" : [
            {
               "long_name" : "Ovacık",
               "short_name" : "Ovacık",
               "types" : [ "administrative_area_level_4", "political" ]
            },
            {
               "long_name" : "Başiskele",
               "short_name" : "Başiskele",
               "types" : [ "administrative_area_level_2", "political" ]
            },
            {
               "long_name" : "Kocaeli",
               "short_name" : "Kocaeli",
               "types" : [ "administrative_area_level_1", "political" ]
            },
            {
               "long_name" : "Turkey",
               "short_name" : "TR",
               "types" : [ "country", "political" ]
            },
            {
               "long_name" : "41140",
               "short_name" : "41140",
               "types" : [ "postal_code" ]
            }
         ],
         "formatted_address" : "Ovacık, 41140 Başiskele/Kocaeli, Turkey",
         "geometry" : {
            "bounds" : {
               "northeast" : {
                  "lat" : 40.76206699999999,
                  "lng" : 30.0033109
               },
               "southwest" : {
                  "lat" : 40.7228191,
                  "lng" : 29.9615271
               }
            },
            "location" : {
               "lat" : 40.748149,
               "lng" : 29.9827252
            },
            "location_type" : "APPROXIMATE",
            "viewport" : {
               "northeast" : {
                  "lat" : 40.76206699999999,
                  "lng" : 30.0033109
               },
               "southwest" : {
                  "lat" : 40.7228191,
                  "lng" : 29.9615271
               }
            }
         },
         "place_id" : "ChIJv2Pfja9ayxQR2OKu0RD2zAU",
         "types" : [ "administrative_area_level_4", "political" ]
      },
      {
         "address_components" : [
            {
               "long_name" : "41140",
               "short_name" : "41140",
               "types" : [ "postal_code" ]
            },
            {
               "long_name" : "Başiskele",
               "short_name" : "Başiskele",
               "types" : [ "administrative_area_level_2", "political" ]
            },
            {
               "long_name" : "Kocaeli",
               "short_name" : "Kocaeli",
               "types" : [ "administrative_area_level_1", "political" ]
            },
            {
               "long_name" : "Turkey",
               "short_name" : "TR",
               "types" : [ "country", "political" ]
            }
         ],
         "formatted_address" : "41140 Başiskele/Kocaeli, Turkey",
         "geometry" : {
            "bounds" : {
               "northeast" : {
                  "lat" : 40.76206699999999,
                  "lng" : 30.006598
               },
               "southwest" : {
                  "lat" : 40.722767,
                  "lng" : 29.9615271
               }
            },
            "location" : {
               "lat" : 40.743522,
               "lng" : 29.9827252
            },
            "location_type" : "APPROXIMATE",
            "viewport" : {
               "northeast" : {
                  "lat" : 40.76206699999999,
                  "lng" : 30.006598
               },
               "southwest" : {
                  "lat" : 40.722767,
                  "lng" : 29.9615271
               }
            }
         },
         "place_id" : "ChIJZxSLwOFEyxQRF-uwpy6UpKI",
         "types" : [ "postal_code" ]
      },
      {
         "address_components" : [
            {
               "long_name" : "Başiskele",
               "short_name" : "Başiskele",
               "types" : [ "administrative_area_level_2", "political" ]
            },
            {
               "long_name" : "Kocaeli",
               "short_name" : "Kocaeli",
               "types" : [ "administrative_area_level_1", "political" ]
            },
            {
               "long_name" : "Turkey",
               "short_name" : "TR",
               "types" : [ "country", "political" ]
            }
         ],
         "formatted_address" : "Başiskele/Kocaeli, Turkey",
         "geometry" : {
            "bounds" : {
               "northeast" : {
                  "lat" : 40.76206699999999,
                  "lng" : 30.0578921
               },
               "southwest" : {
                  "lat" : 40.52744,
                  "lng" : 29.847083
               }
            },
            "location" : {
               "lat" : 40.6298368,
               "lng" : 29.950926
            },
            "location_type" : "APPROXIMATE",
            "viewport" : {
               "northeast" : {
                  "lat" : 40.76206699999999,
                  "lng" : 30.0578921
               },
               "southwest" : {
                  "lat" : 40.52744,
                  "lng" : 29.847083
               }
            }
         },
         "place_id" : "ChIJhREav-NCyxQRkAWgNA8cqiY",
         "types" : [ "administrative_area_level_2", "political" ]
      },
      {
         "address_components" : [
            {
               "long_name" : "Kocaeli",
               "short_name" : "Kocaeli",
               "types" : [ "administrative_area_level_1", "political" ]
            },
            {
               "long_name" : "Turkey",
               "short_name" : "TR",
               "types" : [ "country", "political" ]
            }
         ],
         "formatted_address" : "Kocaeli, Turkey",
         "geometry" : {
            "bounds" : {
               "northeast" : {
                  "lat" : 41.20976,
                  "lng" : 30.367743
               },
               "southwest" : {
                  "lat" : 40.524151,
                  "lng" : 29.3331261
               }
            },
            "location" : {
               "lat" : 40.8532704,
               "lng" : 29.8815203
            },
            "location_type" : "APPROXIMATE",
            "viewport" : {
               "northeast" : {
                  "lat" : 41.20976,
                  "lng" : 30.367743
               },
               "southwest" : {
                  "lat" : 40.524151,
                  "lng" : 29.3331261
               }
            }
         },
         "place_id" : "ChIJQ8zKb5QgyxQRWdhW642zLKg",
         "types" : [ "administrative_area_level_1", "political" ]
      },
      {
         "address_components" : [
            {
               "long_name" : "Turkey",
               "short_name" : "TR",
               "types" : [ "country", "political" ]
            }
         ],
         "formatted_address" : "Turkey",
         "geometry" : {
            "bounds" : {
               "northeast" : {
                  "lat" : 42.3666999,
                  "lng" : 44.8178449
               },
               "southwest" : {
                  "lat" : 35.808592,
                  "lng" : 25.5377
               }
            },
            "location" : {
               "lat" : 38.963745,
               "lng" : 35.243322
            },
            "location_type" : "APPROXIMATE",
            "viewport" : {
               "northeast" : {
                  "lat" : 42.3666999,
                  "lng" : 44.8178449
               },
               "southwest" : {
                  "lat" : 35.808592,
                  "lng" : 25.5377
               }
            }
         },
         "place_id" : "ChIJcSZPllwVsBQRKl9iKtTb2UA",
         "types" : [ "country", "political" ]
      }
   ],
   "status" : "OK"
}
