{
   "plus_code" : {
      "compound_code" : "QXC3+FJ İzmit/Kocaeli, Turkey",
      "global_code" : "8GGFQXC3+FJ"
   },
   "results" : [
      {
         "address_components" : [
            {
               "long_name" : "16",
               "short_name" : "16",
               "types" : [ "street_number" ]
            },
            {
               "long_name" : "Şehit Kenan Başol Sokak",
               "short_name" : "Şht. Kenan Başol Sk.",
               "types" : [ "route" ]
            },
            {
               "long_name" : "M. Alipaşa",
               "short_name" : "M. Alipaşa",
               "types" : [ "administrative_area_level_4", "political" ]
            },
            {
               "long_name" : "İzmit",
               "short_name" : "İzmit",
               "types" : [ "administrative_area_level_2", "political" ]
            },
            {
               "long_name" : "Kocaeli",
               "short_name" : "Kocaeli",
               "types" : [ "administrative_area_level_1", "political" ]
            },
            {
               "long_name" : "Turkey",
               "short_name" : "TR",
               "types" : [ "country", "political" ]
            },
            {
               "long_name" : "41050",
               "short_name" : "41050",
               "types" : [ "postal_code" ]
            }
         ],
         "formatted_address" : "M. Alipaşa, Şht. Kenan Başol Sk. No:16, 41050 İzmit/Kocaeli, Turkey",
         "geometry" : {
            "location" : {
               "lat" : 40.7712315,
               "lng" : 29.9541899
            },
            "location_type" : "ROOFTOP",
            "viewport" : {
               "northeast" : {
                  "lat" : 40.7725804802915,
                  "lng" : 29.9555388802915
               },
               "southwest" : {
                  "lat" : 40.7698825197085,
                  "lng" : 29.9528409197085
               }
            }
         },
         "place_id" : "ChIJ-9kyWexPyxQR2Y8pkB5aVVk",
         "plus_code" : {
            "compound_code" : "QXC3+FM İzmit/Kocaeli, Turkey",
            "global_code" : "8GGFQXC3+FM"
         },
         "types" : [ "street_address" ]
      },
      {
         "address_components" : [
            {
               "long_name" : "9",
               "short_name" : "9",
               "types" : [ "street_number" ]
            },
            {
               "long_name" : "Şengül Sokak",
               "short_name" : "Şengül Sk.",
               "types" : [ "route" ]
            },
            {
               "long_name" : "M. Alipaşa",
               "short_name" : "M. Alipaşa",
               "types" : [ "administrative_area_level_4", "political" ]
            },
            {
               "long_name" : "İzmit",
               "short_name" : "İzmit",
               "types" : [ "administrative_area_level_2", "political" ]
            },
            {
               "long_name" : "Kocaeli",
               "short_name" : "Kocaeli",
               "types" : [ "administrative_area_level_1", "political" ]
            },
            {
               "long_name" : "Turkey",
               "short_name" : "TR",
               "types" : [ "country", "political" ]
            },
            {
               "long_name" : "41050",
               "short_name" : "41050",
               "types" : [ "postal_code" ]
            }
         ],
         "formatted_address" : "M. Alipaşa, Şengül Sk. No:9, 41050 İzmit/Kocaeli, Turkey",
         "geometry" : {
            "bounds" : {
               "northeast" : {
                  "lat" : 40.7715926,
                  "lng" : 29.9541712
               },
               "southwest" : {
                  "lat" : 40.7714667,
                  "lng" : 29.9540168
               }
            },
            "location" : {
               "lat" : 40.771537,
               "lng" : 29.95409949999999
            },
            "location_type" : "ROOFTOP",
            "viewport" : {
               "northeast" : {
                  "lat" : 40.7728786302915,
                  "lng" : 29.9554429802915
               },
               "southwest" : {
                  "lat" : 40.7701806697085,
                  "lng" : 29.9527450197085
               }
            }
         },
         "place_id" : "ChIJWzU9YexPyxQRtf88cfdv2EQ",
         "types" : [ "premise" ]
      },
      {
         "address_components" : [
            {
               "long_name" : "9",
               "short_name" : "9",
               "types" : [ "street_number" ]
            },
            {
               "long_name" : "Şengül Sokak",
               "short_name" : "Şengül Sk.",
               "types" : [ "route" ]
            },
            {
               "long_name" : "M. Alipaşa",
               "short_name" : "M. Alipaşa",
               "types" : [ "administrative_area_level_4", "political" ]
            },
            {
               "long_name" : "İzmit",
               "short_name" : "İzmit",
               "types" : [ "administrative_area_level_2", "political" ]
            },
            {
               "long_name" : "Kocaeli",
               "short_name" : "Kocaeli",
               "types" : [ "administrative_area_level_1", "political" ]
            },
            {
               "long_name" : "Turkey",
               "short_name" : "TR",
               "types" : [ "country", "political" ]
            },
            {
               "long_name" : "41050",
               "short_name" : "41050",
               "types" : [ "postal_code" ]
            }
         ],
         "formatted_address" : "M. Alipaşa, Şengül Sk. No:9, 41050 İzmit/Kocaeli, Turkey",
         "geometry" : {
            "location" : {
               "lat" : 40.7715147,
               "lng" : 29.9541259
            },
            "location_type" : "ROOFTOP",
            "viewport" : {
               "northeast" : {
                  "lat" : 40.7728636802915,
                  "lng" : 29.9554748802915
               },
               "southwest" : {
                  "lat" : 40.7701657197085,
                  "lng" : 29.9527769197085
               }
            }
         },
         "place_id" : "ChIJW2JEE-pPyxQRMTS-NpQu0FI",
         "plus_code" : {
            "compound_code" : "QXC3+JM İzmit/Kocaeli, Turkey",
            "global_code" : "8GGFQXC3+JM"
         },
         "types" : [ "cafe", "establishment", "food", "point_of_interest", "store" ]
      },
      {
         "address_components" : [
            {
               "long_name" : "9",
               "short_name" : "9",
               "types" : [ "street_number" ]
            },
            {
               "long_name" : "Hoca Aziz Bey Sokak",
               "short_name" : "Hoca Aziz Bey Sk.",
               "types" : [ "route" ]
            },
            {
               "long_name" : "M. Alipaşa",
               "short_name" : "M. Alipaşa",
               "types" : [ "administrative_area_level_4", "political" ]
            },
            {
               "long_name" : "İzmit",
               "short_name" : "İzmit",
               "types" : [ "administrative_area_level_2", "political" ]
            },
            {
               "long_name" : "Kocaeli",
               "short_name" : "Kocaeli",
               "types" : [ "administrative_area_level_1", "political" ]
            },
            {
               "long_name" : "Turkey",
               "short_name" : "TR",
               "types" : [ "country", "political" ]
            },
            {
               "long_name" : "41050",
               "short_name" : "41050",
               "types" : [ "postal_code" ]
            }
         ],
         "formatted_address" : "M. Alipaşa, Hoca Aziz Bey Sk. No:9, 41050 İzmit/Kocaeli, Turkey",
         "geometry" : {
            "location" : {
               "lat" : 40.7711214,
               "lng" : 29.9540627
            },
            "location_type" : "RANGE_INTERPOLATED",
            "viewport" : {
               "northeast" : {
                  "lat" : 40.77247038029149,
                  "lng" : 29.9554116802915
               },
               "southwest" : {
                  "lat" : 40.7697724197085,
                  "lng" : 29.9527137197085
               }
            }
         },
         "place_id" : "EkFNLiBBbGlwYcWfYSwgSG9jYSBBeml6IEJleSBTay4gTm86OSwgNDEwNTAgxLB6bWl0L0tvY2FlbGksIFR1cmtleSIaEhgKFAoSCRlTHFnsT8sUEU1-x0hYDEtUEAk",
         "types" : [ "street_address" ]
      },
      {
         "address_components" : [
            {
               "long_name" : "QXC3+FJ",
               "short_name" : "QXC3+FJ",
               "types" : [ "plus_code" ]
            },
            {
               "long_name" : "İzmit",
               "short_name" : "İzmit",
               "types" : [ "administrative_area_level_2", "political" ]
            },
            {
               "long_name" : "Kocaeli",
               "short_name" : "Kocaeli",
               "types" : [ "administrative_area_level_1", "political" ]
            },
            {
               "long_name" : "Turkey",
               "short_name" : "TR",
               "types" : [ "country", "political" ]
            }
         ],
         "formatted_address" : "QXC3+FJ İzmit/Kocaeli, Turkey",
         "geometry" : {
            "bounds" : {
               "northeast" : {
                  "lat" : 40.77124999999999,
                  "lng" : 29.954125
               },
               "southwest" : {
                  "lat" : 40.771125,
                  "lng" : 29.954
               }
            },
            "location" : {
               "lat" : 40.77118189999999,
               "lng" : 29.9540949
            },
            "location_type" : "GEOMETRIC_CENTER",
            "viewport" : {
               "northeast" : {
                  "lat" : 40.77253648029149,
                  "lng" : 29.9554114802915
               },
               "southwest" : {
                  "lat" : 40.7698385197085,
                  "lng" : 29.9527135197085
               }
            }
         },
         "place_id" : "GhIJMeKnFrZiREARx8c4kD_0PUA",
         "plus_code" : {
            "compound_code" : "QXC3+FJ İzmit/Kocaeli, Turkey",
            "global_code" : "8GGFQXC3+FJ"
         },
         "types" : [ "plus_code" ]
      },
      {
         "address_components" : [
            {
               "long_name" : "Hoca Aziz Bey Sokak",
               "short_name" : "Hoca Aziz Bey Sk.",
               "types" : [ "route" ]
            },
            {
               "long_name" : "M. Alipaşa",
               "short_name" : "M. Alipaşa",
               "types" : [ "administrative_area_level_4", "political" ]
            },
            {
               "long_name" : "İzmit",
               "short_name" : "İzmit",
               "types" : [ "administrative_area_level_2", "political" ]
            },
            {
               "long_name" : "Kocaeli",
               "short_name" : "Kocaeli",
               "types" : [ "administrative_area_level_1", "political" ]
            },
            {
               "long_name" : "Turkey",
               "short_name" : "TR",
               "types" : [ "country", "political" ]
            },
            {
               "long_name" : "41050",
               "short_name" : "41050",
               "types" : [ "postal_code" ]
            }
         ],
         "formatted_address" : "M. Alipaşa, Hoca Aziz Bey Sk., 41050 İzmit/Kocaeli, Turkey",
         "geometry" : {
            "bounds" : {
               "northeast" : {
                  "lat" : 40.7713741,
                  "lng" : 29.9542454
               },
               "southwest" : {
                  "lat" : 40.7708615,
                  "lng" : 29.95388519999999
               }
            },
            "location" : {
               "lat" : 40.7711178,
               "lng" : 29.9540653
            },
            "location_type" : "GEOMETRIC_CENTER",
            "viewport" : {
               "northeast" : {
                  "lat" : 40.7724667802915,
                  "lng" : 29.95541428029149
               },
               "southwest" : {
                  "lat" : 40.7697688197085,
                  "lng" : 29.95271631970849
               }
            }
         },
         "place_id" : "ChIJGVMcWexPyxQRTH7HSFgMS1Q",
         "types" : [ "route" ]
      },
      {
         "address_components" : [
            {
               "long_name" : "41050",
               "short_name" : "41050",
               "types" : [ "postal_code" ]
            },
            {
               "long_name" : "M. Alipaşa",
               "short_name" : "M. Alipaşa",
               "types" : [ "administrative_area_level_4", "political" ]
            },
            {
               "long_name" : "İzmit",
               "short_name" : "İzmit",
               "types" : [ "administrative_area_level_2", "political" ]
            },
            {
               "long_name" : "Kocaeli",
               "short_name" : "Kocaeli",
               "types" : [ "administrative_area_level_1", "political" ]
            },
            {
               "long_name" : "Turkey",
               "short_name" : "TR",
               "types" : [ "country", "political" ]
            }
         ],
         "formatted_address" : "M. Alipaşa, 41050 İzmit/Kocaeli, Turkey",
         "geometry" : {
            "bounds" : {
               "northeast" : {
                  "lat" : 40.77284,
                  "lng" : 29.959482
               },
               "southwest" : {
                  "lat" : 40.763034,
                  "lng" : 29.9486929
               }
            },
            "location" : {
               "lat" : 40.7672137,
               "lng" : 29.9523716
            },
            "location_type" : "APPROXIMATE",
            "viewport" : {
               "northeast" : {
                  "lat" : 40.77284,
                  "lng" : 29.959482
               },
               "southwest" : {
                  "lat" : 40.763034,
                  "lng" : 29.9486929
               }
            }
         },
         "place_id" : "ChIJ_fiVgO1PyxQRTWoD9Dt3MQU",
         "types" : [ "postal_code" ]
      },
      {
         "address_components" : [
            {
               "long_name" : "M. Alipaşa",
               "short_name" : "M. Alipaşa",
               "types" : [ "administrative_area_level_4", "political" ]
            },
            {
               "long_name" : "İzmit",
               "short_name" : "İzmit",
               "types" : [ "administrative_area_level_2", "political" ]
            },
            {
               "long_name" : "Kocaeli",
               "short_name" : "Kocaeli",
               "types" : [ "administrative_area_level_1", "political" ]
            },
            {
               "long_name" : "Turkey",
               "short_name" : "TR",
               "types" : [ "country", "political" ]
            }
         ],
         "formatted_address" : "M. Alipaşa, İzmit/Kocaeli, Turkey",
         "geometry" : {
            "bounds" : {
               "northeast" : {
                  "lat" : 40.77284,
                  "lng" : 29.959482
               },
               "southwest" : {
                  "lat" : 40.763034,
                  "lng" : 29.9485909
               }
            },
            "location" : {
               "lat" : 40.7672137,
               "lng" : 29.9523716
            },
            "location_type" : "APPROXIMATE",
            "viewport" : {
               "northeast" : {
                  "lat" : 40.77284,
                  "lng" : 29.959482
               },
               "southwest" : {
                  "lat" : 40.763034,
                  "lng" : 29.9485909
               }
            }
         },
         "place_id" : "ChIJk2b1wPJPyxQRJLticksnTmc",
         "types" : [ "administrative_area_level_4", "political" ]
      },
      {
         "address_components" : [
            {
               "long_name" : "İzmit",
               "short_name" : "İzmit",
               "types" : [ "locality", "political" ]
            },
            {
               "long_name" : "İzmit",
               "short_name" : "İzmit",
               "types" : [ "administrative_area_level_2", "political" ]
            },
            {
               "long_name" : "Kocaeli",
               "short_name" : "Kocaeli",
               "types" : [ "administrative_area_level_1", "political" ]
            },
            {
               "long_name" : "Turkey",
               "short_name" : "TR",
               "types" : [ "country", "political" ]
            }
         ],
         "formatted_address" : "İzmit, Kocaeli, Turkey",
         "geometry" : {
            "bounds" : {
               "northeast" : {
                  "lat" : 40.805401,
                  "lng" : 30.014834
               },
               "southwest" : {
                  "lat" : 40.736827,
                  "lng" : 29.8541681
               }
            },
            "location" : {
               "lat" : 40.7654408,
               "lng" : 29.9408089
            },
            "location_type" : "APPROXIMATE",
            "viewport" : {
               "northeast" : {
                  "lat" : 40.805401,
                  "lng" : 30.014834
               },
               "southwest" : {
                  "lat" : 40.736827,
                  "lng" : 29.8541681
               }
            }
         },
         "place_id" : "ChIJnftLZGZPyxQRuX5rWOcOaYI",
         "types" : [ "locality", "political" ]
      },
      {
         "address_components" : [
            {
               "long_name" : "İzmit",
               "short_name" : "İzmit",
               "types" : [ "administrative_area_level_2", "political" ]
            },
            {
               "long_name" : "Kocaeli",
               "short_name" : "Kocaeli",
               "types" : [ "administrative_area_level_1", "political" ]
            },
            {
               "long_name" : "Turkey",
               "short_name" : "TR",
               "types" : [ "country", "political" ]
            }
         ],
         "formatted_address" : "İzmit/Kocaeli, Turkey",
         "geometry" : {
            "bounds" : {
               "northeast" : {
                  "lat" : 40.971557,
                  "lng" : 30.2639339
               },
               "southwest" : {
                  "lat" : 40.720553,
                  "lng" : 29.8541681
               }
            },
            "location" : {
               "lat" : 40.8506635,
               "lng" : 30.0202964
            },
            "location_type" : "APPROXIMATE",
            "viewport" : {
               "northeast" : {
                  "lat" : 40.971557,
                  "lng" : 30.2639339
               },
               "southwest" : {
                  "lat" : 40.720553,
                  "lng" : 29.8541681
               }
            }
         },
         "place_id" : "ChIJL2DfPLZQyxQRitx6sY9PIGU",
         "types" : [ "administrative_area_level_2", "political" ]
      },
      {
         "address_components" : [
            {
               "long_name" : "Kocaeli",
               "short_name" : "Kocaeli",
               "types" : [ "administrative_area_level_1", "political" ]
            },
            {
               "long_name" : "Turkey",
               "short_name" : "TR",
               "types" : [ "country", "political" ]
            }
         ],
         "formatted_address" : "Kocaeli, Turkey",
         "geometry" : {
            "bounds" : {
               "northeast" : {
                  "lat" : 41.20976,
                  "lng" : 30.367743
               },
               "southwest" : {
                  "lat" : 40.524151,
                  "lng" : 29.3331261
               }
            },
            "location" : {
               "lat" : 40.8532704,
               "lng" : 29.8815203
            },
            "location_type" : "APPROXIMATE",
            "viewport" : {
               "northeast" : {
                  "lat" : 41.20976,
                  "lng" : 30.367743
               },
               "southwest" : {
                  "lat" : 40.524151,
                  "lng" : 29.3331261
               }
            }
         },
         "place_id" : "ChIJQ8zKb5QgyxQRWdhW642zLKg",
         "types" : [ "administrative_area_level_1", "political" ]
      },
      {
         "address_components" : [
            {
               "long_name" : "Turkey",
               "short_name" : "TR",
               "types" : [ "country", "political" ]
            }
         ],
         "formatted_address" : "Turkey",
         "geometry" : {
            "bounds" : {
               "northeast" : {
                  "lat" : 42.3666999,
                  "lng" : 44.8178449
               },
               "southwest" : {
                  "lat" : 35.808592,
                  "lng" : 25.5377
               }
            },
            "location" : {
               "lat" : 38.963745,
               "lng" : 35.243322
            },
            "location_type" : "APPROXIMATE",
            "viewport" : {
               "northeast" : {
                  "lat" : 42.3666999,
                  "lng" : 44.8178449
               },
               "southwest" : {
                  "lat" : 35.808592,
                  "lng" : 25.5377
               }
            }
         },
         "place_id" : "ChIJcSZPllwVsBQRKl9iKtTb2UA",
         "types" : [ "country", "political" ]
      }
   ],
   "status" : "OK"
}
