{
   "plus_code" : {
      "compound_code" : "53M3+68H Osmangazi/Bursa, Turkey",
      "global_code" : "8GGF53M3+68H"
   },
   "results" : [
      {
         "address_components" : [
            {
               "long_name" : "8-1",
               "short_name" : "8-1",
               "types" : [ "street_number" ]
            },
            {
               "long_name" : "2. Tahtalı Sokak",
               "short_name" : "2. Tahtalı Sk.",
               "types" : [ "route" ]
            },
            {
               "long_name" : "Mollagürani",
               "short_name" : "Mollagürani",
               "types" : [ "administrative_area_level_4", "political" ]
            },
            {
               "long_name" : "Osmangazi",
               "short_name" : "Osmangazi",
               "types" : [ "administrative_area_level_2", "political" ]
            },
            {
               "long_name" : "Bursa",
               "short_name" : "Bursa",
               "types" : [ "administrative_area_level_1", "political" ]
            },
            {
               "long_name" : "Turkey",
               "short_name" : "TR",
               "types" : [ "country", "political" ]
            },
            {
               "long_name" : "16040",
               "short_name" : "16040",
               "types" : [ "postal_code" ]
            }
         ],
         "formatted_address" : "Mollagürani, 2. Tahtalı Sk. 8-1, 16040 Osmangazi/Bursa, Turkey",
         "geometry" : {
            "location" : {
               "lat" : 40.1831415,
               "lng" : 29.0533078
            },
            "location_type" : "ROOFTOP",
            "viewport" : {
               "northeast" : {
                  "lat" : 40.1844904802915,
                  "lng" : 29.0546567802915
               },
               "southwest" : {
                  "lat" : 40.1817925197085,
                  "lng" : 29.0519588197085
               }
            }
         },
         "place_id" : "ChIJoZkWtvs9yhQRSM_DAm0T4NI",
         "plus_code" : {
            "compound_code" : "53M3+78 Osmangazi/Bursa, Turkey",
            "global_code" : "8GGF53M3+78"
         },
         "types" : [ "street_address" ]
      },
      {
         "address_components" : [
            {
               "long_name" : "No:12",
               "short_name" : "No:12",
               "types" : [ "street_number" ]
            },
            {
               "long_name" : "2. Tahtalı Sokak",
               "short_name" : "2. Tahtalı Sk.",
               "types" : [ "route" ]
            },
            {
               "long_name" : "Mollagürani",
               "short_name" : "Mollagürani",
               "types" : [ "administrative_area_level_4", "political" ]
            },
            {
               "long_name" : "Osmangazi",
               "short_name" : "Osmangazi",
               "types" : [ "administrative_area_level_2", "political" ]
            },
            {
               "long_name" : "Bursa",
               "short_name" : "Bursa",
               "types" : [ "administrative_area_level_1", "political" ]
            },
            {
               "long_name" : "Turkey",
               "short_name" : "TR",
               "types" : [ "country", "political" ]
            },
            {
               "long_name" : "16040",
               "short_name" : "16040",
               "types" : [ "postal_code" ]
            }
         ],
         "formatted_address" : "Mollagürani, 2. Tahtalı Sk. No:12, 16040 Osmangazi/Bursa, Turkey",
         "geometry" : {
            "location" : {
               "lat" : 40.1832574,
               "lng" : 29.0531752
            },
            "location_type" : "ROOFTOP",
            "viewport" : {
               "northeast" : {
                  "lat" : 40.18460638029149,
                  "lng" : 29.0545241802915
               },
               "southwest" : {
                  "lat" : 40.1819084197085,
                  "lng" : 29.0518262197085
               }
            }
         },
         "place_id" : "ChIJ-5wnwoM9yhQRDHRZUPPklKA",
         "plus_code" : {
            "compound_code" : "53M3+87 Osmangazi/Bursa, Turkey",
            "global_code" : "8GGF53M3+87"
         },
         "types" : [ "establishment", "point_of_interest", "school" ]
      },
      {
         "address_components" : [
            {
               "long_name" : "8",
               "short_name" : "8",
               "types" : [ "street_number" ]
            },
            {
               "long_name" : "2. Tahtalı Sokak",
               "short_name" : "2. Tahtalı Sk.",
               "types" : [ "route" ]
            },
            {
               "long_name" : "Mollagürani",
               "short_name" : "Mollagürani",
               "types" : [ "administrative_area_level_4", "political" ]
            },
            {
               "long_name" : "Osmangazi",
               "short_name" : "Osmangazi",
               "types" : [ "administrative_area_level_2", "political" ]
            },
            {
               "long_name" : "Bursa",
               "short_name" : "Bursa",
               "types" : [ "administrative_area_level_1", "political" ]
            },
            {
               "long_name" : "Turkey",
               "short_name" : "TR",
               "types" : [ "country", "political" ]
            },
            {
               "long_name" : "16040",
               "short_name" : "16040",
               "types" : [ "postal_code" ]
            }
         ],
         "formatted_address" : "Mollagürani, 2. Tahtalı Sk. No:8, 16040 Osmangazi/Bursa, Turkey",
         "geometry" : {
            "location" : {
               "lat" : 40.183088,
               "lng" : 29.0532222
            },
            "location_type" : "RANGE_INTERPOLATED",
            "viewport" : {
               "northeast" : {
                  "lat" : 40.18443698029149,
                  "lng" : 29.0545711802915
               },
               "southwest" : {
                  "lat" : 40.18173901970849,
                  "lng" : 29.0518732197085
               }
            }
         },
         "place_id" : "EkFNb2xsYWfDvHJhbmksIDIuIFRhaHRhbMSxIFNrLiBObzo4LCAxNjA0MCBPc21hbmdhemkvQnVyc2EsIFR1cmtleSIaEhgKFAoSCQNvGbf7PcoUES-vZNS1sJwTEAg",
         "types" : [ "street_address" ]
      },
      {
         "address_components" : [
            {
               "long_name" : "21-1",
               "short_name" : "21-1",
               "types" : [ "street_number" ]
            },
            {
               "long_name" : "2. Tahtalı Sokak",
               "short_name" : "2. Tahtalı Sk.",
               "types" : [ "route" ]
            },
            {
               "long_name" : "Alaaddin",
               "short_name" : "Alaaddin",
               "types" : [ "administrative_area_level_4", "political" ]
            },
            {
               "long_name" : "Osmangazi",
               "short_name" : "Osmangazi",
               "types" : [ "administrative_area_level_2", "political" ]
            },
            {
               "long_name" : "Bursa",
               "short_name" : "Bursa",
               "types" : [ "administrative_area_level_1", "political" ]
            },
            {
               "long_name" : "Turkey",
               "short_name" : "TR",
               "types" : [ "country", "political" ]
            },
            {
               "long_name" : "16040",
               "short_name" : "16040",
               "types" : [ "postal_code" ]
            }
         ],
         "formatted_address" : "Alaaddin, 2. Tahtalı Sk. 21-1, 16040 Osmangazi/Bursa, Turkey",
         "geometry" : {
            "bounds" : {
               "northeast" : {
                  "lat" : 40.18340360000001,
                  "lng" : 29.0540652
               },
               "southwest" : {
                  "lat" : 40.18297140000001,
                  "lng" : 29.0529546
               }
            },
            "location" : {
               "lat" : 40.1829979,
               "lng" : 29.0533878
            },
            "location_type" : "GEOMETRIC_CENTER",
            "viewport" : {
               "northeast" : {
                  "lat" : 40.18453648029151,
                  "lng" : 29.0548588802915
               },
               "southwest" : {
                  "lat" : 40.18183851970851,
                  "lng" : 29.0521609197085
               }
            }
         },
         "place_id" : "ChIJA28Zt_s9yhQRLq9k1LWwnBM",
         "types" : [ "route" ]
      },
      {
         "address_components" : [
            {
               "long_name" : "53M3+68",
               "short_name" : "53M3+68",
               "types" : [ "plus_code" ]
            },
            {
               "long_name" : "Osmangazi",
               "short_name" : "Osmangazi",
               "types" : [ "administrative_area_level_2", "political" ]
            },
            {
               "long_name" : "Bursa",
               "short_name" : "Bursa",
               "types" : [ "administrative_area_level_1", "political" ]
            },
            {
               "long_name" : "Turkey",
               "short_name" : "TR",
               "types" : [ "country", "political" ]
            }
         ],
         "formatted_address" : "53M3+68 Osmangazi/Bursa, Turkey",
         "geometry" : {
            "bounds" : {
               "northeast" : {
                  "lat" : 40.183125,
                  "lng" : 29.053375
               },
               "southwest" : {
                  "lat" : 40.183,
                  "lng" : 29.05325
               }
            },
            "location" : {
               "lat" : 40.18307009999999,
               "lng" : 29.0533447
            },
            "location_type" : "GEOMETRIC_CENTER",
            "viewport" : {
               "northeast" : {
                  "lat" : 40.18441148029149,
                  "lng" : 29.0546614802915
               },
               "southwest" : {
                  "lat" : 40.1817135197085,
                  "lng" : 29.0519635197085
               }
            }
         },
         "place_id" : "GhIJDjBO124XREAROeqN_6cNPUA",
         "plus_code" : {
            "compound_code" : "53M3+68 Osmangazi/Bursa, Turkey",
            "global_code" : "8GGF53M3+68"
         },
         "types" : [ "plus_code" ]
      },
      {
         "address_components" : [
            {
               "long_name" : "16040",
               "short_name" : "16040",
               "types" : [ "postal_code" ]
            },
            {
               "long_name" : "Mollagürani",
               "short_name" : "Mollagürani",
               "types" : [ "administrative_area_level_4", "political" ]
            },
            {
               "long_name" : "Osmangazi",
               "short_name" : "Osmangazi",
               "types" : [ "administrative_area_level_2", "political" ]
            },
            {
               "long_name" : "Bursa",
               "short_name" : "Bursa",
               "types" : [ "administrative_area_level_1", "political" ]
            },
            {
               "long_name" : "Turkey",
               "short_name" : "TR",
               "types" : [ "country", "political" ]
            }
         ],
         "formatted_address" : "Mollagürani, 16040 Osmangazi/Bursa, Turkey",
         "geometry" : {
            "bounds" : {
               "northeast" : {
                  "lat" : 40.185271,
                  "lng" : 29.0570389
               },
               "southwest" : {
                  "lat" : 40.1829919,
                  "lng" : 29.052937
               }
            },
            "location" : {
               "lat" : 40.1843721,
               "lng" : 29.0550842
            },
            "location_type" : "APPROXIMATE",
            "viewport" : {
               "northeast" : {
                  "lat" : 40.1854804302915,
                  "lng" : 29.0570389
               },
               "southwest" : {
                  "lat" : 40.1827824697085,
                  "lng" : 29.052937
               }
            }
         },
         "place_id" : "ChIJP5_defs9yhQR-iN_eJcybiA",
         "types" : [ "postal_code" ]
      },
      {
         "address_components" : [
            {
               "long_name" : "Mollagürani",
               "short_name" : "Mollagürani",
               "types" : [ "administrative_area_level_4", "political" ]
            },
            {
               "long_name" : "Osmangazi",
               "short_name" : "Osmangazi",
               "types" : [ "administrative_area_level_2", "political" ]
            },
            {
               "long_name" : "Bursa",
               "short_name" : "Bursa",
               "types" : [ "administrative_area_level_1", "political" ]
            },
            {
               "long_name" : "Turkey",
               "short_name" : "TR",
               "types" : [ "country", "political" ]
            },
            {
               "long_name" : "16040",
               "short_name" : "16040",
               "types" : [ "postal_code" ]
            }
         ],
         "formatted_address" : "Mollagürani, 16040 Osmangazi/Bursa, Turkey",
         "geometry" : {
            "bounds" : {
               "northeast" : {
                  "lat" : 40.185271,
                  "lng" : 29.0570389
               },
               "southwest" : {
                  "lat" : 40.1829919,
                  "lng" : 29.052937
               }
            },
            "location" : {
               "lat" : 40.1843721,
               "lng" : 29.0550842
            },
            "location_type" : "APPROXIMATE",
            "viewport" : {
               "northeast" : {
                  "lat" : 40.1854804302915,
                  "lng" : 29.0570389
               },
               "southwest" : {
                  "lat" : 40.1827824697085,
                  "lng" : 29.052937
               }
            }
         },
         "place_id" : "ChIJP5_defs9yhQR-vyr_wUFkC0",
         "types" : [ "administrative_area_level_4", "political" ]
      },
      {
         "address_components" : [
            {
               "long_name" : "Bursa",
               "short_name" : "Bursa",
               "types" : [ "locality", "political" ]
            },
            {
               "long_name" : "Bursa",
               "short_name" : "Bursa",
               "types" : [ "administrative_area_level_1", "political" ]
            },
            {
               "long_name" : "Turkey",
               "short_name" : "TR",
               "types" : [ "country", "political" ]
            }
         ],
         "formatted_address" : "Bursa, Turkey",
         "geometry" : {
            "bounds" : {
               "northeast" : {
                  "lat" : 40.276336,
                  "lng" : 29.202363
               },
               "southwest" : {
                  "lat" : 40.16702,
                  "lng" : 28.862216
               }
            },
            "location" : {
               "lat" : 40.1885281,
               "lng" : 29.0609636
            },
            "location_type" : "APPROXIMATE",
            "viewport" : {
               "northeast" : {
                  "lat" : 40.276336,
                  "lng" : 29.202363
               },
               "southwest" : {
                  "lat" : 40.16702,
                  "lng" : 28.862216
               }
            }
         },
         "place_id" : "ChIJlVbU2IIVyhQRkjOX_FUFoGE",
         "types" : [ "locality", "political" ]
      },
      {
         "address_components" : [
            {
               "long_name" : "Osmangazi",
               "short_name" : "Osmangazi",
               "types" : [ "administrative_area_level_2", "political" ]
            },
            {
               "long_name" : "Bursa",
               "short_name" : "Bursa",
               "types" : [ "administrative_area_level_1", "political" ]
            },
            {
               "long_name" : "Turkey",
               "short_name" : "TR",
               "types" : [ "country", "political" ]
            }
         ],
         "formatted_address" : "Osmangazi/Bursa, Turkey",
         "geometry" : {
            "bounds" : {
               "northeast" : {
                  "lat" : 40.3447159,
                  "lng" : 29.26984
               },
               "southwest" : {
                  "lat" : 39.98636399999999,
                  "lng" : 28.919984
               }
            },
            "location" : {
               "lat" : 40.1794498,
               "lng" : 29.0227201
            },
            "location_type" : "APPROXIMATE",
            "viewport" : {
               "northeast" : {
                  "lat" : 40.3447159,
                  "lng" : 29.26984
               },
               "southwest" : {
                  "lat" : 39.98636399999999,
                  "lng" : 28.919984
               }
            }
         },
         "place_id" : "ChIJO1HUDDM8yhQROsoHltWpfgY",
         "types" : [ "administrative_area_level_2", "political" ]
      },
      {
         "address_components" : [
            {
               "long_name" : "Bursa",
               "short_name" : "Bursa",
               "types" : [ "administrative_area_level_1", "political" ]
            },
            {
               "long_name" : "Turkey",
               "short_name" : "TR",
               "types" : [ "country", "political" ]
            }
         ],
         "formatted_address" : "Bursa, Turkey",
         "geometry" : {
            "bounds" : {
               "northeast" : {
                  "lat" : 40.6212121,
                  "lng" : 29.9561661
               },
               "southwest" : {
                  "lat" : 39.5937439,
                  "lng" : 28.0876659
               }
            },
            "location" : {
               "lat" : 40.0655459,
               "lng" : 29.2320784
            },
            "location_type" : "APPROXIMATE",
            "viewport" : {
               "northeast" : {
                  "lat" : 40.6212121,
                  "lng" : 29.9561661
               },
               "southwest" : {
                  "lat" : 39.5937439,
                  "lng" : 28.0876659
               }
            }
         },
         "place_id" : "ChIJqSK43XuPtRQRzUZGtXCmLJI",
         "types" : [ "administrative_area_level_1", "political" ]
      },
      {
         "address_components" : [
            {
               "long_name" : "Turkey",
               "short_name" : "TR",
               "types" : [ "country", "political" ]
            }
         ],
         "formatted_address" : "Turkey",
         "geometry" : {
            "bounds" : {
               "northeast" : {
                  "lat" : 42.3666999,
                  "lng" : 44.8178449
               },
               "southwest" : {
                  "lat" : 35.808592,
                  "lng" : 25.5377
               }
            },
            "location" : {
               "lat" : 38.963745,
               "lng" : 35.243322
            },
            "location_type" : "APPROXIMATE",
            "viewport" : {
               "northeast" : {
                  "lat" : 42.3666999,
                  "lng" : 44.8178449
               },
               "southwest" : {
                  "lat" : 35.808592,
                  "lng" : 25.5377
               }
            }
         },
         "place_id" : "ChIJcSZPllwVsBQRKl9iKtTb2UA",
         "types" : [ "country", "political" ]
      }
   ],
   "status" : "OK"
}
