{
   "plus_code" : {
      "compound_code" : "QX86+VGV İzmit/Kocaeli, Turkey",
      "global_code" : "8GGFQX86+VGV"
   },
   "results" : [
      {
         "address_components" : [
            {
               "long_name" : "2",
               "short_name" : "2",
               "types" : [ "street_number" ]
            },
            {
               "long_name" : "Gülbahçe Sokak",
               "short_name" : "Gülbahçe Sk.",
               "types" : [ "route" ]
            },
            {
               "long_name" : "Yenişehir",
               "short_name" : "Yenişehir",
               "types" : [ "administrative_area_level_4", "political" ]
            },
            {
               "long_name" : "İzmit",
               "short_name" : "İzmit",
               "types" : [ "administrative_area_level_2", "political" ]
            },
            {
               "long_name" : "Kocaeli",
               "short_name" : "Kocaeli",
               "types" : [ "administrative_area_level_1", "political" ]
            },
            {
               "long_name" : "Turkey",
               "short_name" : "TR",
               "types" : [ "country", "political" ]
            },
            {
               "long_name" : "41050",
               "short_name" : "41050",
               "types" : [ "postal_code" ]
            }
         ],
         "formatted_address" : "Yenişehir, Gülbahçe Sk. No:2, 41050 İzmit/Kocaeli, Turkey",
         "geometry" : {
            "location" : {
               "lat" : 40.7672038,
               "lng" : 29.961294
            },
            "location_type" : "ROOFTOP",
            "viewport" : {
               "northeast" : {
                  "lat" : 40.7685527802915,
                  "lng" : 29.9626429802915
               },
               "southwest" : {
                  "lat" : 40.7658548197085,
                  "lng" : 29.9599450197085
               }
            }
         },
         "place_id" : "ChIJVRHulO9PyxQRt_nPw_-5yhY",
         "plus_code" : {
            "compound_code" : "QX86+VG İzmit/Kocaeli, Turkey",
            "global_code" : "8GGFQX86+VG"
         },
         "types" : [ "street_address" ]
      },
      {
         "address_components" : [
            {
               "long_name" : "4",
               "short_name" : "4",
               "types" : [ "street_number" ]
            },
            {
               "long_name" : "Gülbahçe Sokak",
               "short_name" : "Gülbahçe Sk.",
               "types" : [ "route" ]
            },
            {
               "long_name" : "Yenişehir",
               "short_name" : "Yenişehir",
               "types" : [ "administrative_area_level_4", "political" ]
            },
            {
               "long_name" : "İzmit",
               "short_name" : "İzmit",
               "types" : [ "administrative_area_level_2", "political" ]
            },
            {
               "long_name" : "Kocaeli",
               "short_name" : "Kocaeli",
               "types" : [ "administrative_area_level_1", "political" ]
            },
            {
               "long_name" : "Turkey",
               "short_name" : "TR",
               "types" : [ "country", "political" ]
            },
            {
               "long_name" : "41050",
               "short_name" : "41050",
               "types" : [ "postal_code" ]
            }
         ],
         "formatted_address" : "Yenişehir, Gülbahçe Sk. No:4, 41050 İzmit/Kocaeli, Turkey",
         "geometry" : {
            "location" : {
               "lat" : 40.7673431,
               "lng" : 29.96117
            },
            "location_type" : "RANGE_INTERPOLATED",
            "viewport" : {
               "northeast" : {
                  "lat" : 40.76869208029149,
                  "lng" : 29.9625189802915
               },
               "southwest" : {
                  "lat" : 40.76599411970849,
                  "lng" : 29.9598210197085
               }
            }
         },
         "place_id" : "Ej1ZZW5pxZ9laGlyLCBHw7xsYmFow6dlIFNrLiBObzo0LCA0MTA1MCDEsHptaXQvS29jYWVsaSwgVHVya2V5IhoSGAoUChIJAZLble9PyxQR6abRRpM03ScQBA",
         "types" : [ "street_address" ]
      },
      {
         "address_components" : [
            {
               "long_name" : "QX86+VG",
               "short_name" : "QX86+VG",
               "types" : [ "plus_code" ]
            },
            {
               "long_name" : "İzmit",
               "short_name" : "İzmit",
               "types" : [ "administrative_area_level_2", "political" ]
            },
            {
               "long_name" : "Kocaeli",
               "short_name" : "Kocaeli",
               "types" : [ "administrative_area_level_1", "political" ]
            },
            {
               "long_name" : "Turkey",
               "short_name" : "TR",
               "types" : [ "country", "political" ]
            }
         ],
         "formatted_address" : "QX86+VG İzmit/Kocaeli, Turkey",
         "geometry" : {
            "bounds" : {
               "northeast" : {
                  "lat" : 40.76725,
                  "lng" : 29.961375
               },
               "southwest" : {
                  "lat" : 40.767125,
                  "lng" : 29.96125
               }
            },
            "location" : {
               "lat" : 40.7672491,
               "lng" : 29.9613047
            },
            "location_type" : "GEOMETRIC_CENTER",
            "viewport" : {
               "northeast" : {
                  "lat" : 40.7685364802915,
                  "lng" : 29.9626614802915
               },
               "southwest" : {
                  "lat" : 40.7658385197085,
                  "lng" : 29.9599635197085
               }
            }
         },
         "place_id" : "GhIJVjHwNzViREARuf2XEBj2PUA",
         "plus_code" : {
            "compound_code" : "QX86+VG İzmit/Kocaeli, Turkey",
            "global_code" : "8GGFQX86+VG"
         },
         "types" : [ "plus_code" ]
      },
      {
         "address_components" : [
            {
               "long_name" : "21-1",
               "short_name" : "21-1",
               "types" : [ "street_number" ]
            },
            {
               "long_name" : "Gülbahçe Sokak",
               "short_name" : "Gülbahçe Sk.",
               "types" : [ "route" ]
            },
            {
               "long_name" : "Yenişehir",
               "short_name" : "Yenişehir",
               "types" : [ "administrative_area_level_4", "political" ]
            },
            {
               "long_name" : "İzmit",
               "short_name" : "İzmit",
               "types" : [ "administrative_area_level_2", "political" ]
            },
            {
               "long_name" : "Kocaeli",
               "short_name" : "Kocaeli",
               "types" : [ "administrative_area_level_1", "political" ]
            },
            {
               "long_name" : "Turkey",
               "short_name" : "TR",
               "types" : [ "country", "political" ]
            },
            {
               "long_name" : "41050",
               "short_name" : "41050",
               "types" : [ "postal_code" ]
            }
         ],
         "formatted_address" : "Yenişehir, Gülbahçe Sk. 21-1, 41050 İzmit/Kocaeli, Turkey",
         "geometry" : {
            "bounds" : {
               "northeast" : {
                  "lat" : 40.76764,
                  "lng" : 29.961205
               },
               "southwest" : {
                  "lat" : 40.7670635,
                  "lng" : 29.961137
               }
            },
            "location" : {
               "lat" : 40.7673518,
               "lng" : 29.961171
            },
            "location_type" : "GEOMETRIC_CENTER",
            "viewport" : {
               "northeast" : {
                  "lat" : 40.7687007302915,
                  "lng" : 29.9625199802915
               },
               "southwest" : {
                  "lat" : 40.7660027697085,
                  "lng" : 29.9598220197085
               }
            }
         },
         "place_id" : "ChIJAZLble9PyxQR6KbRRpM03Sc",
         "types" : [ "route" ]
      },
      {
         "address_components" : [
            {
               "long_name" : "41050",
               "short_name" : "41050",
               "types" : [ "postal_code" ]
            },
            {
               "long_name" : "İzmit",
               "short_name" : "İzmit",
               "types" : [ "administrative_area_level_2", "political" ]
            },
            {
               "long_name" : "Kocaeli",
               "short_name" : "Kocaeli",
               "types" : [ "administrative_area_level_1", "political" ]
            },
            {
               "long_name" : "Turkey",
               "short_name" : "TR",
               "types" : [ "country", "political" ]
            }
         ],
         "formatted_address" : "41050 İzmit/Kocaeli, Turkey",
         "geometry" : {
            "bounds" : {
               "northeast" : {
                  "lat" : 40.785357,
                  "lng" : 29.9743019
               },
               "southwest" : {
                  "lat" : 40.761615,
                  "lng" : 29.9535201
               }
            },
            "location" : {
               "lat" : 40.77316889999999,
               "lng" : 29.9639357
            },
            "location_type" : "APPROXIMATE",
            "viewport" : {
               "northeast" : {
                  "lat" : 40.785357,
                  "lng" : 29.9743019
               },
               "southwest" : {
                  "lat" : 40.761615,
                  "lng" : 29.9535201
               }
            }
         },
         "place_id" : "ChIJV6Su7OdPyxQRAHGUAqFQ3oA",
         "types" : [ "postal_code" ]
      },
      {
         "address_components" : [
            {
               "long_name" : "Yenişehir",
               "short_name" : "Yenişehir",
               "types" : [ "administrative_area_level_4", "political" ]
            },
            {
               "long_name" : "İzmit",
               "short_name" : "İzmit",
               "types" : [ "administrative_area_level_2", "political" ]
            },
            {
               "long_name" : "Kocaeli",
               "short_name" : "Kocaeli",
               "types" : [ "administrative_area_level_1", "political" ]
            },
            {
               "long_name" : "Turkey",
               "short_name" : "TR",
               "types" : [ "country", "political" ]
            },
            {
               "long_name" : "41050",
               "short_name" : "41050",
               "types" : [ "postal_code" ]
            }
         ],
         "formatted_address" : "Yenişehir, 41050 İzmit/Kocaeli, Turkey",
         "geometry" : {
            "bounds" : {
               "northeast" : {
                  "lat" : 40.785357,
                  "lng" : 29.9743019
               },
               "southwest" : {
                  "lat" : 40.761615,
                  "lng" : 29.9535201
               }
            },
            "location" : {
               "lat" : 40.7685433,
               "lng" : 29.9639357
            },
            "location_type" : "APPROXIMATE",
            "viewport" : {
               "northeast" : {
                  "lat" : 40.785357,
                  "lng" : 29.9743019
               },
               "southwest" : {
                  "lat" : 40.761615,
                  "lng" : 29.9535201
               }
            }
         },
         "place_id" : "ChIJD0RSk-dPyxQRiuBGUtnHPvk",
         "types" : [ "administrative_area_level_4", "political" ]
      },
      {
         "address_components" : [
            {
               "long_name" : "İzmit",
               "short_name" : "İzmit",
               "types" : [ "locality", "political" ]
            },
            {
               "long_name" : "İzmit",
               "short_name" : "İzmit",
               "types" : [ "administrative_area_level_2", "political" ]
            },
            {
               "long_name" : "Kocaeli",
               "short_name" : "Kocaeli",
               "types" : [ "administrative_area_level_1", "political" ]
            },
            {
               "long_name" : "Turkey",
               "short_name" : "TR",
               "types" : [ "country", "political" ]
            }
         ],
         "formatted_address" : "İzmit, Kocaeli, Turkey",
         "geometry" : {
            "bounds" : {
               "northeast" : {
                  "lat" : 40.805401,
                  "lng" : 30.014834
               },
               "southwest" : {
                  "lat" : 40.736827,
                  "lng" : 29.8541681
               }
            },
            "location" : {
               "lat" : 40.7654408,
               "lng" : 29.9408089
            },
            "location_type" : "APPROXIMATE",
            "viewport" : {
               "northeast" : {
                  "lat" : 40.805401,
                  "lng" : 30.014834
               },
               "southwest" : {
                  "lat" : 40.736827,
                  "lng" : 29.8541681
               }
            }
         },
         "place_id" : "ChIJnftLZGZPyxQRuX5rWOcOaYI",
         "types" : [ "locality", "political" ]
      },
      {
         "address_components" : [
            {
               "long_name" : "İzmit",
               "short_name" : "İzmit",
               "types" : [ "administrative_area_level_2", "political" ]
            },
            {
               "long_name" : "Kocaeli",
               "short_name" : "Kocaeli",
               "types" : [ "administrative_area_level_1", "political" ]
            },
            {
               "long_name" : "Turkey",
               "short_name" : "TR",
               "types" : [ "country", "political" ]
            }
         ],
         "formatted_address" : "İzmit/Kocaeli, Turkey",
         "geometry" : {
            "bounds" : {
               "northeast" : {
                  "lat" : 40.971557,
                  "lng" : 30.2639339
               },
               "southwest" : {
                  "lat" : 40.720553,
                  "lng" : 29.8541681
               }
            },
            "location" : {
               "lat" : 40.8506635,
               "lng" : 30.0202964
            },
            "location_type" : "APPROXIMATE",
            "viewport" : {
               "northeast" : {
                  "lat" : 40.971557,
                  "lng" : 30.2639339
               },
               "southwest" : {
                  "lat" : 40.720553,
                  "lng" : 29.8541681
               }
            }
         },
         "place_id" : "ChIJL2DfPLZQyxQRitx6sY9PIGU",
         "types" : [ "administrative_area_level_2", "political" ]
      },
      {
         "address_components" : [
            {
               "long_name" : "Kocaeli",
               "short_name" : "Kocaeli",
               "types" : [ "administrative_area_level_1", "political" ]
            },
            {
               "long_name" : "Turkey",
               "short_name" : "TR",
               "types" : [ "country", "political" ]
            }
         ],
         "formatted_address" : "Kocaeli, Turkey",
         "geometry" : {
            "bounds" : {
               "northeast" : {
                  "lat" : 41.20976,
                  "lng" : 30.367743
               },
               "southwest" : {
                  "lat" : 40.524151,
                  "lng" : 29.3331261
               }
            },
            "location" : {
               "lat" : 40.8532704,
               "lng" : 29.8815203
            },
            "location_type" : "APPROXIMATE",
            "viewport" : {
               "northeast" : {
                  "lat" : 41.20976,
                  "lng" : 30.367743
               },
               "southwest" : {
                  "lat" : 40.524151,
                  "lng" : 29.3331261
               }
            }
         },
         "place_id" : "ChIJQ8zKb5QgyxQRWdhW642zLKg",
         "types" : [ "administrative_area_level_1", "political" ]
      },
      {
         "address_components" : [
            {
               "long_name" : "Turkey",
               "short_name" : "TR",
               "types" : [ "country", "political" ]
            }
         ],
         "formatted_address" : "Turkey",
         "geometry" : {
            "bounds" : {
               "northeast" : {
                  "lat" : 42.3666999,
                  "lng" : 44.8178449
               },
               "southwest" : {
                  "lat" : 35.808592,
                  "lng" : 25.5377
               }
            },
            "location" : {
               "lat" : 38.963745,
               "lng" : 35.243322
            },
            "location_type" : "APPROXIMATE",
            "viewport" : {
               "northeast" : {
                  "lat" : 42.3666999,
                  "lng" : 44.8178449
               },
               "southwest" : {
                  "lat" : 35.808592,
                  "lng" : 25.5377
               }
            }
         },
         "place_id" : "ChIJcSZPllwVsBQRKl9iKtTb2UA",
         "types" : [ "country", "political" ]
      }
   ],
   "status" : "OK"
}
