{
   "plus_code" : {
      "compound_code" : "PXW3+HV9 İzmit/Kocaeli, Turkey",
      "global_code" : "8GGFPXW3+HV9"
   },
   "results" : [
      {
         "address_components" : [
            {
               "long_name" : "1",
               "short_name" : "1",
               "types" : [ "street_number" ]
            },
            {
               "long_name" : "Eroğlu Sokak",
               "short_name" : "Eroğlu Sk.",
               "types" : [ "route" ]
            },
            {
               "long_name" : "Vezirçiftliği",
               "short_name" : "Vezirçiftliği",
               "types" : [ "administrative_area_level_4", "political" ]
            },
            {
               "long_name" : "Başiskele",
               "short_name" : "Başiskele",
               "types" : [ "administrative_area_level_2", "political" ]
            },
            {
               "long_name" : "Kocaeli",
               "short_name" : "Kocaeli",
               "types" : [ "administrative_area_level_1", "political" ]
            },
            {
               "long_name" : "Turkey",
               "short_name" : "TR",
               "types" : [ "country", "political" ]
            },
            {
               "long_name" : "41140",
               "short_name" : "41140",
               "types" : [ "postal_code" ]
            }
         ],
         "formatted_address" : "Vezirçiftliği, Eroğlu Sk. No:1, 41140 Başiskele/Kocaeli, Turkey",
         "geometry" : {
            "location" : {
               "lat" : 40.74640309999999,
               "lng" : 29.9549546
            },
            "location_type" : "ROOFTOP",
            "viewport" : {
               "northeast" : {
                  "lat" : 40.7477520802915,
                  "lng" : 29.9563035802915
               },
               "southwest" : {
                  "lat" : 40.7450541197085,
                  "lng" : 29.9536056197085
               }
            }
         },
         "place_id" : "ChIJjRGbo0NFyxQRaPG0kGFd2es",
         "plus_code" : {
            "compound_code" : "PXW3+HX Başiskele/Kocaeli, Turkey",
            "global_code" : "8GGFPXW3+HX"
         },
         "types" : [ "street_address" ]
      },
      {
         "address_components" : [
            {
               "long_name" : "1",
               "short_name" : "1",
               "types" : [ "street_number" ]
            },
            {
               "long_name" : "Eroğlu Sokak",
               "short_name" : "Eroğlu Sk.",
               "types" : [ "route" ]
            },
            {
               "long_name" : "Vezirçiftliği",
               "short_name" : "Vezirçiftliği",
               "types" : [ "administrative_area_level_4", "political" ]
            },
            {
               "long_name" : "Başiskele",
               "short_name" : "Başiskele",
               "types" : [ "administrative_area_level_2", "political" ]
            },
            {
               "long_name" : "Kocaeli",
               "short_name" : "Kocaeli",
               "types" : [ "administrative_area_level_1", "political" ]
            },
            {
               "long_name" : "Turkey",
               "short_name" : "TR",
               "types" : [ "country", "political" ]
            },
            {
               "long_name" : "41140",
               "short_name" : "41140",
               "types" : [ "postal_code" ]
            }
         ],
         "formatted_address" : "Vezirçiftliği, Eroğlu Sk. No:1, 41140 Başiskele/Kocaeli, Turkey",
         "geometry" : {
            "location" : {
               "lat" : 40.7464502,
               "lng" : 29.9549621
            },
            "location_type" : "RANGE_INTERPOLATED",
            "viewport" : {
               "northeast" : {
                  "lat" : 40.7477991802915,
                  "lng" : 29.9563110802915
               },
               "southwest" : {
                  "lat" : 40.7451012197085,
                  "lng" : 29.9536131197085
               }
            }
         },
         "place_id" : "EkNWZXppcsOnaWZ0bGnEn2ksIEVyb8SfbHUgU2suIE5vOjEsIDQxMTQwIEJhxZ9pc2tlbGUvS29jYWVsaSwgVHVya2V5IhoSGAoUChIJCxjxokNFyxQRxAdnidCT_XUQAQ",
         "types" : [ "street_address" ]
      },
      {
         "address_components" : [
            {
               "long_name" : "52-54",
               "short_name" : "52-54",
               "types" : [ "street_number" ]
            },
            {
               "long_name" : "Mezbaha Caddesi",
               "short_name" : "Mezbaha Cd.",
               "types" : [ "route" ]
            },
            {
               "long_name" : "Vezirçiftliği",
               "short_name" : "Vezirçiftliği",
               "types" : [ "administrative_area_level_4", "political" ]
            },
            {
               "long_name" : "Başiskele",
               "short_name" : "Başiskele",
               "types" : [ "administrative_area_level_2", "political" ]
            },
            {
               "long_name" : "Kocaeli",
               "short_name" : "Kocaeli",
               "types" : [ "administrative_area_level_1", "political" ]
            },
            {
               "long_name" : "Turkey",
               "short_name" : "TR",
               "types" : [ "country", "political" ]
            },
            {
               "long_name" : "41140",
               "short_name" : "41140",
               "types" : [ "postal_code" ]
            }
         ],
         "formatted_address" : "Vezirçiftliği, Mezbaha Cd. 52-54, 41140 Başiskele/Kocaeli, Turkey",
         "geometry" : {
            "bounds" : {
               "northeast" : {
                  "lat" : 40.74647239999999,
                  "lng" : 29.9548051
               },
               "southwest" : {
                  "lat" : 40.74577379999999,
                  "lng" : 29.9547172
               }
            },
            "location" : {
               "lat" : 40.746122,
               "lng" : 29.9547408
            },
            "location_type" : "GEOMETRIC_CENTER",
            "viewport" : {
               "northeast" : {
                  "lat" : 40.74747208029149,
                  "lng" : 29.9561101302915
               },
               "southwest" : {
                  "lat" : 40.7447741197085,
                  "lng" : 29.9534121697085
               }
            }
         },
         "place_id" : "ChIJy0tZukNFyxQR2PIWYFzwTCk",
         "types" : [ "route" ]
      },
      {
         "address_components" : [
            {
               "long_name" : "PXW3+HV",
               "short_name" : "PXW3+HV",
               "types" : [ "plus_code" ]
            },
            {
               "long_name" : "İzmit",
               "short_name" : "İzmit",
               "types" : [ "administrative_area_level_2", "political" ]
            },
            {
               "long_name" : "Kocaeli",
               "short_name" : "Kocaeli",
               "types" : [ "administrative_area_level_1", "political" ]
            },
            {
               "long_name" : "Turkey",
               "short_name" : "TR",
               "types" : [ "country", "political" ]
            }
         ],
         "formatted_address" : "PXW3+HV İzmit/Kocaeli, Turkey",
         "geometry" : {
            "bounds" : {
               "northeast" : {
                  "lat" : 40.7465,
                  "lng" : 29.95475
               },
               "southwest" : {
                  "lat" : 40.746375,
                  "lng" : 29.954625
               }
            },
            "location" : {
               "lat" : 40.74641159999999,
               "lng" : 29.9547386
            },
            "location_type" : "GEOMETRIC_CENTER",
            "viewport" : {
               "northeast" : {
                  "lat" : 40.7477864802915,
                  "lng" : 29.9560364802915
               },
               "southwest" : {
                  "lat" : 40.7450885197085,
                  "lng" : 29.9533385197085
               }
            }
         },
         "place_id" : "GhIJca1RaopfREARlTq3v2n0PUA",
         "plus_code" : {
            "compound_code" : "PXW3+HV İzmit/Kocaeli, Turkey",
            "global_code" : "8GGFPXW3+HV"
         },
         "types" : [ "plus_code" ]
      },
      {
         "address_components" : [
            {
               "long_name" : "Sanayi",
               "short_name" : "Sanayi",
               "types" : [ "administrative_area_level_4", "political" ]
            },
            {
               "long_name" : "İzmit",
               "short_name" : "İzmit",
               "types" : [ "administrative_area_level_2", "political" ]
            },
            {
               "long_name" : "Kocaeli",
               "short_name" : "Kocaeli",
               "types" : [ "administrative_area_level_1", "political" ]
            },
            {
               "long_name" : "Turkey",
               "short_name" : "TR",
               "types" : [ "country", "political" ]
            }
         ],
         "formatted_address" : "Sanayi, İzmit/Kocaeli, Turkey",
         "geometry" : {
            "bounds" : {
               "northeast" : {
                  "lat" : 40.761105,
                  "lng" : 29.9627841
               },
               "southwest" : {
                  "lat" : 40.720553,
                  "lng" : 29.9351709
               }
            },
            "location" : {
               "lat" : 40.7441569,
               "lng" : 29.94803479999999
            },
            "location_type" : "APPROXIMATE",
            "viewport" : {
               "northeast" : {
                  "lat" : 40.761105,
                  "lng" : 29.9627841
               },
               "southwest" : {
                  "lat" : 40.720553,
                  "lng" : 29.9351709
               }
            }
         },
         "place_id" : "ChIJSVTPq2pFyxQRpG9tnzcAPGM",
         "types" : [ "administrative_area_level_4", "political" ]
      },
      {
         "address_components" : [
            {
               "long_name" : "İzmit",
               "short_name" : "İzmit",
               "types" : [ "locality", "political" ]
            },
            {
               "long_name" : "İzmit",
               "short_name" : "İzmit",
               "types" : [ "administrative_area_level_2", "political" ]
            },
            {
               "long_name" : "Kocaeli",
               "short_name" : "Kocaeli",
               "types" : [ "administrative_area_level_1", "political" ]
            },
            {
               "long_name" : "Turkey",
               "short_name" : "TR",
               "types" : [ "country", "political" ]
            }
         ],
         "formatted_address" : "İzmit, Kocaeli, Turkey",
         "geometry" : {
            "bounds" : {
               "northeast" : {
                  "lat" : 40.805401,
                  "lng" : 30.014834
               },
               "southwest" : {
                  "lat" : 40.736827,
                  "lng" : 29.8541681
               }
            },
            "location" : {
               "lat" : 40.7654408,
               "lng" : 29.9408089
            },
            "location_type" : "APPROXIMATE",
            "viewport" : {
               "northeast" : {
                  "lat" : 40.805401,
                  "lng" : 30.014834
               },
               "southwest" : {
                  "lat" : 40.736827,
                  "lng" : 29.8541681
               }
            }
         },
         "place_id" : "ChIJnftLZGZPyxQRuX5rWOcOaYI",
         "types" : [ "locality", "political" ]
      },
      {
         "address_components" : [
            {
               "long_name" : "İzmit",
               "short_name" : "İzmit",
               "types" : [ "administrative_area_level_2", "political" ]
            },
            {
               "long_name" : "Kocaeli",
               "short_name" : "Kocaeli",
               "types" : [ "administrative_area_level_1", "political" ]
            },
            {
               "long_name" : "Turkey",
               "short_name" : "TR",
               "types" : [ "country", "political" ]
            }
         ],
         "formatted_address" : "İzmit/Kocaeli, Turkey",
         "geometry" : {
            "bounds" : {
               "northeast" : {
                  "lat" : 40.971557,
                  "lng" : 30.2639339
               },
               "southwest" : {
                  "lat" : 40.720553,
                  "lng" : 29.8541681
               }
            },
            "location" : {
               "lat" : 40.8506635,
               "lng" : 30.0202964
            },
            "location_type" : "APPROXIMATE",
            "viewport" : {
               "northeast" : {
                  "lat" : 40.971557,
                  "lng" : 30.2639339
               },
               "southwest" : {
                  "lat" : 40.720553,
                  "lng" : 29.8541681
               }
            }
         },
         "place_id" : "ChIJL2DfPLZQyxQRitx6sY9PIGU",
         "types" : [ "administrative_area_level_2", "political" ]
      },
      {
         "address_components" : [
            {
               "long_name" : "Kocaeli",
               "short_name" : "Kocaeli",
               "types" : [ "administrative_area_level_1", "political" ]
            },
            {
               "long_name" : "Turkey",
               "short_name" : "TR",
               "types" : [ "country", "political" ]
            }
         ],
         "formatted_address" : "Kocaeli, Turkey",
         "geometry" : {
            "bounds" : {
               "northeast" : {
                  "lat" : 41.20976,
                  "lng" : 30.367743
               },
               "southwest" : {
                  "lat" : 40.524151,
                  "lng" : 29.3331261
               }
            },
            "location" : {
               "lat" : 40.8532704,
               "lng" : 29.8815203
            },
            "location_type" : "APPROXIMATE",
            "viewport" : {
               "northeast" : {
                  "lat" : 41.20976,
                  "lng" : 30.367743
               },
               "southwest" : {
                  "lat" : 40.524151,
                  "lng" : 29.3331261
               }
            }
         },
         "place_id" : "ChIJQ8zKb5QgyxQRWdhW642zLKg",
         "types" : [ "administrative_area_level_1", "political" ]
      },
      {
         "address_components" : [
            {
               "long_name" : "Turkey",
               "short_name" : "TR",
               "types" : [ "country", "political" ]
            }
         ],
         "formatted_address" : "Turkey",
         "geometry" : {
            "bounds" : {
               "northeast" : {
                  "lat" : 42.3666999,
                  "lng" : 44.8178449
               },
               "southwest" : {
                  "lat" : 35.808592,
                  "lng" : 25.5377
               }
            },
            "location" : {
               "lat" : 38.963745,
               "lng" : 35.243322
            },
            "location_type" : "APPROXIMATE",
            "viewport" : {
               "northeast" : {
                  "lat" : 42.3666999,
                  "lng" : 44.8178449
               },
               "southwest" : {
                  "lat" : 35.808592,
                  "lng" : 25.5377
               }
            }
         },
         "place_id" : "ChIJcSZPllwVsBQRKl9iKtTb2UA",
         "types" : [ "country", "political" ]
      }
   ],
   "status" : "OK"
}
