{
   "plus_code" : {
      "compound_code" : "53P7+WP4 Osmangazi/Bursa, Turkey",
      "global_code" : "8GGF53P7+WP4"
   },
   "results" : [
      {
         "address_components" : [
            {
               "long_name" : "20",
               "short_name" : "20",
               "types" : [ "street_number" ]
            },
            {
               "long_name" : "Yeni Bezaz Sokak",
               "short_name" : "Yeni Bezaz Sk.",
               "types" : [ "route" ]
            },
            {
               "long_name" : "Tuzpazarı",
               "short_name" : "Tuzpazarı",
               "types" : [ "administrative_area_level_4", "political" ]
            },
            {
               "long_name" : "Osmangazi",
               "short_name" : "Osmangazi",
               "types" : [ "administrative_area_level_2", "political" ]
            },
            {
               "long_name" : "Bursa",
               "short_name" : "Bursa",
               "types" : [ "administrative_area_level_1", "political" ]
            },
            {
               "long_name" : "Turkey",
               "short_name" : "TR",
               "types" : [ "country", "political" ]
            },
            {
               "long_name" : "16020",
               "short_name" : "16020",
               "types" : [ "postal_code" ]
            }
         ],
         "formatted_address" : "Tuzpazarı, Yeni Bezaz Sk. No:20, 16020 Osmangazi/Bursa, Turkey",
         "geometry" : {
            "location" : {
               "lat" : 40.1871447,
               "lng" : 29.0642875
            },
            "location_type" : "ROOFTOP",
            "viewport" : {
               "northeast" : {
                  "lat" : 40.18849368029149,
                  "lng" : 29.0656364802915
               },
               "southwest" : {
                  "lat" : 40.18579571970849,
                  "lng" : 29.0629385197085
               }
            }
         },
         "place_id" : "ChIJ38gzDwo-yhQRHQyR5oybg84",
         "plus_code" : {
            "compound_code" : "53P7+VP Osmangazi/Bursa, Turkey",
            "global_code" : "8GGF53P7+VP"
         },
         "types" : [ "street_address" ]
      },
      {
         "address_components" : [
            {
               "long_name" : "No:11",
               "short_name" : "No:11",
               "types" : [ "street_number" ]
            },
            {
               "long_name" : "Yeni Bezaz Sokak",
               "short_name" : "Yeni Bezaz Sk.",
               "types" : [ "route" ]
            },
            {
               "long_name" : "Tuzpazarı",
               "short_name" : "Tuzpazarı",
               "types" : [ "administrative_area_level_4", "political" ]
            },
            {
               "long_name" : "Osmangazi",
               "short_name" : "Osmangazi",
               "types" : [ "administrative_area_level_2", "political" ]
            },
            {
               "long_name" : "Bursa",
               "short_name" : "Bursa",
               "types" : [ "administrative_area_level_1", "political" ]
            },
            {
               "long_name" : "Turkey",
               "short_name" : "TR",
               "types" : [ "country", "political" ]
            },
            {
               "long_name" : "16020",
               "short_name" : "16020",
               "types" : [ "postal_code" ]
            }
         ],
         "formatted_address" : "Tuzpazarı, Yeni Bezaz Sk. No:11, 16020 Osmangazi/Bursa, Turkey",
         "geometry" : {
            "location" : {
               "lat" : 40.187329,
               "lng" : 29.0641812
            },
            "location_type" : "ROOFTOP",
            "viewport" : {
               "northeast" : {
                  "lat" : 40.18867798029149,
                  "lng" : 29.0655301802915
               },
               "southwest" : {
                  "lat" : 40.1859800197085,
                  "lng" : 29.0628322197085
               }
            }
         },
         "place_id" : "ChIJvy6fDwo-yhQRXu8Eb6V2pfU",
         "plus_code" : {
            "compound_code" : "53P7+WM Osmangazi/Bursa, Turkey",
            "global_code" : "8GGF53P7+WM"
         },
         "types" : [ "clothing_store", "establishment", "point_of_interest", "store" ]
      },
      {
         "address_components" : [
            {
               "long_name" : "9",
               "short_name" : "9",
               "types" : [ "street_number" ]
            },
            {
               "long_name" : "Yeni Bezaz Sokak",
               "short_name" : "Yeni Bezaz Sk.",
               "types" : [ "route" ]
            },
            {
               "long_name" : "Tuzpazarı",
               "short_name" : "Tuzpazarı",
               "types" : [ "administrative_area_level_4", "political" ]
            },
            {
               "long_name" : "Osmangazi",
               "short_name" : "Osmangazi",
               "types" : [ "administrative_area_level_2", "political" ]
            },
            {
               "long_name" : "Bursa",
               "short_name" : "Bursa",
               "types" : [ "administrative_area_level_1", "political" ]
            },
            {
               "long_name" : "Turkey",
               "short_name" : "TR",
               "types" : [ "country", "political" ]
            },
            {
               "long_name" : "16020",
               "short_name" : "16020",
               "types" : [ "postal_code" ]
            }
         ],
         "formatted_address" : "Tuzpazarı, Yeni Bezaz Sk. No:9, 16020 Osmangazi/Bursa, Turkey",
         "geometry" : {
            "location" : {
               "lat" : 40.1872423,
               "lng" : 29.0641938
            },
            "location_type" : "RANGE_INTERPOLATED",
            "viewport" : {
               "northeast" : {
                  "lat" : 40.1885912802915,
                  "lng" : 29.06554278029149
               },
               "southwest" : {
                  "lat" : 40.18589331970851,
                  "lng" : 29.0628448197085
               }
            }
         },
         "place_id" : "Ej5UdXpwYXphcsSxLCBZZW5pIEJlemF6IFNrLiBObzo5LCAxNjAyMCBPc21hbmdhemkvQnVyc2EsIFR1cmtleSIaEhgKFAoSCe9DIQYKPsoUEQN_caJFV3lbEAk",
         "types" : [ "street_address" ]
      },
      {
         "address_components" : [
            {
               "long_name" : "4-6",
               "short_name" : "4-6",
               "types" : [ "street_number" ]
            },
            {
               "long_name" : "Tahıl Sokak",
               "short_name" : "Tahıl Sk.",
               "types" : [ "route" ]
            },
            {
               "long_name" : "Tuzpazarı",
               "short_name" : "Tuzpazarı",
               "types" : [ "administrative_area_level_4", "political" ]
            },
            {
               "long_name" : "Osmangazi",
               "short_name" : "Osmangazi",
               "types" : [ "administrative_area_level_2", "political" ]
            },
            {
               "long_name" : "Bursa",
               "short_name" : "Bursa",
               "types" : [ "administrative_area_level_1", "political" ]
            },
            {
               "long_name" : "Turkey",
               "short_name" : "TR",
               "types" : [ "country", "political" ]
            },
            {
               "long_name" : "16020",
               "short_name" : "16020",
               "types" : [ "postal_code" ]
            }
         ],
         "formatted_address" : "Tuzpazarı, Tahıl Sk. 4-6, 16020 Osmangazi/Bursa, Turkey",
         "geometry" : {
            "bounds" : {
               "northeast" : {
                  "lat" : 40.1872664,
                  "lng" : 29.0646415
               },
               "southwest" : {
                  "lat" : 40.1872273,
                  "lng" : 29.0642006
               }
            },
            "location" : {
               "lat" : 40.1872398,
               "lng" : 29.0644202
            },
            "location_type" : "GEOMETRIC_CENTER",
            "viewport" : {
               "northeast" : {
                  "lat" : 40.1885958302915,
                  "lng" : 29.0657700302915
               },
               "southwest" : {
                  "lat" : 40.1858978697085,
                  "lng" : 29.0630720697085
               }
            }
         },
         "place_id" : "ChIJc6RYDgo-yhQRCPrbGtXgsdw",
         "types" : [ "route" ]
      },
      {
         "address_components" : [
            {
               "long_name" : "53P7+WP",
               "short_name" : "53P7+WP",
               "types" : [ "plus_code" ]
            },
            {
               "long_name" : "Osmangazi",
               "short_name" : "Osmangazi",
               "types" : [ "administrative_area_level_2", "political" ]
            },
            {
               "long_name" : "Bursa",
               "short_name" : "Bursa",
               "types" : [ "administrative_area_level_1", "political" ]
            },
            {
               "long_name" : "Turkey",
               "short_name" : "TR",
               "types" : [ "country", "political" ]
            }
         ],
         "formatted_address" : "53P7+WP Osmangazi/Bursa, Turkey",
         "geometry" : {
            "bounds" : {
               "northeast" : {
                  "lat" : 40.187375,
                  "lng" : 29.064375
               },
               "southwest" : {
                  "lat" : 40.18725,
                  "lng" : 29.06425
               }
            },
            "location" : {
               "lat" : 40.1872667,
               "lng" : 29.0643311
            },
            "location_type" : "GEOMETRIC_CENTER",
            "viewport" : {
               "northeast" : {
                  "lat" : 40.18866148029149,
                  "lng" : 29.0656614802915
               },
               "southwest" : {
                  "lat" : 40.18596351970849,
                  "lng" : 29.0629635197085
               }
            }
         },
         "place_id" : "GhIJnhDwWvgXREARoJ3CAHgQPUA",
         "plus_code" : {
            "compound_code" : "53P7+WP Osmangazi/Bursa, Turkey",
            "global_code" : "8GGF53P7+WP"
         },
         "types" : [ "plus_code" ]
      },
      {
         "address_components" : [
            {
               "long_name" : "Tuzpazarı",
               "short_name" : "Tuzpazarı",
               "types" : [ "administrative_area_level_4", "political" ]
            },
            {
               "long_name" : "Osmangazi",
               "short_name" : "Osmangazi",
               "types" : [ "administrative_area_level_2", "political" ]
            },
            {
               "long_name" : "Bursa",
               "short_name" : "Bursa",
               "types" : [ "administrative_area_level_1", "political" ]
            },
            {
               "long_name" : "Turkey",
               "short_name" : "TR",
               "types" : [ "country", "political" ]
            },
            {
               "long_name" : "16020",
               "short_name" : "16020",
               "types" : [ "postal_code" ]
            }
         ],
         "formatted_address" : "Tuzpazarı, 16020 Osmangazi/Bursa, Turkey",
         "geometry" : {
            "bounds" : {
               "northeast" : {
                  "lat" : 40.187951,
                  "lng" : 29.068325
               },
               "southwest" : {
                  "lat" : 40.184659,
                  "lng" : 29.0634629
               }
            },
            "location" : {
               "lat" : 40.1866678,
               "lng" : 29.0659933
            },
            "location_type" : "APPROXIMATE",
            "viewport" : {
               "northeast" : {
                  "lat" : 40.187951,
                  "lng" : 29.068325
               },
               "southwest" : {
                  "lat" : 40.184659,
                  "lng" : 29.0634629
               }
            }
         },
         "place_id" : "ChIJ5UdC1uE9yhQRIkCmOpsP9B4",
         "types" : [ "administrative_area_level_4", "political" ]
      },
      {
         "address_components" : [
            {
               "long_name" : "16020",
               "short_name" : "16020",
               "types" : [ "postal_code" ]
            },
            {
               "long_name" : "Osmangazi",
               "short_name" : "Osmangazi",
               "types" : [ "administrative_area_level_2", "political" ]
            },
            {
               "long_name" : "Bursa",
               "short_name" : "Bursa",
               "types" : [ "administrative_area_level_1", "political" ]
            },
            {
               "long_name" : "Turkey",
               "short_name" : "TR",
               "types" : [ "country", "political" ]
            }
         ],
         "formatted_address" : "16020 Osmangazi/Bursa, Turkey",
         "geometry" : {
            "bounds" : {
               "northeast" : {
                  "lat" : 40.187951,
                  "lng" : 29.069209
               },
               "southwest" : {
                  "lat" : 40.1826209,
                  "lng" : 29.0634629
               }
            },
            "location" : {
               "lat" : 40.1843141,
               "lng" : 29.0670842
            },
            "location_type" : "APPROXIMATE",
            "viewport" : {
               "northeast" : {
                  "lat" : 40.187951,
                  "lng" : 29.069209
               },
               "southwest" : {
                  "lat" : 40.1826209,
                  "lng" : 29.0634629
               }
            }
         },
         "place_id" : "ChIJObBcBeA9yhQRXaJ9bbps6nU",
         "types" : [ "postal_code" ]
      },
      {
         "address_components" : [
            {
               "long_name" : "Bursa",
               "short_name" : "Bursa",
               "types" : [ "locality", "political" ]
            },
            {
               "long_name" : "Bursa",
               "short_name" : "Bursa",
               "types" : [ "administrative_area_level_1", "political" ]
            },
            {
               "long_name" : "Turkey",
               "short_name" : "TR",
               "types" : [ "country", "political" ]
            }
         ],
         "formatted_address" : "Bursa, Turkey",
         "geometry" : {
            "bounds" : {
               "northeast" : {
                  "lat" : 40.276336,
                  "lng" : 29.202363
               },
               "southwest" : {
                  "lat" : 40.16702,
                  "lng" : 28.862216
               }
            },
            "location" : {
               "lat" : 40.1885281,
               "lng" : 29.0609636
            },
            "location_type" : "APPROXIMATE",
            "viewport" : {
               "northeast" : {
                  "lat" : 40.276336,
                  "lng" : 29.202363
               },
               "southwest" : {
                  "lat" : 40.16702,
                  "lng" : 28.862216
               }
            }
         },
         "place_id" : "ChIJlVbU2IIVyhQRkjOX_FUFoGE",
         "types" : [ "locality", "political" ]
      },
      {
         "address_components" : [
            {
               "long_name" : "Osmangazi",
               "short_name" : "Osmangazi",
               "types" : [ "administrative_area_level_2", "political" ]
            },
            {
               "long_name" : "Bursa",
               "short_name" : "Bursa",
               "types" : [ "administrative_area_level_1", "political" ]
            },
            {
               "long_name" : "Turkey",
               "short_name" : "TR",
               "types" : [ "country", "political" ]
            }
         ],
         "formatted_address" : "Osmangazi/Bursa, Turkey",
         "geometry" : {
            "bounds" : {
               "northeast" : {
                  "lat" : 40.3447159,
                  "lng" : 29.26984
               },
               "southwest" : {
                  "lat" : 39.98636399999999,
                  "lng" : 28.919984
               }
            },
            "location" : {
               "lat" : 40.1794498,
               "lng" : 29.0227201
            },
            "location_type" : "APPROXIMATE",
            "viewport" : {
               "northeast" : {
                  "lat" : 40.3447159,
                  "lng" : 29.26984
               },
               "southwest" : {
                  "lat" : 39.98636399999999,
                  "lng" : 28.919984
               }
            }
         },
         "place_id" : "ChIJO1HUDDM8yhQROsoHltWpfgY",
         "types" : [ "administrative_area_level_2", "political" ]
      },
      {
         "address_components" : [
            {
               "long_name" : "Bursa",
               "short_name" : "Bursa",
               "types" : [ "administrative_area_level_1", "political" ]
            },
            {
               "long_name" : "Turkey",
               "short_name" : "TR",
               "types" : [ "country", "political" ]
            }
         ],
         "formatted_address" : "Bursa, Turkey",
         "geometry" : {
            "bounds" : {
               "northeast" : {
                  "lat" : 40.6212121,
                  "lng" : 29.9561661
               },
               "southwest" : {
                  "lat" : 39.5937439,
                  "lng" : 28.0876659
               }
            },
            "location" : {
               "lat" : 40.0655459,
               "lng" : 29.2320784
            },
            "location_type" : "APPROXIMATE",
            "viewport" : {
               "northeast" : {
                  "lat" : 40.6212121,
                  "lng" : 29.9561661
               },
               "southwest" : {
                  "lat" : 39.5937439,
                  "lng" : 28.0876659
               }
            }
         },
         "place_id" : "ChIJqSK43XuPtRQRzUZGtXCmLJI",
         "types" : [ "administrative_area_level_1", "political" ]
      },
      {
         "address_components" : [
            {
               "long_name" : "Turkey",
               "short_name" : "TR",
               "types" : [ "country", "political" ]
            }
         ],
         "formatted_address" : "Turkey",
         "geometry" : {
            "bounds" : {
               "northeast" : {
                  "lat" : 42.3666999,
                  "lng" : 44.8178449
               },
               "southwest" : {
                  "lat" : 35.808592,
                  "lng" : 25.5377
               }
            },
            "location" : {
               "lat" : 38.963745,
               "lng" : 35.243322
            },
            "location_type" : "APPROXIMATE",
            "viewport" : {
               "northeast" : {
                  "lat" : 42.3666999,
                  "lng" : 44.8178449
               },
               "southwest" : {
                  "lat" : 35.808592,
                  "lng" : 25.5377
               }
            }
         },
         "place_id" : "ChIJcSZPllwVsBQRKl9iKtTb2UA",
         "types" : [ "country", "political" ]
      }
   ],
   "status" : "OK"
}
