{
   "plus_code" : {
      "compound_code" : "Q23F+Q99 Kartepe/Kocaeli, Turkey",
      "global_code" : "8GGGQ23F+Q99"
   },
   "results" : [
      {
         "address_components" : [
            {
               "long_name" : "3",
               "short_name" : "3",
               "types" : [ "street_number" ]
            },
            {
               "long_name" : "Nur Caddesi",
               "short_name" : "Nur Cd.",
               "types" : [ "route" ]
            },
            {
               "long_name" : "Dumlupınar",
               "short_name" : "Dumlupınar",
               "types" : [ "administrative_area_level_4", "political" ]
            },
            {
               "long_name" : "Kartepe",
               "short_name" : "Kartepe",
               "types" : [ "administrative_area_level_2", "political" ]
            },
            {
               "long_name" : "Kocaeli",
               "short_name" : "Kocaeli",
               "types" : [ "administrative_area_level_1", "political" ]
            },
            {
               "long_name" : "Turkey",
               "short_name" : "TR",
               "types" : [ "country", "political" ]
            },
            {
               "long_name" : "41250",
               "short_name" : "41250",
               "types" : [ "postal_code" ]
            }
         ],
         "formatted_address" : "Dumlupınar, Nur Cd. No:3, 41250 Kartepe/Kocaeli, Turkey",
         "geometry" : {
            "location" : {
               "lat" : 40.7544118,
               "lng" : 30.0234195
            },
            "location_type" : "ROOFTOP",
            "viewport" : {
               "northeast" : {
                  "lat" : 40.7557607802915,
                  "lng" : 30.0247684802915
               },
               "southwest" : {
                  "lat" : 40.7530628197085,
                  "lng" : 30.0220705197085
               }
            }
         },
         "place_id" : "ChIJvS07tYtQyxQRjrFlNPuHXAY",
         "plus_code" : {
            "compound_code" : "Q23F+Q9 Kartepe/Kocaeli, Turkey",
            "global_code" : "8GGGQ23F+Q9"
         },
         "types" : [ "street_address" ]
      },
      {
         "address_components" : [
            {
               "long_name" : "No:2",
               "short_name" : "No:2",
               "types" : [ "street_number" ]
            },
            {
               "long_name" : "Nur Caddesi",
               "short_name" : "Nur Cd.",
               "types" : [ "route" ]
            },
            {
               "long_name" : "Dumlupınar",
               "short_name" : "Dumlupınar",
               "types" : [ "administrative_area_level_4", "political" ]
            },
            {
               "long_name" : "Kartepe",
               "short_name" : "Kartepe",
               "types" : [ "administrative_area_level_2", "political" ]
            },
            {
               "long_name" : "Kocaeli",
               "short_name" : "Kocaeli",
               "types" : [ "administrative_area_level_1", "political" ]
            },
            {
               "long_name" : "Turkey",
               "short_name" : "TR",
               "types" : [ "country", "political" ]
            },
            {
               "long_name" : "41250",
               "short_name" : "41250",
               "types" : [ "postal_code" ]
            }
         ],
         "formatted_address" : "Dumlupınar, Nur Cd. No:2, 41250 Kartepe/Kocaeli, Turkey",
         "geometry" : {
            "location" : {
               "lat" : 40.7542908,
               "lng" : 30.0236276
            },
            "location_type" : "ROOFTOP",
            "viewport" : {
               "northeast" : {
                  "lat" : 40.7556397802915,
                  "lng" : 30.0249765802915
               },
               "southwest" : {
                  "lat" : 40.7529418197085,
                  "lng" : 30.0222786197085
               }
            }
         },
         "place_id" : "ChIJ35PZtYtQyxQR3fVsEmx74a0",
         "plus_code" : {
            "compound_code" : "Q23F+PF Kartepe/Kocaeli, Turkey",
            "global_code" : "8GGGQ23F+PF"
         },
         "types" : [ "establishment", "food", "point_of_interest", "restaurant" ]
      },
      {
         "address_components" : [
            {
               "long_name" : "4",
               "short_name" : "4",
               "types" : [ "street_number" ]
            },
            {
               "long_name" : "Nur Caddesi",
               "short_name" : "Nur Cd.",
               "types" : [ "route" ]
            },
            {
               "long_name" : "Dumlupınar",
               "short_name" : "Dumlupınar",
               "types" : [ "administrative_area_level_4", "political" ]
            },
            {
               "long_name" : "Kartepe",
               "short_name" : "Kartepe",
               "types" : [ "administrative_area_level_2", "political" ]
            },
            {
               "long_name" : "Kocaeli",
               "short_name" : "Kocaeli",
               "types" : [ "administrative_area_level_1", "political" ]
            },
            {
               "long_name" : "Turkey",
               "short_name" : "TR",
               "types" : [ "country", "political" ]
            },
            {
               "long_name" : "41250",
               "short_name" : "41250",
               "types" : [ "postal_code" ]
            }
         ],
         "formatted_address" : "Dumlupınar, Nur Cd. No:4, 41250 Kartepe/Kocaeli, Turkey",
         "geometry" : {
            "location" : {
               "lat" : 40.7545259,
               "lng" : 30.0234087
            },
            "location_type" : "RANGE_INTERPOLATED",
            "viewport" : {
               "northeast" : {
                  "lat" : 40.75587488029151,
                  "lng" : 30.0247576802915
               },
               "southwest" : {
                  "lat" : 40.75317691970851,
                  "lng" : 30.0220597197085
               }
            }
         },
         "place_id" : "EjhEdW1sdXDEsW5hciwgTnVyIENkLiBObzo0LCA0MTI1MCBLYXJ0ZXBlL0tvY2FlbGksIFR1cmtleSIaEhgKFAoSCa91hquLUMsUEcAjtrKYqq_sEAQ",
         "types" : [ "street_address" ]
      },
      {
         "address_components" : [
            {
               "long_name" : "Q23F+Q9",
               "short_name" : "Q23F+Q9",
               "types" : [ "plus_code" ]
            },
            {
               "long_name" : "Kartepe",
               "short_name" : "Kartepe",
               "types" : [ "administrative_area_level_2", "political" ]
            },
            {
               "long_name" : "Kocaeli",
               "short_name" : "Kocaeli",
               "types" : [ "administrative_area_level_1", "political" ]
            },
            {
               "long_name" : "Turkey",
               "short_name" : "TR",
               "types" : [ "country", "political" ]
            }
         ],
         "formatted_address" : "Q23F+Q9 Kartepe/Kocaeli, Turkey",
         "geometry" : {
            "bounds" : {
               "northeast" : {
                  "lat" : 40.7545,
                  "lng" : 30.0235
               },
               "southwest" : {
                  "lat" : 40.754375,
                  "lng" : 30.02337499999999
               }
            },
            "location" : {
               "lat" : 40.7544093,
               "lng" : 30.023489
            },
            "location_type" : "GEOMETRIC_CENTER",
            "viewport" : {
               "northeast" : {
                  "lat" : 40.7557864802915,
                  "lng" : 30.02478648029149
               },
               "southwest" : {
                  "lat" : 40.7530885197085,
                  "lng" : 30.0220885197085
               }
            }
         },
         "place_id" : "GhIJLabje5BgREAR1dAGYAMGPkA",
         "plus_code" : {
            "compound_code" : "Q23F+Q9 Kartepe/Kocaeli, Turkey",
            "global_code" : "8GGGQ23F+Q9"
         },
         "types" : [ "plus_code" ]
      },
      {
         "address_components" : [
            {
               "long_name" : "2-19",
               "short_name" : "2-19",
               "types" : [ "street_number" ]
            },
            {
               "long_name" : "Nur Caddesi",
               "short_name" : "Nur Cd.",
               "types" : [ "route" ]
            },
            {
               "long_name" : "Dumlupınar",
               "short_name" : "Dumlupınar",
               "types" : [ "administrative_area_level_4", "political" ]
            },
            {
               "long_name" : "Kartepe",
               "short_name" : "Kartepe",
               "types" : [ "administrative_area_level_2", "political" ]
            },
            {
               "long_name" : "Kocaeli",
               "short_name" : "Kocaeli",
               "types" : [ "administrative_area_level_1", "political" ]
            },
            {
               "long_name" : "Turkey",
               "short_name" : "TR",
               "types" : [ "country", "political" ]
            },
            {
               "long_name" : "41250",
               "short_name" : "41250",
               "types" : [ "postal_code" ]
            }
         ],
         "formatted_address" : "Dumlupınar, Nur Cd. 2-19, 41250 Kartepe/Kocaeli, Turkey",
         "geometry" : {
            "bounds" : {
               "northeast" : {
                  "lat" : 40.7553255,
                  "lng" : 30.02343919999999
               },
               "southwest" : {
                  "lat" : 40.7541453,
                  "lng" : 30.0233935
               }
            },
            "location" : {
               "lat" : 40.7547389,
               "lng" : 30.0234136
            },
            "location_type" : "GEOMETRIC_CENTER",
            "viewport" : {
               "northeast" : {
                  "lat" : 40.7560843802915,
                  "lng" : 30.0247653302915
               },
               "southwest" : {
                  "lat" : 40.7533864197085,
                  "lng" : 30.0220673697085
               }
            }
         },
         "place_id" : "ChIJr3WGq4tQyxQRwCO2spiqr-w",
         "types" : [ "route" ]
      },
      {
         "address_components" : [
            {
               "long_name" : "41250",
               "short_name" : "41250",
               "types" : [ "postal_code" ]
            },
            {
               "long_name" : "Dumlupınar",
               "short_name" : "Dumlupınar",
               "types" : [ "administrative_area_level_4", "political" ]
            },
            {
               "long_name" : "Kartepe",
               "short_name" : "Kartepe",
               "types" : [ "administrative_area_level_2", "political" ]
            },
            {
               "long_name" : "Kocaeli",
               "short_name" : "Kocaeli",
               "types" : [ "administrative_area_level_1", "political" ]
            },
            {
               "long_name" : "Turkey",
               "short_name" : "TR",
               "types" : [ "country", "political" ]
            }
         ],
         "formatted_address" : "Dumlupınar, 41250 Kartepe/Kocaeli, Turkey",
         "geometry" : {
            "bounds" : {
               "northeast" : {
                  "lat" : 40.766667,
                  "lng" : 30.0325759
               },
               "southwest" : {
                  "lat" : 40.7521091,
                  "lng" : 29.994263
               }
            },
            "location" : {
               "lat" : 40.758402,
               "lng" : 30.0116271
            },
            "location_type" : "APPROXIMATE",
            "viewport" : {
               "northeast" : {
                  "lat" : 40.766667,
                  "lng" : 30.0325759
               },
               "southwest" : {
                  "lat" : 40.7521091,
                  "lng" : 29.994263
               }
            }
         },
         "place_id" : "ChIJ6YT2Q2dQyxQR0LFWkbSvIrk",
         "types" : [ "postal_code" ]
      },
      {
         "address_components" : [
            {
               "long_name" : "Dumlupınar",
               "short_name" : "Dumlupınar",
               "types" : [ "administrative_area_level_4", "political" ]
            },
            {
               "long_name" : "Kartepe",
               "short_name" : "Kartepe",
               "types" : [ "administrative_area_level_2", "political" ]
            },
            {
               "long_name" : "Kocaeli",
               "short_name" : "Kocaeli",
               "types" : [ "administrative_area_level_1", "political" ]
            },
            {
               "long_name" : "Turkey",
               "short_name" : "TR",
               "types" : [ "country", "political" ]
            }
         ],
         "formatted_address" : "Dumlupınar, Kartepe/Kocaeli, Turkey",
         "geometry" : {
            "bounds" : {
               "northeast" : {
                  "lat" : 40.766667,
                  "lng" : 30.0325759
               },
               "southwest" : {
                  "lat" : 40.7521091,
                  "lng" : 29.993045
               }
            },
            "location" : {
               "lat" : 40.7559663,
               "lng" : 30.0181291
            },
            "location_type" : "APPROXIMATE",
            "viewport" : {
               "northeast" : {
                  "lat" : 40.766667,
                  "lng" : 30.0325759
               },
               "southwest" : {
                  "lat" : 40.7521091,
                  "lng" : 29.993045
               }
            }
         },
         "place_id" : "ChIJ3wuQG2FQyxQRlNcRkfsgu0g",
         "types" : [ "administrative_area_level_4", "political" ]
      },
      {
         "address_components" : [
            {
               "long_name" : "Kartepe",
               "short_name" : "Kartepe",
               "types" : [ "locality", "political" ]
            },
            {
               "long_name" : "Kartepe",
               "short_name" : "Kartepe",
               "types" : [ "administrative_area_level_2", "political" ]
            },
            {
               "long_name" : "Kocaeli",
               "short_name" : "Kocaeli",
               "types" : [ "administrative_area_level_1", "political" ]
            },
            {
               "long_name" : "Turkey",
               "short_name" : "TR",
               "types" : [ "country", "political" ]
            }
         ],
         "formatted_address" : "Kartepe, Kocaeli, Turkey",
         "geometry" : {
            "bounds" : {
               "northeast" : {
                  "lat" : 40.765152,
                  "lng" : 30.0698489
               },
               "southwest" : {
                  "lat" : 40.7254181,
                  "lng" : 29.995538
               }
            },
            "location" : {
               "lat" : 40.753369,
               "lng" : 30.023216
            },
            "location_type" : "APPROXIMATE",
            "viewport" : {
               "northeast" : {
                  "lat" : 40.765152,
                  "lng" : 30.0698489
               },
               "southwest" : {
                  "lat" : 40.7254181,
                  "lng" : 29.995538
               }
            }
         },
         "place_id" : "ChIJMxJMpppQyxQRLgrLvzScZHI",
         "types" : [ "locality", "political" ]
      },
      {
         "address_components" : [
            {
               "long_name" : "Kartepe",
               "short_name" : "Kartepe",
               "types" : [ "administrative_area_level_2", "political" ]
            },
            {
               "long_name" : "Kocaeli",
               "short_name" : "Kocaeli",
               "types" : [ "administrative_area_level_1", "political" ]
            },
            {
               "long_name" : "Turkey",
               "short_name" : "TR",
               "types" : [ "country", "political" ]
            }
         ],
         "formatted_address" : "Kartepe/Kocaeli, Turkey",
         "geometry" : {
            "bounds" : {
               "northeast" : {
                  "lat" : 40.786927,
                  "lng" : 30.26217
               },
               "southwest" : {
                  "lat" : 40.588952,
                  "lng" : 29.9860989
               }
            },
            "location" : {
               "lat" : 40.70139169999999,
               "lng" : 30.0896313
            },
            "location_type" : "APPROXIMATE",
            "viewport" : {
               "northeast" : {
                  "lat" : 40.786927,
                  "lng" : 30.26217
               },
               "southwest" : {
                  "lat" : 40.588952,
                  "lng" : 29.9860989
               }
            }
         },
         "place_id" : "ChIJY9NMDlFYyxQRxGvcZ6xs_aY",
         "types" : [ "administrative_area_level_2", "political" ]
      },
      {
         "address_components" : [
            {
               "long_name" : "Kocaeli",
               "short_name" : "Kocaeli",
               "types" : [ "administrative_area_level_1", "political" ]
            },
            {
               "long_name" : "Turkey",
               "short_name" : "TR",
               "types" : [ "country", "political" ]
            }
         ],
         "formatted_address" : "Kocaeli, Turkey",
         "geometry" : {
            "bounds" : {
               "northeast" : {
                  "lat" : 41.20976,
                  "lng" : 30.367743
               },
               "southwest" : {
                  "lat" : 40.524151,
                  "lng" : 29.3331261
               }
            },
            "location" : {
               "lat" : 40.8532704,
               "lng" : 29.8815203
            },
            "location_type" : "APPROXIMATE",
            "viewport" : {
               "northeast" : {
                  "lat" : 41.20976,
                  "lng" : 30.367743
               },
               "southwest" : {
                  "lat" : 40.524151,
                  "lng" : 29.3331261
               }
            }
         },
         "place_id" : "ChIJQ8zKb5QgyxQRWdhW642zLKg",
         "types" : [ "administrative_area_level_1", "political" ]
      },
      {
         "address_components" : [
            {
               "long_name" : "Turkey",
               "short_name" : "TR",
               "types" : [ "country", "political" ]
            }
         ],
         "formatted_address" : "Turkey",
         "geometry" : {
            "bounds" : {
               "northeast" : {
                  "lat" : 42.3666999,
                  "lng" : 44.8178449
               },
               "southwest" : {
                  "lat" : 35.808592,
                  "lng" : 25.5377
               }
            },
            "location" : {
               "lat" : 38.963745,
               "lng" : 35.243322
            },
            "location_type" : "APPROXIMATE",
            "viewport" : {
               "northeast" : {
                  "lat" : 42.3666999,
                  "lng" : 44.8178449
               },
               "southwest" : {
                  "lat" : 35.808592,
                  "lng" : 25.5377
               }
            }
         },
         "place_id" : "ChIJcSZPllwVsBQRKl9iKtTb2UA",
         "types" : [ "country", "political" ]
      }
   ],
   "status" : "OK"
}
