{
   "plus_code" : {
      "compound_code" : "QGFC+W22 Odunpazarı/Eskişehir, Turkey",
      "global_code" : "8GFGQGFC+W22"
   },
   "results" : [
      {
         "address_components" : [
            {
               "long_name" : "5",
               "short_name" : "5",
               "types" : [ "street_number" ]
            },
            {
               "long_name" : "Değirmen Sokak",
               "short_name" : "Değirmen Sk.",
               "types" : [ "route" ]
            },
            {
               "long_name" : "Deliklitaş",
               "short_name" : "Deliklitaş",
               "types" : [ "administrative_area_level_4", "political" ]
            },
            {
               "long_name" : "Odunpazarı",
               "short_name" : "Odunpazarı",
               "types" : [ "administrative_area_level_2", "political" ]
            },
            {
               "long_name" : "Eskişehir",
               "short_name" : "Eskişehir",
               "types" : [ "administrative_area_level_1", "political" ]
            },
            {
               "long_name" : "Turkey",
               "short_name" : "TR",
               "types" : [ "country", "political" ]
            },
            {
               "long_name" : "26090",
               "short_name" : "26090",
               "types" : [ "postal_code" ]
            }
         ],
         "formatted_address" : "Deliklitaş, Değirmen Sk. No:5, 26090 Odunpazarı/Eskişehir, Turkey",
         "geometry" : {
            "location" : {
               "lat" : 39.774567,
               "lng" : 30.5199011
            },
            "location_type" : "ROOFTOP",
            "viewport" : {
               "northeast" : {
                  "lat" : 39.7759159802915,
                  "lng" : 30.5212500802915
               },
               "southwest" : {
                  "lat" : 39.7732180197085,
                  "lng" : 30.5185521197085
               }
            }
         },
         "place_id" : "ChIJHZpBBQcWzBQRw8bXR2ZK8Cc",
         "plus_code" : {
            "compound_code" : "QGF9+RX Odunpazarı/Eskişehir, Turkey",
            "global_code" : "8GFGQGF9+RX"
         },
         "types" : [ "street_address" ]
      },
      {
         "address_components" : [
            {
               "long_name" : "5",
               "short_name" : "5",
               "types" : [ "street_number" ]
            },
            {
               "long_name" : "Değirmen Sokak",
               "short_name" : "Değirmen Sk.",
               "types" : [ "route" ]
            },
            {
               "long_name" : "Deliklitaş",
               "short_name" : "Deliklitaş",
               "types" : [ "administrative_area_level_4", "political" ]
            },
            {
               "long_name" : "Odunpazarı",
               "short_name" : "Odunpazarı",
               "types" : [ "administrative_area_level_2", "political" ]
            },
            {
               "long_name" : "Eskişehir",
               "short_name" : "Eskişehir",
               "types" : [ "administrative_area_level_1", "political" ]
            },
            {
               "long_name" : "Turkey",
               "short_name" : "TR",
               "types" : [ "country", "political" ]
            },
            {
               "long_name" : "26090",
               "short_name" : "26090",
               "types" : [ "postal_code" ]
            }
         ],
         "formatted_address" : "Deliklitaş, Değirmen Sk. No:5, 26090 Odunpazarı/Eskişehir, Turkey",
         "geometry" : {
            "location" : {
               "lat" : 39.774567,
               "lng" : 30.5199011
            },
            "location_type" : "ROOFTOP",
            "viewport" : {
               "northeast" : {
                  "lat" : 39.7759159802915,
                  "lng" : 30.5212500802915
               },
               "southwest" : {
                  "lat" : 39.7732180197085,
                  "lng" : 30.5185521197085
               }
            }
         },
         "place_id" : "ChIJBawXBwcWzBQRsg605WTHUVY",
         "plus_code" : {
            "compound_code" : "QGF9+RX Odunpazarı/Eskişehir, Turkey",
            "global_code" : "8GFGQGF9+RX"
         },
         "types" : [ "establishment", "point_of_interest", "shoe_store", "store" ]
      },
      {
         "address_components" : [
            {
               "long_name" : "5",
               "short_name" : "5",
               "types" : [ "street_number" ]
            },
            {
               "long_name" : "Değirmen Sokak",
               "short_name" : "Değirmen Sk.",
               "types" : [ "route" ]
            },
            {
               "long_name" : "Deliklitaş",
               "short_name" : "Deliklitaş",
               "types" : [ "administrative_area_level_4", "political" ]
            },
            {
               "long_name" : "Odunpazarı",
               "short_name" : "Odunpazarı",
               "types" : [ "administrative_area_level_2", "political" ]
            },
            {
               "long_name" : "Eskişehir",
               "short_name" : "Eskişehir",
               "types" : [ "administrative_area_level_1", "political" ]
            },
            {
               "long_name" : "Turkey",
               "short_name" : "TR",
               "types" : [ "country", "political" ]
            },
            {
               "long_name" : "26090",
               "short_name" : "26090",
               "types" : [ "postal_code" ]
            }
         ],
         "formatted_address" : "Deliklitaş, Değirmen Sk. No:5, 26090 Odunpazarı/Eskişehir, Turkey",
         "geometry" : {
            "location" : {
               "lat" : 39.7744929,
               "lng" : 30.5198596
            },
            "location_type" : "RANGE_INTERPOLATED",
            "viewport" : {
               "northeast" : {
                  "lat" : 39.7758418802915,
                  "lng" : 30.5212085802915
               },
               "southwest" : {
                  "lat" : 39.7731439197085,
                  "lng" : 30.5185106197085
               }
            }
         },
         "place_id" : "EkVEZWxpa2xpdGHFnywgRGXEn2lybWVuIFNrLiBObzo1LCAyNjA5MCBPZHVucGF6YXLEsS9Fc2tpxZ9laGlyLCBUdXJrZXkiGhIYChQKEgmXxkIbBxbMFBFYqZUsUgsHkRAF",
         "types" : [ "street_address" ]
      },
      {
         "address_components" : [
            {
               "long_name" : "QGFC+W2",
               "short_name" : "QGFC+W2",
               "types" : [ "plus_code" ]
            },
            {
               "long_name" : "Odunpazarı",
               "short_name" : "Odunpazarı",
               "types" : [ "administrative_area_level_2", "political" ]
            },
            {
               "long_name" : "Eskişehir",
               "short_name" : "Eskişehir",
               "types" : [ "administrative_area_level_1", "political" ]
            },
            {
               "long_name" : "Turkey",
               "short_name" : "TR",
               "types" : [ "country", "political" ]
            }
         ],
         "formatted_address" : "QGFC+W2 Odunpazarı/Eskişehir, Turkey",
         "geometry" : {
            "bounds" : {
               "northeast" : {
                  "lat" : 39.774875,
                  "lng" : 30.520125
               },
               "southwest" : {
                  "lat" : 39.77475,
                  "lng" : 30.52
               }
            },
            "location" : {
               "lat" : 39.7747695,
               "lng" : 30.5200195
            },
            "location_type" : "GEOMETRIC_CENTER",
            "viewport" : {
               "northeast" : {
                  "lat" : 39.7761614802915,
                  "lng" : 30.5214114802915
               },
               "southwest" : {
                  "lat" : 39.77346351970851,
                  "lng" : 30.5187135197085
               }
            }
         },
         "place_id" : "GhIJGTigpSvjQ0ARQsh5_x-FPkA",
         "plus_code" : {
            "compound_code" : "QGFC+W2 Odunpazarı/Eskişehir, Turkey",
            "global_code" : "8GFGQGFC+W2"
         },
         "types" : [ "plus_code" ]
      },
      {
         "address_components" : [
            {
               "long_name" : "5-1",
               "short_name" : "5-1",
               "types" : [ "street_number" ]
            },
            {
               "long_name" : "Değirmen Sokak",
               "short_name" : "Değirmen Sk.",
               "types" : [ "route" ]
            },
            {
               "long_name" : "Deliklitaş",
               "short_name" : "Deliklitaş",
               "types" : [ "administrative_area_level_4", "political" ]
            },
            {
               "long_name" : "Odunpazarı",
               "short_name" : "Odunpazarı",
               "types" : [ "administrative_area_level_2", "political" ]
            },
            {
               "long_name" : "Eskişehir",
               "short_name" : "Eskişehir",
               "types" : [ "administrative_area_level_1", "political" ]
            },
            {
               "long_name" : "Turkey",
               "short_name" : "TR",
               "types" : [ "country", "political" ]
            },
            {
               "long_name" : "26090",
               "short_name" : "26090",
               "types" : [ "postal_code" ]
            }
         ],
         "formatted_address" : "Deliklitaş, Değirmen Sk. 5-1, 26090 Odunpazarı/Eskişehir, Turkey",
         "geometry" : {
            "bounds" : {
               "northeast" : {
                  "lat" : 39.7747376,
                  "lng" : 30.5198477
               },
               "southwest" : {
                  "lat" : 39.7744968,
                  "lng" : 30.51924409999999
               }
            },
            "location" : {
               "lat" : 39.7746172,
               "lng" : 30.5195459
            },
            "location_type" : "GEOMETRIC_CENTER",
            "viewport" : {
               "northeast" : {
                  "lat" : 39.7759661802915,
                  "lng" : 30.5208948802915
               },
               "southwest" : {
                  "lat" : 39.77326821970851,
                  "lng" : 30.5181969197085
               }
            }
         },
         "place_id" : "ChIJB8iVBgcWzBQRVKO70tpRQEM",
         "types" : [ "route" ]
      },
      {
         "address_components" : [
            {
               "long_name" : "Deliklitaş",
               "short_name" : "Deliklitaş",
               "types" : [ "administrative_area_level_4", "political" ]
            },
            {
               "long_name" : "Odunpazarı",
               "short_name" : "Odunpazarı",
               "types" : [ "administrative_area_level_2", "political" ]
            },
            {
               "long_name" : "Eskişehir",
               "short_name" : "Eskişehir",
               "types" : [ "administrative_area_level_1", "political" ]
            },
            {
               "long_name" : "Turkey",
               "short_name" : "TR",
               "types" : [ "country", "political" ]
            },
            {
               "long_name" : "26090",
               "short_name" : "26090",
               "types" : [ "postal_code" ]
            }
         ],
         "formatted_address" : "Deliklitaş, 26090 Odunpazarı/Eskişehir, Turkey",
         "geometry" : {
            "bounds" : {
               "northeast" : {
                  "lat" : 39.775555,
                  "lng" : 30.528157
               },
               "southwest" : {
                  "lat" : 39.7658259,
                  "lng" : 30.519007
               }
            },
            "location" : {
               "lat" : 39.7695812,
               "lng" : 30.5235917
            },
            "location_type" : "APPROXIMATE",
            "viewport" : {
               "northeast" : {
                  "lat" : 39.775555,
                  "lng" : 30.528157
               },
               "southwest" : {
                  "lat" : 39.7658259,
                  "lng" : 30.519007
               }
            }
         },
         "place_id" : "ChIJ8wHU9gMWzBQRhjCs_fs1xVU",
         "types" : [ "administrative_area_level_4", "political" ]
      },
      {
         "address_components" : [
            {
               "long_name" : "26090",
               "short_name" : "26090",
               "types" : [ "postal_code" ]
            },
            {
               "long_name" : "Deliklitaş",
               "short_name" : "Deliklitaş",
               "types" : [ "administrative_area_level_4", "political" ]
            },
            {
               "long_name" : "Odunpazarı",
               "short_name" : "Odunpazarı",
               "types" : [ "administrative_area_level_2", "political" ]
            },
            {
               "long_name" : "Eskişehir",
               "short_name" : "Eskişehir",
               "types" : [ "administrative_area_level_1", "political" ]
            },
            {
               "long_name" : "Turkey",
               "short_name" : "TR",
               "types" : [ "country", "political" ]
            }
         ],
         "formatted_address" : "Deliklitaş, 26090 Odunpazarı/Eskişehir, Turkey",
         "geometry" : {
            "bounds" : {
               "northeast" : {
                  "lat" : 39.775555,
                  "lng" : 30.528157
               },
               "southwest" : {
                  "lat" : 39.7658259,
                  "lng" : 30.519007
               }
            },
            "location" : {
               "lat" : 39.7695812,
               "lng" : 30.5235917
            },
            "location_type" : "APPROXIMATE",
            "viewport" : {
               "northeast" : {
                  "lat" : 39.775555,
                  "lng" : 30.528157
               },
               "southwest" : {
                  "lat" : 39.7658259,
                  "lng" : 30.519007
               }
            }
         },
         "place_id" : "ChIJMfkK4AMWzBQRkd3IheSgpZs",
         "types" : [ "postal_code" ]
      },
      {
         "address_components" : [
            {
               "long_name" : "Eskişehir",
               "short_name" : "Eskişehir",
               "types" : [ "locality", "political" ]
            },
            {
               "long_name" : "Eskişehir",
               "short_name" : "Eskişehir",
               "types" : [ "administrative_area_level_1", "political" ]
            },
            {
               "long_name" : "Turkey",
               "short_name" : "TR",
               "types" : [ "country", "political" ]
            }
         ],
         "formatted_address" : "Eskişehir, Turkey",
         "geometry" : {
            "bounds" : {
               "northeast" : {
                  "lat" : 39.828122,
                  "lng" : 30.680574
               },
               "southwest" : {
                  "lat" : 39.702564,
                  "lng" : 30.409055
               }
            },
            "location" : {
               "lat" : 39.7667061,
               "lng" : 30.52563109999999
            },
            "location_type" : "APPROXIMATE",
            "viewport" : {
               "northeast" : {
                  "lat" : 39.828122,
                  "lng" : 30.680574
               },
               "southwest" : {
                  "lat" : 39.702564,
                  "lng" : 30.409055
               }
            }
         },
         "place_id" : "ChIJXw4MIgg-zBQRCJoEOFk5ibw",
         "types" : [ "locality", "political" ]
      },
      {
         "address_components" : [
            {
               "long_name" : "Odunpazarı",
               "short_name" : "Odunpazarı",
               "types" : [ "administrative_area_level_2", "political" ]
            },
            {
               "long_name" : "Eskişehir",
               "short_name" : "Eskişehir",
               "types" : [ "administrative_area_level_1", "political" ]
            },
            {
               "long_name" : "Turkey",
               "short_name" : "TR",
               "types" : [ "country", "political" ]
            }
         ],
         "formatted_address" : "Odunpazarı/Eskişehir, Turkey",
         "geometry" : {
            "bounds" : {
               "northeast" : {
                  "lat" : 39.8579331,
                  "lng" : 30.8872509
               },
               "southwest" : {
                  "lat" : 39.4395509,
                  "lng" : 30.2223909
               }
            },
            "location" : {
               "lat" : 39.64829719999999,
               "lng" : 30.5739579
            },
            "location_type" : "APPROXIMATE",
            "viewport" : {
               "northeast" : {
                  "lat" : 39.8579331,
                  "lng" : 30.8872509
               },
               "southwest" : {
                  "lat" : 39.4395509,
                  "lng" : 30.2223909
               }
            }
         },
         "place_id" : "ChIJo0vBmz4izBQRPJU1OOJuX_Q",
         "types" : [ "administrative_area_level_2", "political" ]
      },
      {
         "address_components" : [
            {
               "long_name" : "Eskişehir",
               "short_name" : "Eskişehir",
               "types" : [ "administrative_area_level_1", "political" ]
            },
            {
               "long_name" : "Turkey",
               "short_name" : "TR",
               "types" : [ "country", "political" ]
            }
         ],
         "formatted_address" : "Eskişehir, Turkey",
         "geometry" : {
            "bounds" : {
               "northeast" : {
                  "lat" : 40.158349,
                  "lng" : 32.009396
               },
               "southwest" : {
                  "lat" : 39.029024,
                  "lng" : 29.97498299999999
               }
            },
            "location" : {
               "lat" : 39.6329657,
               "lng" : 31.2626366
            },
            "location_type" : "APPROXIMATE",
            "viewport" : {
               "northeast" : {
                  "lat" : 40.158349,
                  "lng" : 32.009396
               },
               "southwest" : {
                  "lat" : 39.029024,
                  "lng" : 29.97498299999999
               }
            }
         },
         "place_id" : "ChIJF44c-PoVzBQRTydTJ7V7mtg",
         "types" : [ "administrative_area_level_1", "political" ]
      },
      {
         "address_components" : [
            {
               "long_name" : "Turkey",
               "short_name" : "TR",
               "types" : [ "country", "political" ]
            }
         ],
         "formatted_address" : "Turkey",
         "geometry" : {
            "bounds" : {
               "northeast" : {
                  "lat" : 42.3666999,
                  "lng" : 44.8178449
               },
               "southwest" : {
                  "lat" : 35.808592,
                  "lng" : 25.5377
               }
            },
            "location" : {
               "lat" : 38.963745,
               "lng" : 35.243322
            },
            "location_type" : "APPROXIMATE",
            "viewport" : {
               "northeast" : {
                  "lat" : 42.3666999,
                  "lng" : 44.8178449
               },
               "southwest" : {
                  "lat" : 35.808592,
                  "lng" : 25.5377
               }
            }
         },
         "place_id" : "ChIJcSZPllwVsBQRKl9iKtTb2UA",
         "types" : [ "country", "political" ]
      }
   ],
   "status" : "OK"
}
