{
   "plus_code" : {
      "compound_code" : "QW4W+5R İzmit/Kocaeli, Turkey",
      "global_code" : "8GGFQW4W+5R"
   },
   "results" : [
      {
         "address_components" : [
            {
               "long_name" : "25",
               "short_name" : "25",
               "types" : [ "street_number" ]
            },
            {
               "long_name" : "Ömer Türkçakal Bulvarı",
               "short_name" : "Ömer Türkçakal Blv.",
               "types" : [ "route" ]
            },
            {
               "long_name" : "Sanayi",
               "short_name" : "Sanayi",
               "types" : [ "administrative_area_level_4", "political" ]
            },
            {
               "long_name" : "İzmit",
               "short_name" : "İzmit",
               "types" : [ "administrative_area_level_2", "political" ]
            },
            {
               "long_name" : "Kocaeli",
               "short_name" : "Kocaeli",
               "types" : [ "administrative_area_level_1", "political" ]
            },
            {
               "long_name" : "Turkey",
               "short_name" : "TR",
               "types" : [ "country", "political" ]
            },
            {
               "long_name" : "41040",
               "short_name" : "41040",
               "types" : [ "postal_code" ]
            }
         ],
         "formatted_address" : "Sanayi, Ömer Türkçakal Blv. No:25, 41040 İzmit/Kocaeli, Turkey",
         "geometry" : {
            "location" : {
               "lat" : 40.7556776,
               "lng" : 29.9471725
            },
            "location_type" : "ROOFTOP",
            "viewport" : {
               "northeast" : {
                  "lat" : 40.7570265802915,
                  "lng" : 29.9485214802915
               },
               "southwest" : {
                  "lat" : 40.7543286197085,
                  "lng" : 29.9458235197085
               }
            }
         },
         "place_id" : "ChIJeQ2-zmZFyxQRCU_Ygk9yGVU",
         "plus_code" : {
            "compound_code" : "QW4W+7V İzmit/Kocaeli, Turkey",
            "global_code" : "8GGFQW4W+7V"
         },
         "types" : [ "street_address" ]
      },
      {
         "address_components" : [
            {
               "long_name" : "8",
               "short_name" : "8",
               "types" : [ "street_number" ]
            },
            {
               "long_name" : "Ömer Türkçakal Bulvarı",
               "short_name" : "Ömer Türkçakal Blv.",
               "types" : [ "route" ]
            },
            {
               "long_name" : "Sanayi",
               "short_name" : "Sanayi",
               "types" : [ "administrative_area_level_4", "political" ]
            },
            {
               "long_name" : "İzmit",
               "short_name" : "İzmit",
               "types" : [ "administrative_area_level_2", "political" ]
            },
            {
               "long_name" : "Kocaeli",
               "short_name" : "Kocaeli",
               "types" : [ "administrative_area_level_1", "political" ]
            },
            {
               "long_name" : "Turkey",
               "short_name" : "TR",
               "types" : [ "country", "political" ]
            },
            {
               "long_name" : "41040",
               "short_name" : "41040",
               "types" : [ "postal_code" ]
            }
         ],
         "formatted_address" : "Sanayi, Ömer Türkçakal Blv. No:8, 41040 İzmit/Kocaeli, Turkey",
         "geometry" : {
            "location" : {
               "lat" : 40.7553557,
               "lng" : 29.9470242
            },
            "location_type" : "RANGE_INTERPOLATED",
            "viewport" : {
               "northeast" : {
                  "lat" : 40.7567046802915,
                  "lng" : 29.9483731802915
               },
               "southwest" : {
                  "lat" : 40.7540067197085,
                  "lng" : 29.9456752197085
               }
            }
         },
         "place_id" : "EkFTYW5heWksIMOWbWVyIFTDvHJrw6dha2FsIEJsdi4gTm86OCwgNDEwNDAgxLB6bWl0L0tvY2FlbGksIFR1cmtleSIaEhgKFAoSCQPzMtpmRcsUEatt1_gBp61eEAg",
         "types" : [ "street_address" ]
      },
      {
         "address_components" : [
            {
               "long_name" : "25",
               "short_name" : "25",
               "types" : [ "street_number" ]
            },
            {
               "long_name" : "Ömer Türkçakal Bulvarı",
               "short_name" : "Ömer Türkçakal Blv.",
               "types" : [ "route" ]
            },
            {
               "long_name" : "Sanayi",
               "short_name" : "Sanayi",
               "types" : [ "administrative_area_level_4", "political" ]
            },
            {
               "long_name" : "İzmit",
               "short_name" : "İzmit",
               "types" : [ "administrative_area_level_2", "political" ]
            },
            {
               "long_name" : "Kocaeli",
               "short_name" : "Kocaeli",
               "types" : [ "administrative_area_level_1", "political" ]
            },
            {
               "long_name" : "Turkey",
               "short_name" : "TR",
               "types" : [ "country", "political" ]
            },
            {
               "long_name" : "41040",
               "short_name" : "41040",
               "types" : [ "postal_code" ]
            }
         ],
         "formatted_address" : "Sanayi, Ömer Türkçakal Blv. No:25, 41040 İzmit/Kocaeli, Turkey",
         "geometry" : {
            "bounds" : {
               "northeast" : {
                  "lat" : 40.7555028,
                  "lng" : 29.9482241
               },
               "southwest" : {
                  "lat" : 40.7547955,
                  "lng" : 29.9469808
               }
            },
            "location" : {
               "lat" : 40.7551492,
               "lng" : 29.9476025
            },
            "location_type" : "GEOMETRIC_CENTER",
            "viewport" : {
               "northeast" : {
                  "lat" : 40.7564981302915,
                  "lng" : 29.9489514302915
               },
               "southwest" : {
                  "lat" : 40.75380016970851,
                  "lng" : 29.9462534697085
               }
            }
         },
         "place_id" : "ChIJBfnh2WZFyxQRvoR9vumsXFE",
         "types" : [ "route" ]
      },
      {
         "address_components" : [
            {
               "long_name" : "QW4W+5R",
               "short_name" : "QW4W+5R",
               "types" : [ "plus_code" ]
            },
            {
               "long_name" : "İzmit",
               "short_name" : "İzmit",
               "types" : [ "administrative_area_level_2", "political" ]
            },
            {
               "long_name" : "Kocaeli",
               "short_name" : "Kocaeli",
               "types" : [ "administrative_area_level_1", "political" ]
            },
            {
               "long_name" : "Turkey",
               "short_name" : "TR",
               "types" : [ "country", "political" ]
            }
         ],
         "formatted_address" : "QW4W+5R İzmit/Kocaeli, Turkey",
         "geometry" : {
            "bounds" : {
               "northeast" : {
                  "lat" : 40.7555,
                  "lng" : 29.947125
               },
               "southwest" : {
                  "lat" : 40.755375,
                  "lng" : 29.947
               }
            },
            "location" : {
               "lat" : 40.7553846,
               "lng" : 29.9470782
            },
            "location_type" : "GEOMETRIC_CENTER",
            "viewport" : {
               "northeast" : {
                  "lat" : 40.75678648029151,
                  "lng" : 29.9484114802915
               },
               "southwest" : {
                  "lat" : 40.75408851970851,
                  "lng" : 29.9457135197085
               }
            }
         },
         "place_id" : "GhIJdnNMcbBgREARKsGHt3PyPUA",
         "plus_code" : {
            "compound_code" : "QW4W+5R İzmit/Kocaeli, Turkey",
            "global_code" : "8GGFQW4W+5R"
         },
         "types" : [ "plus_code" ]
      },
      {
         "address_components" : [
            {
               "long_name" : "Sanayi",
               "short_name" : "Sanayi",
               "types" : [ "administrative_area_level_4", "political" ]
            },
            {
               "long_name" : "İzmit",
               "short_name" : "İzmit",
               "types" : [ "administrative_area_level_2", "political" ]
            },
            {
               "long_name" : "Kocaeli",
               "short_name" : "Kocaeli",
               "types" : [ "administrative_area_level_1", "political" ]
            },
            {
               "long_name" : "Turkey",
               "short_name" : "TR",
               "types" : [ "country", "political" ]
            }
         ],
         "formatted_address" : "Sanayi, İzmit/Kocaeli, Turkey",
         "geometry" : {
            "bounds" : {
               "northeast" : {
                  "lat" : 40.761105,
                  "lng" : 29.9627841
               },
               "southwest" : {
                  "lat" : 40.720553,
                  "lng" : 29.9351709
               }
            },
            "location" : {
               "lat" : 40.7441569,
               "lng" : 29.94803479999999
            },
            "location_type" : "APPROXIMATE",
            "viewport" : {
               "northeast" : {
                  "lat" : 40.761105,
                  "lng" : 29.9627841
               },
               "southwest" : {
                  "lat" : 40.720553,
                  "lng" : 29.9351709
               }
            }
         },
         "place_id" : "ChIJSVTPq2pFyxQRpG9tnzcAPGM",
         "types" : [ "administrative_area_level_4", "political" ]
      },
      {
         "address_components" : [
            {
               "long_name" : "41040",
               "short_name" : "41040",
               "types" : [ "postal_code" ]
            },
            {
               "long_name" : "İzmit",
               "short_name" : "İzmit",
               "types" : [ "administrative_area_level_2", "political" ]
            },
            {
               "long_name" : "Kocaeli",
               "short_name" : "Kocaeli",
               "types" : [ "administrative_area_level_1", "political" ]
            },
            {
               "long_name" : "Turkey",
               "short_name" : "TR",
               "types" : [ "country", "political" ]
            }
         ],
         "formatted_address" : "41040 İzmit/Kocaeli, Turkey",
         "geometry" : {
            "bounds" : {
               "northeast" : {
                  "lat" : 40.7667271,
                  "lng" : 29.9631269
               },
               "southwest" : {
                  "lat" : 40.720553,
                  "lng" : 29.9300729
               }
            },
            "location" : {
               "lat" : 40.7487848,
               "lng" : 29.94803479999999
            },
            "location_type" : "APPROXIMATE",
            "viewport" : {
               "northeast" : {
                  "lat" : 40.7667271,
                  "lng" : 29.9631269
               },
               "southwest" : {
                  "lat" : 40.720553,
                  "lng" : 29.9300729
               }
            }
         },
         "place_id" : "ChIJTWSX4n9FyxQRwY-FlK_dteE",
         "types" : [ "postal_code" ]
      },
      {
         "address_components" : [
            {
               "long_name" : "İzmit",
               "short_name" : "İzmit",
               "types" : [ "administrative_area_level_2", "political" ]
            },
            {
               "long_name" : "Kocaeli",
               "short_name" : "Kocaeli",
               "types" : [ "administrative_area_level_1", "political" ]
            },
            {
               "long_name" : "Turkey",
               "short_name" : "TR",
               "types" : [ "country", "political" ]
            }
         ],
         "formatted_address" : "İzmit/Kocaeli, Turkey",
         "geometry" : {
            "bounds" : {
               "northeast" : {
                  "lat" : 40.971557,
                  "lng" : 30.2639339
               },
               "southwest" : {
                  "lat" : 40.720553,
                  "lng" : 29.8541681
               }
            },
            "location" : {
               "lat" : 40.8506635,
               "lng" : 30.0202964
            },
            "location_type" : "APPROXIMATE",
            "viewport" : {
               "northeast" : {
                  "lat" : 40.971557,
                  "lng" : 30.2639339
               },
               "southwest" : {
                  "lat" : 40.720553,
                  "lng" : 29.8541681
               }
            }
         },
         "place_id" : "ChIJL2DfPLZQyxQRitx6sY9PIGU",
         "types" : [ "administrative_area_level_2", "political" ]
      },
      {
         "address_components" : [
            {
               "long_name" : "Kocaeli",
               "short_name" : "Kocaeli",
               "types" : [ "administrative_area_level_1", "political" ]
            },
            {
               "long_name" : "Turkey",
               "short_name" : "TR",
               "types" : [ "country", "political" ]
            }
         ],
         "formatted_address" : "Kocaeli, Turkey",
         "geometry" : {
            "bounds" : {
               "northeast" : {
                  "lat" : 41.20976,
                  "lng" : 30.367743
               },
               "southwest" : {
                  "lat" : 40.524151,
                  "lng" : 29.3331261
               }
            },
            "location" : {
               "lat" : 40.8532704,
               "lng" : 29.8815203
            },
            "location_type" : "APPROXIMATE",
            "viewport" : {
               "northeast" : {
                  "lat" : 41.20976,
                  "lng" : 30.367743
               },
               "southwest" : {
                  "lat" : 40.524151,
                  "lng" : 29.3331261
               }
            }
         },
         "place_id" : "ChIJQ8zKb5QgyxQRWdhW642zLKg",
         "types" : [ "administrative_area_level_1", "political" ]
      },
      {
         "address_components" : [
            {
               "long_name" : "Turkey",
               "short_name" : "TR",
               "types" : [ "country", "political" ]
            }
         ],
         "formatted_address" : "Turkey",
         "geometry" : {
            "bounds" : {
               "northeast" : {
                  "lat" : 42.3666999,
                  "lng" : 44.8178449
               },
               "southwest" : {
                  "lat" : 35.808592,
                  "lng" : 25.5377
               }
            },
            "location" : {
               "lat" : 38.963745,
               "lng" : 35.243322
            },
            "location_type" : "APPROXIMATE",
            "viewport" : {
               "northeast" : {
                  "lat" : 42.3666999,
                  "lng" : 44.8178449
               },
               "southwest" : {
                  "lat" : 35.808592,
                  "lng" : 25.5377
               }
            }
         },
         "place_id" : "ChIJcSZPllwVsBQRKl9iKtTb2UA",
         "types" : [ "country", "political" ]
      }
   ],
   "status" : "OK"
}
