{
   "plus_code" : {
      "compound_code" : "QW5Q+RPX İzmit/Kocaeli, Turkey",
      "global_code" : "8GGFQW5Q+RPX"
   },
   "results" : [
      {
         "address_components" : [
            {
               "long_name" : "20",
               "short_name" : "20",
               "types" : [ "street_number" ]
            },
            {
               "long_name" : "Sanayi Fuarı 4. Caddesi",
               "short_name" : "Sanayi Fuarı 4. Cd.",
               "types" : [ "route" ]
            },
            {
               "long_name" : "Karabaş",
               "short_name" : "Karabaş",
               "types" : [ "administrative_area_level_4", "political" ]
            },
            {
               "long_name" : "İzmit",
               "short_name" : "İzmit",
               "types" : [ "administrative_area_level_2", "political" ]
            },
            {
               "long_name" : "Kocaeli",
               "short_name" : "Kocaeli",
               "types" : [ "administrative_area_level_1", "political" ]
            },
            {
               "long_name" : "Turkey",
               "short_name" : "TR",
               "types" : [ "country", "political" ]
            },
            {
               "long_name" : "41040",
               "short_name" : "41040",
               "types" : [ "postal_code" ]
            }
         ],
         "formatted_address" : "Karabaş, Sanayi Fuarı 4. Cd. No:20, 41040 İzmit/Kocaeli, Turkey",
         "geometry" : {
            "location" : {
               "lat" : 40.7597371,
               "lng" : 29.93913299999999
            },
            "location_type" : "ROOFTOP",
            "viewport" : {
               "northeast" : {
                  "lat" : 40.7610860802915,
                  "lng" : 29.94048198029149
               },
               "southwest" : {
                  "lat" : 40.7583881197085,
                  "lng" : 29.9377840197085
               }
            }
         },
         "place_id" : "ChIJaTTHy3xFyxQRWyqM27XlxfE",
         "plus_code" : {
            "compound_code" : "QW5Q+VM İzmit/Kocaeli, Turkey",
            "global_code" : "8GGFQW5Q+VM"
         },
         "types" : [ "street_address" ]
      },
      {
         "address_components" : [
            {
               "long_name" : "35",
               "short_name" : "35",
               "types" : [ "street_number" ]
            },
            {
               "long_name" : "Sanayi Fuarı 4. Caddesi",
               "short_name" : "Sanayi Fuarı 4. Cd.",
               "types" : [ "route" ]
            },
            {
               "long_name" : "Karabaş",
               "short_name" : "Karabaş",
               "types" : [ "administrative_area_level_4", "political" ]
            },
            {
               "long_name" : "İzmit",
               "short_name" : "İzmit",
               "types" : [ "administrative_area_level_2", "political" ]
            },
            {
               "long_name" : "Kocaeli",
               "short_name" : "Kocaeli",
               "types" : [ "administrative_area_level_1", "political" ]
            },
            {
               "long_name" : "Turkey",
               "short_name" : "TR",
               "types" : [ "country", "political" ]
            },
            {
               "long_name" : "41040",
               "short_name" : "41040",
               "types" : [ "postal_code" ]
            }
         ],
         "formatted_address" : "Karabaş, Sanayi Fuarı 4. Cd. No:35, 41040 İzmit/Kocaeli, Turkey",
         "geometry" : {
            "location" : {
               "lat" : 40.7598297,
               "lng" : 29.9391907
            },
            "location_type" : "RANGE_INTERPOLATED",
            "viewport" : {
               "northeast" : {
                  "lat" : 40.7611786802915,
                  "lng" : 29.94053968029149
               },
               "southwest" : {
                  "lat" : 40.7584807197085,
                  "lng" : 29.9378417197085
               }
            }
         },
         "place_id" : "EkJLYXJhYmHFnywgU2FuYXlpIEZ1YXLEsSA0LiBDZC4gTm86MzUsIDQxMDQwIMSwem1pdC9Lb2NhZWxpLCBUdXJrZXkiGhIYChQKEgnR_XnMfEXLFBFcQu15DvDQQxAj",
         "types" : [ "street_address" ]
      },
      {
         "address_components" : [
            {
               "long_name" : "QW5Q+RP",
               "short_name" : "QW5Q+RP",
               "types" : [ "plus_code" ]
            },
            {
               "long_name" : "İzmit",
               "short_name" : "İzmit",
               "types" : [ "administrative_area_level_2", "political" ]
            },
            {
               "long_name" : "Kocaeli",
               "short_name" : "Kocaeli",
               "types" : [ "administrative_area_level_1", "political" ]
            },
            {
               "long_name" : "Turkey",
               "short_name" : "TR",
               "types" : [ "country", "political" ]
            }
         ],
         "formatted_address" : "QW5Q+RP İzmit/Kocaeli, Turkey",
         "geometry" : {
            "bounds" : {
               "northeast" : {
                  "lat" : 40.759625,
                  "lng" : 29.939375
               },
               "southwest" : {
                  "lat" : 40.7595,
                  "lng" : 29.93925
               }
            },
            "location" : {
               "lat" : 40.75961059999999,
               "lng" : 29.9393749
            },
            "location_type" : "GEOMETRIC_CENTER",
            "viewport" : {
               "northeast" : {
                  "lat" : 40.7609114802915,
                  "lng" : 29.9406614802915
               },
               "southwest" : {
                  "lat" : 40.7582135197085,
                  "lng" : 29.9379635197085
               }
            }
         },
         "place_id" : "GhIJ81iO6zphREAR6y6a33rwPUA",
         "plus_code" : {
            "compound_code" : "QW5Q+RP İzmit/Kocaeli, Turkey",
            "global_code" : "8GGFQW5Q+RP"
         },
         "types" : [ "plus_code" ]
      },
      {
         "address_components" : [
            {
               "long_name" : "37-31",
               "short_name" : "37-31",
               "types" : [ "street_number" ]
            },
            {
               "long_name" : "Sanayi Fuarı 4. Caddesi",
               "short_name" : "Sanayi Fuarı 4. Cd.",
               "types" : [ "route" ]
            },
            {
               "long_name" : "Karabaş",
               "short_name" : "Karabaş",
               "types" : [ "administrative_area_level_4", "political" ]
            },
            {
               "long_name" : "İzmit",
               "short_name" : "İzmit",
               "types" : [ "administrative_area_level_2", "political" ]
            },
            {
               "long_name" : "Kocaeli",
               "short_name" : "Kocaeli",
               "types" : [ "administrative_area_level_1", "political" ]
            },
            {
               "long_name" : "Turkey",
               "short_name" : "TR",
               "types" : [ "country", "political" ]
            },
            {
               "long_name" : "41040",
               "short_name" : "41040",
               "types" : [ "postal_code" ]
            }
         ],
         "formatted_address" : "Karabaş, Sanayi Fuarı 4. Cd. 37-31, 41040 İzmit/Kocaeli, Turkey",
         "geometry" : {
            "bounds" : {
               "northeast" : {
                  "lat" : 40.7598342,
                  "lng" : 29.9397288
               },
               "southwest" : {
                  "lat" : 40.7598253,
                  "lng" : 29.9386361
               }
            },
            "location" : {
               "lat" : 40.7598298,
               "lng" : 29.9391825
            },
            "location_type" : "GEOMETRIC_CENTER",
            "viewport" : {
               "northeast" : {
                  "lat" : 40.7611787302915,
                  "lng" : 29.94053143029149
               },
               "southwest" : {
                  "lat" : 40.75848076970851,
                  "lng" : 29.9378334697085
               }
            }
         },
         "place_id" : "ChIJ0f15zHxFyxQRXELteQ7w0EM",
         "types" : [ "route" ]
      },
      {
         "address_components" : [
            {
               "long_name" : "41040",
               "short_name" : "41040",
               "types" : [ "postal_code" ]
            },
            {
               "long_name" : "Karabaş",
               "short_name" : "Karabaş",
               "types" : [ "administrative_area_level_4", "political" ]
            },
            {
               "long_name" : "İzmit",
               "short_name" : "İzmit",
               "types" : [ "administrative_area_level_2", "political" ]
            },
            {
               "long_name" : "Kocaeli",
               "short_name" : "Kocaeli",
               "types" : [ "administrative_area_level_1", "political" ]
            },
            {
               "long_name" : "Turkey",
               "short_name" : "TR",
               "types" : [ "country", "political" ]
            }
         ],
         "formatted_address" : "Karabaş, 41040 İzmit/Kocaeli, Turkey",
         "geometry" : {
            "bounds" : {
               "northeast" : {
                  "lat" : 40.7667129,
                  "lng" : 29.943491
               },
               "southwest" : {
                  "lat" : 40.756448,
                  "lng" : 29.9300489
               }
            },
            "location" : {
               "lat" : 40.7613341,
               "lng" : 29.9364694
            },
            "location_type" : "APPROXIMATE",
            "viewport" : {
               "northeast" : {
                  "lat" : 40.7667129,
                  "lng" : 29.943491
               },
               "southwest" : {
                  "lat" : 40.756448,
                  "lng" : 29.9300489
               }
            }
         },
         "place_id" : "ChIJA0a6Bn1FyxQRL8UDW4V3ijA",
         "types" : [ "postal_code" ]
      },
      {
         "address_components" : [
            {
               "long_name" : "Karabaş",
               "short_name" : "Karabaş",
               "types" : [ "administrative_area_level_4", "political" ]
            },
            {
               "long_name" : "İzmit",
               "short_name" : "İzmit",
               "types" : [ "administrative_area_level_2", "political" ]
            },
            {
               "long_name" : "Kocaeli",
               "short_name" : "Kocaeli",
               "types" : [ "administrative_area_level_1", "political" ]
            },
            {
               "long_name" : "Turkey",
               "short_name" : "TR",
               "types" : [ "country", "political" ]
            },
            {
               "long_name" : "41040",
               "short_name" : "41040",
               "types" : [ "postal_code" ]
            }
         ],
         "formatted_address" : "Karabaş, 41040 İzmit/Kocaeli, Turkey",
         "geometry" : {
            "bounds" : {
               "northeast" : {
                  "lat" : 40.7667129,
                  "lng" : 29.943597
               },
               "southwest" : {
                  "lat" : 40.756448,
                  "lng" : 29.9300489
               }
            },
            "location" : {
               "lat" : 40.760589,
               "lng" : 29.9350236
            },
            "location_type" : "APPROXIMATE",
            "viewport" : {
               "northeast" : {
                  "lat" : 40.7667129,
                  "lng" : 29.943597
               },
               "southwest" : {
                  "lat" : 40.756448,
                  "lng" : 29.9300489
               }
            }
         },
         "place_id" : "ChIJy2tEBH1FyxQRqAdBNjma23o",
         "types" : [ "administrative_area_level_4", "political" ]
      },
      {
         "address_components" : [
            {
               "long_name" : "İzmit",
               "short_name" : "İzmit",
               "types" : [ "locality", "political" ]
            },
            {
               "long_name" : "İzmit",
               "short_name" : "İzmit",
               "types" : [ "administrative_area_level_2", "political" ]
            },
            {
               "long_name" : "Kocaeli",
               "short_name" : "Kocaeli",
               "types" : [ "administrative_area_level_1", "political" ]
            },
            {
               "long_name" : "Turkey",
               "short_name" : "TR",
               "types" : [ "country", "political" ]
            }
         ],
         "formatted_address" : "İzmit, Kocaeli, Turkey",
         "geometry" : {
            "bounds" : {
               "northeast" : {
                  "lat" : 40.805401,
                  "lng" : 30.014834
               },
               "southwest" : {
                  "lat" : 40.736827,
                  "lng" : 29.8541681
               }
            },
            "location" : {
               "lat" : 40.7654408,
               "lng" : 29.9408089
            },
            "location_type" : "APPROXIMATE",
            "viewport" : {
               "northeast" : {
                  "lat" : 40.805401,
                  "lng" : 30.014834
               },
               "southwest" : {
                  "lat" : 40.736827,
                  "lng" : 29.8541681
               }
            }
         },
         "place_id" : "ChIJnftLZGZPyxQRuX5rWOcOaYI",
         "types" : [ "locality", "political" ]
      },
      {
         "address_components" : [
            {
               "long_name" : "İzmit",
               "short_name" : "İzmit",
               "types" : [ "administrative_area_level_2", "political" ]
            },
            {
               "long_name" : "Kocaeli",
               "short_name" : "Kocaeli",
               "types" : [ "administrative_area_level_1", "political" ]
            },
            {
               "long_name" : "Turkey",
               "short_name" : "TR",
               "types" : [ "country", "political" ]
            }
         ],
         "formatted_address" : "İzmit/Kocaeli, Turkey",
         "geometry" : {
            "bounds" : {
               "northeast" : {
                  "lat" : 40.971557,
                  "lng" : 30.2639339
               },
               "southwest" : {
                  "lat" : 40.720553,
                  "lng" : 29.8541681
               }
            },
            "location" : {
               "lat" : 40.8506635,
               "lng" : 30.0202964
            },
            "location_type" : "APPROXIMATE",
            "viewport" : {
               "northeast" : {
                  "lat" : 40.971557,
                  "lng" : 30.2639339
               },
               "southwest" : {
                  "lat" : 40.720553,
                  "lng" : 29.8541681
               }
            }
         },
         "place_id" : "ChIJL2DfPLZQyxQRitx6sY9PIGU",
         "types" : [ "administrative_area_level_2", "political" ]
      },
      {
         "address_components" : [
            {
               "long_name" : "Kocaeli",
               "short_name" : "Kocaeli",
               "types" : [ "administrative_area_level_1", "political" ]
            },
            {
               "long_name" : "Turkey",
               "short_name" : "TR",
               "types" : [ "country", "political" ]
            }
         ],
         "formatted_address" : "Kocaeli, Turkey",
         "geometry" : {
            "bounds" : {
               "northeast" : {
                  "lat" : 41.20976,
                  "lng" : 30.367743
               },
               "southwest" : {
                  "lat" : 40.524151,
                  "lng" : 29.3331261
               }
            },
            "location" : {
               "lat" : 40.8532704,
               "lng" : 29.8815203
            },
            "location_type" : "APPROXIMATE",
            "viewport" : {
               "northeast" : {
                  "lat" : 41.20976,
                  "lng" : 30.367743
               },
               "southwest" : {
                  "lat" : 40.524151,
                  "lng" : 29.3331261
               }
            }
         },
         "place_id" : "ChIJQ8zKb5QgyxQRWdhW642zLKg",
         "types" : [ "administrative_area_level_1", "political" ]
      },
      {
         "address_components" : [
            {
               "long_name" : "Turkey",
               "short_name" : "TR",
               "types" : [ "country", "political" ]
            }
         ],
         "formatted_address" : "Turkey",
         "geometry" : {
            "bounds" : {
               "northeast" : {
                  "lat" : 42.3666999,
                  "lng" : 44.8178449
               },
               "southwest" : {
                  "lat" : 35.808592,
                  "lng" : 25.5377
               }
            },
            "location" : {
               "lat" : 38.963745,
               "lng" : 35.243322
            },
            "location_type" : "APPROXIMATE",
            "viewport" : {
               "northeast" : {
                  "lat" : 42.3666999,
                  "lng" : 44.8178449
               },
               "southwest" : {
                  "lat" : 35.808592,
                  "lng" : 25.5377
               }
            }
         },
         "place_id" : "ChIJcSZPllwVsBQRKl9iKtTb2UA",
         "types" : [ "country", "political" ]
      }
   ],
   "status" : "OK"
}
