{
   "plus_code" : {
      "compound_code" : "QX84+P42 İzmit/Kocaeli, Turkey",
      "global_code" : "8GGFQX84+P42"
   },
   "results" : [
      {
         "address_components" : [
            {
               "long_name" : "3",
               "short_name" : "3",
               "types" : [ "street_number" ]
            },
            {
               "long_name" : "Şehit Emin Sokak",
               "short_name" : "S. Emin Sokak",
               "types" : [ "route" ]
            },
            {
               "long_name" : "M. Alipaşa",
               "short_name" : "M. Alipaşa",
               "types" : [ "administrative_area_level_4", "political" ]
            },
            {
               "long_name" : "İzmit",
               "short_name" : "İzmit",
               "types" : [ "administrative_area_level_2", "political" ]
            },
            {
               "long_name" : "Kocaeli",
               "short_name" : "Kocaeli",
               "types" : [ "administrative_area_level_1", "political" ]
            },
            {
               "long_name" : "Turkey",
               "short_name" : "TR",
               "types" : [ "country", "political" ]
            },
            {
               "long_name" : "41050",
               "short_name" : "41050",
               "types" : [ "postal_code" ]
            }
         ],
         "formatted_address" : "M. Alipaşa, Şht. Emin Sk. No:3, 41050 İzmit/Kocaeli, Turkey",
         "geometry" : {
            "location" : {
               "lat" : 40.7667788,
               "lng" : 29.9551736
            },
            "location_type" : "ROOFTOP",
            "viewport" : {
               "northeast" : {
                  "lat" : 40.7681277802915,
                  "lng" : 29.9565225802915
               },
               "southwest" : {
                  "lat" : 40.7654298197085,
                  "lng" : 29.9538246197085
               }
            }
         },
         "place_id" : "ChIJL83CZvJPyxQRyBQ_VcnCgJc",
         "plus_code" : {
            "compound_code" : "QX84+P3 İzmit/Kocaeli, Turkey",
            "global_code" : "8GGFQX84+P3"
         },
         "types" : [ "street_address" ]
      },
      {
         "address_components" : [
            {
               "long_name" : "24",
               "short_name" : "24",
               "types" : [ "street_number" ]
            },
            {
               "long_name" : "Şehit Emin Sokak",
               "short_name" : "S. Emin Sokak",
               "types" : [ "route" ]
            },
            {
               "long_name" : "M. Alipaşa",
               "short_name" : "M. Alipaşa",
               "types" : [ "administrative_area_level_4", "political" ]
            },
            {
               "long_name" : "İzmit",
               "short_name" : "İzmit",
               "types" : [ "administrative_area_level_2", "political" ]
            },
            {
               "long_name" : "Kocaeli",
               "short_name" : "Kocaeli",
               "types" : [ "administrative_area_level_1", "political" ]
            },
            {
               "long_name" : "Turkey",
               "short_name" : "TR",
               "types" : [ "country", "political" ]
            },
            {
               "long_name" : "41050",
               "short_name" : "41050",
               "types" : [ "postal_code" ]
            }
         ],
         "formatted_address" : "M. Alipaşa, Şht. Emin Sk. No:24, 41050 İzmit/Kocaeli, Turkey",
         "geometry" : {
            "location" : {
               "lat" : 40.7668741,
               "lng" : 29.955295
            },
            "location_type" : "ROOFTOP",
            "viewport" : {
               "northeast" : {
                  "lat" : 40.76822308029149,
                  "lng" : 29.9566439802915
               },
               "southwest" : {
                  "lat" : 40.76552511970849,
                  "lng" : 29.9539460197085
               }
            }
         },
         "place_id" : "ChIJje-7HoZPyxQRuvOi7Iei8Go",
         "plus_code" : {
            "compound_code" : "QX84+P4 İzmit/Kocaeli, Turkey",
            "global_code" : "8GGFQX84+P4"
         },
         "types" : [ "establishment", "health", "hospital", "point_of_interest" ]
      },
      {
         "address_components" : [
            {
               "long_name" : "20",
               "short_name" : "20",
               "types" : [ "street_number" ]
            },
            {
               "long_name" : "Şehit Emin Sokak",
               "short_name" : "S. Emin Sokak",
               "types" : [ "route" ]
            },
            {
               "long_name" : "M. Alipaşa",
               "short_name" : "M. Alipaşa",
               "types" : [ "administrative_area_level_4", "political" ]
            },
            {
               "long_name" : "İzmit",
               "short_name" : "İzmit",
               "types" : [ "administrative_area_level_2", "political" ]
            },
            {
               "long_name" : "Kocaeli",
               "short_name" : "Kocaeli",
               "types" : [ "administrative_area_level_1", "political" ]
            },
            {
               "long_name" : "Turkey",
               "short_name" : "TR",
               "types" : [ "country", "political" ]
            },
            {
               "long_name" : "41050",
               "short_name" : "41050",
               "types" : [ "postal_code" ]
            }
         ],
         "formatted_address" : "M. Alipaşa, Şht. Emin Sk. No:20, 41050 İzmit/Kocaeli, Turkey",
         "geometry" : {
            "location" : {
               "lat" : 40.7668063,
               "lng" : 29.9552146
            },
            "location_type" : "RANGE_INTERPOLATED",
            "viewport" : {
               "northeast" : {
                  "lat" : 40.7681552802915,
                  "lng" : 29.9565635802915
               },
               "southwest" : {
                  "lat" : 40.7654573197085,
                  "lng" : 29.9538656197085
               }
            }
         },
         "place_id" : "Ej9NLiBBbGlwYcWfYSwgxZ5odC4gRW1pbiBTay4gTm86MjAsIDQxMDUwIMSwem1pdC9Lb2NhZWxpLCBUdXJrZXkiGhIYChQKEglNF9xo8k_LFBE01QYiOlMhlRAU",
         "types" : [ "street_address" ]
      },
      {
         "address_components" : [
            {
               "long_name" : "26-4",
               "short_name" : "26-4",
               "types" : [ "street_number" ]
            },
            {
               "long_name" : "Şehit Emin Sokak",
               "short_name" : "S. Emin Sokak",
               "types" : [ "route" ]
            },
            {
               "long_name" : "M. Alipaşa",
               "short_name" : "M. Alipaşa",
               "types" : [ "administrative_area_level_4", "political" ]
            },
            {
               "long_name" : "İzmit",
               "short_name" : "İzmit",
               "types" : [ "administrative_area_level_2", "political" ]
            },
            {
               "long_name" : "Kocaeli",
               "short_name" : "Kocaeli",
               "types" : [ "administrative_area_level_1", "political" ]
            },
            {
               "long_name" : "Turkey",
               "short_name" : "TR",
               "types" : [ "country", "political" ]
            },
            {
               "long_name" : "41050",
               "short_name" : "41050",
               "types" : [ "postal_code" ]
            }
         ],
         "formatted_address" : "M. Alipaşa, Şht. Emin Sk. 26-4, 41050 İzmit/Kocaeli, Turkey",
         "geometry" : {
            "bounds" : {
               "northeast" : {
                  "lat" : 40.7668094,
                  "lng" : 29.9556259
               },
               "southwest" : {
                  "lat" : 40.7667676,
                  "lng" : 29.9538156
               }
            },
            "location" : {
               "lat" : 40.7668027,
               "lng" : 29.954719
            },
            "location_type" : "GEOMETRIC_CENTER",
            "viewport" : {
               "northeast" : {
                  "lat" : 40.76813748029151,
                  "lng" : 29.9560697302915
               },
               "southwest" : {
                  "lat" : 40.76543951970851,
                  "lng" : 29.9533717697085
               }
            }
         },
         "place_id" : "ChIJTRfcaPJPyxQRNNUGIjpTIZU",
         "types" : [ "route" ]
      },
      {
         "address_components" : [
            {
               "long_name" : "QX84+P4",
               "short_name" : "QX84+P4",
               "types" : [ "plus_code" ]
            },
            {
               "long_name" : "İzmit",
               "short_name" : "İzmit",
               "types" : [ "administrative_area_level_2", "political" ]
            },
            {
               "long_name" : "Kocaeli",
               "short_name" : "Kocaeli",
               "types" : [ "administrative_area_level_1", "political" ]
            },
            {
               "long_name" : "Turkey",
               "short_name" : "TR",
               "types" : [ "country", "political" ]
            }
         ],
         "formatted_address" : "QX84+P4 İzmit/Kocaeli, Turkey",
         "geometry" : {
            "bounds" : {
               "northeast" : {
                  "lat" : 40.766875,
                  "lng" : 29.955375
               },
               "southwest" : {
                  "lat" : 40.76674999999999,
                  "lng" : 29.95525
               }
            },
            "location" : {
               "lat" : 40.7667616,
               "lng" : 29.9552536
            },
            "location_type" : "GEOMETRIC_CENTER",
            "viewport" : {
               "northeast" : {
                  "lat" : 40.7681614802915,
                  "lng" : 29.9566614802915
               },
               "southwest" : {
                  "lat" : 40.7654635197085,
                  "lng" : 29.9539635197085
               }
            }
         },
         "place_id" : "GhIJEOp9PiViREAR42L7f4v0PUA",
         "plus_code" : {
            "compound_code" : "QX84+P4 İzmit/Kocaeli, Turkey",
            "global_code" : "8GGFQX84+P4"
         },
         "types" : [ "plus_code" ]
      },
      {
         "address_components" : [
            {
               "long_name" : "41050",
               "short_name" : "41050",
               "types" : [ "postal_code" ]
            },
            {
               "long_name" : "M. Alipaşa",
               "short_name" : "M. Alipaşa",
               "types" : [ "administrative_area_level_4", "political" ]
            },
            {
               "long_name" : "İzmit",
               "short_name" : "İzmit",
               "types" : [ "administrative_area_level_2", "political" ]
            },
            {
               "long_name" : "Kocaeli",
               "short_name" : "Kocaeli",
               "types" : [ "administrative_area_level_1", "political" ]
            },
            {
               "long_name" : "Turkey",
               "short_name" : "TR",
               "types" : [ "country", "political" ]
            }
         ],
         "formatted_address" : "M. Alipaşa, 41050 İzmit/Kocaeli, Turkey",
         "geometry" : {
            "bounds" : {
               "northeast" : {
                  "lat" : 40.77284,
                  "lng" : 29.959482
               },
               "southwest" : {
                  "lat" : 40.763034,
                  "lng" : 29.9486929
               }
            },
            "location" : {
               "lat" : 40.7672137,
               "lng" : 29.9523716
            },
            "location_type" : "APPROXIMATE",
            "viewport" : {
               "northeast" : {
                  "lat" : 40.77284,
                  "lng" : 29.959482
               },
               "southwest" : {
                  "lat" : 40.763034,
                  "lng" : 29.9486929
               }
            }
         },
         "place_id" : "ChIJ_fiVgO1PyxQRTWoD9Dt3MQU",
         "types" : [ "postal_code" ]
      },
      {
         "address_components" : [
            {
               "long_name" : "M. Alipaşa",
               "short_name" : "M. Alipaşa",
               "types" : [ "administrative_area_level_4", "political" ]
            },
            {
               "long_name" : "İzmit",
               "short_name" : "İzmit",
               "types" : [ "administrative_area_level_2", "political" ]
            },
            {
               "long_name" : "Kocaeli",
               "short_name" : "Kocaeli",
               "types" : [ "administrative_area_level_1", "political" ]
            },
            {
               "long_name" : "Turkey",
               "short_name" : "TR",
               "types" : [ "country", "political" ]
            }
         ],
         "formatted_address" : "M. Alipaşa, İzmit/Kocaeli, Turkey",
         "geometry" : {
            "bounds" : {
               "northeast" : {
                  "lat" : 40.77284,
                  "lng" : 29.959482
               },
               "southwest" : {
                  "lat" : 40.763034,
                  "lng" : 29.9485909
               }
            },
            "location" : {
               "lat" : 40.7672137,
               "lng" : 29.9523716
            },
            "location_type" : "APPROXIMATE",
            "viewport" : {
               "northeast" : {
                  "lat" : 40.77284,
                  "lng" : 29.959482
               },
               "southwest" : {
                  "lat" : 40.763034,
                  "lng" : 29.9485909
               }
            }
         },
         "place_id" : "ChIJk2b1wPJPyxQRJLticksnTmc",
         "types" : [ "administrative_area_level_4", "political" ]
      },
      {
         "address_components" : [
            {
               "long_name" : "İzmit",
               "short_name" : "İzmit",
               "types" : [ "locality", "political" ]
            },
            {
               "long_name" : "İzmit",
               "short_name" : "İzmit",
               "types" : [ "administrative_area_level_2", "political" ]
            },
            {
               "long_name" : "Kocaeli",
               "short_name" : "Kocaeli",
               "types" : [ "administrative_area_level_1", "political" ]
            },
            {
               "long_name" : "Turkey",
               "short_name" : "TR",
               "types" : [ "country", "political" ]
            }
         ],
         "formatted_address" : "İzmit, Kocaeli, Turkey",
         "geometry" : {
            "bounds" : {
               "northeast" : {
                  "lat" : 40.805401,
                  "lng" : 30.014834
               },
               "southwest" : {
                  "lat" : 40.736827,
                  "lng" : 29.8541681
               }
            },
            "location" : {
               "lat" : 40.7654408,
               "lng" : 29.9408089
            },
            "location_type" : "APPROXIMATE",
            "viewport" : {
               "northeast" : {
                  "lat" : 40.805401,
                  "lng" : 30.014834
               },
               "southwest" : {
                  "lat" : 40.736827,
                  "lng" : 29.8541681
               }
            }
         },
         "place_id" : "ChIJnftLZGZPyxQRuX5rWOcOaYI",
         "types" : [ "locality", "political" ]
      },
      {
         "address_components" : [
            {
               "long_name" : "İzmit",
               "short_name" : "İzmit",
               "types" : [ "administrative_area_level_2", "political" ]
            },
            {
               "long_name" : "Kocaeli",
               "short_name" : "Kocaeli",
               "types" : [ "administrative_area_level_1", "political" ]
            },
            {
               "long_name" : "Turkey",
               "short_name" : "TR",
               "types" : [ "country", "political" ]
            }
         ],
         "formatted_address" : "İzmit/Kocaeli, Turkey",
         "geometry" : {
            "bounds" : {
               "northeast" : {
                  "lat" : 40.971557,
                  "lng" : 30.2639339
               },
               "southwest" : {
                  "lat" : 40.720553,
                  "lng" : 29.8541681
               }
            },
            "location" : {
               "lat" : 40.8506635,
               "lng" : 30.0202964
            },
            "location_type" : "APPROXIMATE",
            "viewport" : {
               "northeast" : {
                  "lat" : 40.971557,
                  "lng" : 30.2639339
               },
               "southwest" : {
                  "lat" : 40.720553,
                  "lng" : 29.8541681
               }
            }
         },
         "place_id" : "ChIJL2DfPLZQyxQRitx6sY9PIGU",
         "types" : [ "administrative_area_level_2", "political" ]
      },
      {
         "address_components" : [
            {
               "long_name" : "Kocaeli",
               "short_name" : "Kocaeli",
               "types" : [ "administrative_area_level_1", "political" ]
            },
            {
               "long_name" : "Turkey",
               "short_name" : "TR",
               "types" : [ "country", "political" ]
            }
         ],
         "formatted_address" : "Kocaeli, Turkey",
         "geometry" : {
            "bounds" : {
               "northeast" : {
                  "lat" : 41.20976,
                  "lng" : 30.367743
               },
               "southwest" : {
                  "lat" : 40.524151,
                  "lng" : 29.3331261
               }
            },
            "location" : {
               "lat" : 40.8532704,
               "lng" : 29.8815203
            },
            "location_type" : "APPROXIMATE",
            "viewport" : {
               "northeast" : {
                  "lat" : 41.20976,
                  "lng" : 30.367743
               },
               "southwest" : {
                  "lat" : 40.524151,
                  "lng" : 29.3331261
               }
            }
         },
         "place_id" : "ChIJQ8zKb5QgyxQRWdhW642zLKg",
         "types" : [ "administrative_area_level_1", "political" ]
      },
      {
         "address_components" : [
            {
               "long_name" : "Turkey",
               "short_name" : "TR",
               "types" : [ "country", "political" ]
            }
         ],
         "formatted_address" : "Turkey",
         "geometry" : {
            "bounds" : {
               "northeast" : {
                  "lat" : 42.3666999,
                  "lng" : 44.8178449
               },
               "southwest" : {
                  "lat" : 35.808592,
                  "lng" : 25.5377
               }
            },
            "location" : {
               "lat" : 38.963745,
               "lng" : 35.243322
            },
            "location_type" : "APPROXIMATE",
            "viewport" : {
               "northeast" : {
                  "lat" : 42.3666999,
                  "lng" : 44.8178449
               },
               "southwest" : {
                  "lat" : 35.808592,
                  "lng" : 25.5377
               }
            }
         },
         "place_id" : "ChIJcSZPllwVsBQRKl9iKtTb2UA",
         "types" : [ "country", "political" ]
      }
   ],
   "status" : "OK"
}
