{
   "plus_code" : {
      "compound_code" : "QXF7+G9 İzmit/Kocaeli, Turkey",
      "global_code" : "8GGFQXF7+G9"
   },
   "results" : [
      {
         "address_components" : [
            {
               "long_name" : "59",
               "short_name" : "59",
               "types" : [ "street_number" ]
            },
            {
               "long_name" : "Ahmet Ziya Sokak",
               "short_name" : "Ahmet Ziya Sk.",
               "types" : [ "route" ]
            },
            {
               "long_name" : "Yenişehir",
               "short_name" : "Yenişehir",
               "types" : [ "administrative_area_level_4", "political" ]
            },
            {
               "long_name" : "İzmit",
               "short_name" : "İzmit",
               "types" : [ "administrative_area_level_2", "political" ]
            },
            {
               "long_name" : "Kocaeli",
               "short_name" : "Kocaeli",
               "types" : [ "administrative_area_level_1", "political" ]
            },
            {
               "long_name" : "Turkey",
               "short_name" : "TR",
               "types" : [ "country", "political" ]
            },
            {
               "long_name" : "41050",
               "short_name" : "41050",
               "types" : [ "postal_code" ]
            }
         ],
         "formatted_address" : "Yenişehir, Ahmet Ziya Sk. No:59, 41050 İzmit/Kocaeli, Turkey",
         "geometry" : {
            "location" : {
               "lat" : 40.773741,
               "lng" : 29.9634959
            },
            "location_type" : "ROOFTOP",
            "viewport" : {
               "northeast" : {
                  "lat" : 40.7750899802915,
                  "lng" : 29.96484488029149
               },
               "southwest" : {
                  "lat" : 40.77239201970851,
                  "lng" : 29.9621469197085
               }
            }
         },
         "place_id" : "ChIJIc_M7udPyxQRhRSnANCnSuw",
         "plus_code" : {
            "compound_code" : "QXF7+F9 İzmit/Kocaeli, Turkey",
            "global_code" : "8GGFQXF7+F9"
         },
         "types" : [ "street_address" ]
      },
      {
         "address_components" : [
            {
               "long_name" : "23",
               "short_name" : "23",
               "types" : [ "street_number" ]
            },
            {
               "long_name" : "Bayrak Sokak",
               "short_name" : "Bayrak Sk.",
               "types" : [ "route" ]
            },
            {
               "long_name" : "Yenişehir",
               "short_name" : "Yenişehir",
               "types" : [ "administrative_area_level_4", "political" ]
            },
            {
               "long_name" : "İzmit",
               "short_name" : "İzmit",
               "types" : [ "administrative_area_level_2", "political" ]
            },
            {
               "long_name" : "Kocaeli",
               "short_name" : "Kocaeli",
               "types" : [ "administrative_area_level_1", "political" ]
            },
            {
               "long_name" : "Turkey",
               "short_name" : "TR",
               "types" : [ "country", "political" ]
            },
            {
               "long_name" : "41050",
               "short_name" : "41050",
               "types" : [ "postal_code" ]
            }
         ],
         "formatted_address" : "Yenişehir, Bayrak Sk. No:23, 41050 İzmit/Kocaeli, Turkey",
         "geometry" : {
            "location" : {
               "lat" : 40.77384079999999,
               "lng" : 29.9634906
            },
            "location_type" : "RANGE_INTERPOLATED",
            "viewport" : {
               "northeast" : {
                  "lat" : 40.7751897802915,
                  "lng" : 29.9648395802915
               },
               "southwest" : {
                  "lat" : 40.7724918197085,
                  "lng" : 29.9621416197085
               }
            }
         },
         "place_id" : "EjpZZW5pxZ9laGlyLCBCYXlyYWsgU2suIE5vOjIzLCA0MTA1MCDEsHptaXQvS29jYWVsaSwgVHVya2V5IhoSGAoUChIJDc0l7udPyxQRv6xKvbdp5OYQFw",
         "types" : [ "street_address" ]
      },
      {
         "address_components" : [
            {
               "long_name" : "Bayrak Sokak",
               "short_name" : "Bayrak Sk.",
               "types" : [ "route" ]
            },
            {
               "long_name" : "Yenişehir",
               "short_name" : "Yenişehir",
               "types" : [ "administrative_area_level_4", "political" ]
            },
            {
               "long_name" : "İzmit",
               "short_name" : "İzmit",
               "types" : [ "administrative_area_level_2", "political" ]
            },
            {
               "long_name" : "Kocaeli",
               "short_name" : "Kocaeli",
               "types" : [ "administrative_area_level_1", "political" ]
            },
            {
               "long_name" : "Turkey",
               "short_name" : "TR",
               "types" : [ "country", "political" ]
            },
            {
               "long_name" : "41050",
               "short_name" : "41050",
               "types" : [ "postal_code" ]
            }
         ],
         "formatted_address" : "Yenişehir, Bayrak Sk., 41050 İzmit/Kocaeli, Turkey",
         "geometry" : {
            "bounds" : {
               "northeast" : {
                  "lat" : 40.7741613,
                  "lng" : 29.9635525
               },
               "southwest" : {
                  "lat" : 40.7736527,
                  "lng" : 29.9633852
               }
            },
            "location" : {
               "lat" : 40.773907,
               "lng" : 29.9634689
            },
            "location_type" : "GEOMETRIC_CENTER",
            "viewport" : {
               "northeast" : {
                  "lat" : 40.7752559802915,
                  "lng" : 29.9648178302915
               },
               "southwest" : {
                  "lat" : 40.7725580197085,
                  "lng" : 29.9621198697085
               }
            }
         },
         "place_id" : "ChIJDc0l7udPyxQRvqxKvbdp5OY",
         "types" : [ "route" ]
      },
      {
         "address_components" : [
            {
               "long_name" : "QXF7+G9",
               "short_name" : "QXF7+G9",
               "types" : [ "plus_code" ]
            },
            {
               "long_name" : "İzmit",
               "short_name" : "İzmit",
               "types" : [ "administrative_area_level_2", "political" ]
            },
            {
               "long_name" : "Kocaeli",
               "short_name" : "Kocaeli",
               "types" : [ "administrative_area_level_1", "political" ]
            },
            {
               "long_name" : "Turkey",
               "short_name" : "TR",
               "types" : [ "country", "political" ]
            }
         ],
         "formatted_address" : "QXF7+G9 İzmit/Kocaeli, Turkey",
         "geometry" : {
            "bounds" : {
               "northeast" : {
                  "lat" : 40.773875,
                  "lng" : 29.9635
               },
               "southwest" : {
                  "lat" : 40.77375,
                  "lng" : 29.963375
               }
            },
            "location" : {
               "lat" : 40.7737656,
               "lng" : 29.9634504
            },
            "location_type" : "GEOMETRIC_CENTER",
            "viewport" : {
               "northeast" : {
                  "lat" : 40.7751614802915,
                  "lng" : 29.9647864802915
               },
               "southwest" : {
                  "lat" : 40.7724635197085,
                  "lng" : 29.9620885197085
               }
            }
         },
         "place_id" : "GhIJiWJNwApjREARcVF3r6T2PUA",
         "plus_code" : {
            "compound_code" : "QXF7+G9 İzmit/Kocaeli, Turkey",
            "global_code" : "8GGFQXF7+G9"
         },
         "types" : [ "plus_code" ]
      },
      {
         "address_components" : [
            {
               "long_name" : "41050",
               "short_name" : "41050",
               "types" : [ "postal_code" ]
            },
            {
               "long_name" : "İzmit",
               "short_name" : "İzmit",
               "types" : [ "administrative_area_level_2", "political" ]
            },
            {
               "long_name" : "Kocaeli",
               "short_name" : "Kocaeli",
               "types" : [ "administrative_area_level_1", "political" ]
            },
            {
               "long_name" : "Turkey",
               "short_name" : "TR",
               "types" : [ "country", "political" ]
            }
         ],
         "formatted_address" : "41050 İzmit/Kocaeli, Turkey",
         "geometry" : {
            "bounds" : {
               "northeast" : {
                  "lat" : 40.785357,
                  "lng" : 29.9743019
               },
               "southwest" : {
                  "lat" : 40.761615,
                  "lng" : 29.9535201
               }
            },
            "location" : {
               "lat" : 40.77316889999999,
               "lng" : 29.9639357
            },
            "location_type" : "APPROXIMATE",
            "viewport" : {
               "northeast" : {
                  "lat" : 40.785357,
                  "lng" : 29.9743019
               },
               "southwest" : {
                  "lat" : 40.761615,
                  "lng" : 29.9535201
               }
            }
         },
         "place_id" : "ChIJV6Su7OdPyxQRAHGUAqFQ3oA",
         "types" : [ "postal_code" ]
      },
      {
         "address_components" : [
            {
               "long_name" : "Yenişehir",
               "short_name" : "Yenişehir",
               "types" : [ "administrative_area_level_4", "political" ]
            },
            {
               "long_name" : "İzmit",
               "short_name" : "İzmit",
               "types" : [ "administrative_area_level_2", "political" ]
            },
            {
               "long_name" : "Kocaeli",
               "short_name" : "Kocaeli",
               "types" : [ "administrative_area_level_1", "political" ]
            },
            {
               "long_name" : "Turkey",
               "short_name" : "TR",
               "types" : [ "country", "political" ]
            },
            {
               "long_name" : "41050",
               "short_name" : "41050",
               "types" : [ "postal_code" ]
            }
         ],
         "formatted_address" : "Yenişehir, 41050 İzmit/Kocaeli, Turkey",
         "geometry" : {
            "bounds" : {
               "northeast" : {
                  "lat" : 40.785357,
                  "lng" : 29.9743019
               },
               "southwest" : {
                  "lat" : 40.761615,
                  "lng" : 29.9535201
               }
            },
            "location" : {
               "lat" : 40.7685433,
               "lng" : 29.9639357
            },
            "location_type" : "APPROXIMATE",
            "viewport" : {
               "northeast" : {
                  "lat" : 40.785357,
                  "lng" : 29.9743019
               },
               "southwest" : {
                  "lat" : 40.761615,
                  "lng" : 29.9535201
               }
            }
         },
         "place_id" : "ChIJD0RSk-dPyxQRiuBGUtnHPvk",
         "types" : [ "administrative_area_level_4", "political" ]
      },
      {
         "address_components" : [
            {
               "long_name" : "İzmit",
               "short_name" : "İzmit",
               "types" : [ "locality", "political" ]
            },
            {
               "long_name" : "İzmit",
               "short_name" : "İzmit",
               "types" : [ "administrative_area_level_2", "political" ]
            },
            {
               "long_name" : "Kocaeli",
               "short_name" : "Kocaeli",
               "types" : [ "administrative_area_level_1", "political" ]
            },
            {
               "long_name" : "Turkey",
               "short_name" : "TR",
               "types" : [ "country", "political" ]
            }
         ],
         "formatted_address" : "İzmit, Kocaeli, Turkey",
         "geometry" : {
            "bounds" : {
               "northeast" : {
                  "lat" : 40.805401,
                  "lng" : 30.014834
               },
               "southwest" : {
                  "lat" : 40.736827,
                  "lng" : 29.8541681
               }
            },
            "location" : {
               "lat" : 40.7654408,
               "lng" : 29.9408089
            },
            "location_type" : "APPROXIMATE",
            "viewport" : {
               "northeast" : {
                  "lat" : 40.805401,
                  "lng" : 30.014834
               },
               "southwest" : {
                  "lat" : 40.736827,
                  "lng" : 29.8541681
               }
            }
         },
         "place_id" : "ChIJnftLZGZPyxQRuX5rWOcOaYI",
         "types" : [ "locality", "political" ]
      },
      {
         "address_components" : [
            {
               "long_name" : "İzmit",
               "short_name" : "İzmit",
               "types" : [ "administrative_area_level_2", "political" ]
            },
            {
               "long_name" : "Kocaeli",
               "short_name" : "Kocaeli",
               "types" : [ "administrative_area_level_1", "political" ]
            },
            {
               "long_name" : "Turkey",
               "short_name" : "TR",
               "types" : [ "country", "political" ]
            }
         ],
         "formatted_address" : "İzmit/Kocaeli, Turkey",
         "geometry" : {
            "bounds" : {
               "northeast" : {
                  "lat" : 40.971557,
                  "lng" : 30.2639339
               },
               "southwest" : {
                  "lat" : 40.720553,
                  "lng" : 29.8541681
               }
            },
            "location" : {
               "lat" : 40.8506635,
               "lng" : 30.0202964
            },
            "location_type" : "APPROXIMATE",
            "viewport" : {
               "northeast" : {
                  "lat" : 40.971557,
                  "lng" : 30.2639339
               },
               "southwest" : {
                  "lat" : 40.720553,
                  "lng" : 29.8541681
               }
            }
         },
         "place_id" : "ChIJL2DfPLZQyxQRitx6sY9PIGU",
         "types" : [ "administrative_area_level_2", "political" ]
      },
      {
         "address_components" : [
            {
               "long_name" : "Kocaeli",
               "short_name" : "Kocaeli",
               "types" : [ "administrative_area_level_1", "political" ]
            },
            {
               "long_name" : "Turkey",
               "short_name" : "TR",
               "types" : [ "country", "political" ]
            }
         ],
         "formatted_address" : "Kocaeli, Turkey",
         "geometry" : {
            "bounds" : {
               "northeast" : {
                  "lat" : 41.20976,
                  "lng" : 30.367743
               },
               "southwest" : {
                  "lat" : 40.524151,
                  "lng" : 29.3331261
               }
            },
            "location" : {
               "lat" : 40.8532704,
               "lng" : 29.8815203
            },
            "location_type" : "APPROXIMATE",
            "viewport" : {
               "northeast" : {
                  "lat" : 41.20976,
                  "lng" : 30.367743
               },
               "southwest" : {
                  "lat" : 40.524151,
                  "lng" : 29.3331261
               }
            }
         },
         "place_id" : "ChIJQ8zKb5QgyxQRWdhW642zLKg",
         "types" : [ "administrative_area_level_1", "political" ]
      },
      {
         "address_components" : [
            {
               "long_name" : "Turkey",
               "short_name" : "TR",
               "types" : [ "country", "political" ]
            }
         ],
         "formatted_address" : "Turkey",
         "geometry" : {
            "bounds" : {
               "northeast" : {
                  "lat" : 42.3666999,
                  "lng" : 44.8178449
               },
               "southwest" : {
                  "lat" : 35.808592,
                  "lng" : 25.5377
               }
            },
            "location" : {
               "lat" : 38.963745,
               "lng" : 35.243322
            },
            "location_type" : "APPROXIMATE",
            "viewport" : {
               "northeast" : {
                  "lat" : 42.3666999,
                  "lng" : 44.8178449
               },
               "southwest" : {
                  "lat" : 35.808592,
                  "lng" : 25.5377
               }
            }
         },
         "place_id" : "ChIJcSZPllwVsBQRKl9iKtTb2UA",
         "types" : [ "country", "political" ]
      }
   ],
   "status" : "OK"
}
