{
   "plus_code" : {
      "compound_code" : "QGF7+WR2 Odunpazarı/Eskişehir, Turkey",
      "global_code" : "8GFGQGF7+WR2"
   },
   "results" : [
      {
         "address_components" : [
            {
               "long_name" : "1",
               "short_name" : "1",
               "types" : [ "street_number" ]
            },
            {
               "long_name" : "Sökmen Sokak",
               "short_name" : "Sökmen Sk.",
               "types" : [ "route" ]
            },
            {
               "long_name" : "İstiklal",
               "short_name" : "İstiklal",
               "types" : [ "administrative_area_level_4", "political" ]
            },
            {
               "long_name" : "Odunpazarı",
               "short_name" : "Odunpazarı",
               "types" : [ "administrative_area_level_2", "political" ]
            },
            {
               "long_name" : "Eskişehir",
               "short_name" : "Eskişehir",
               "types" : [ "administrative_area_level_1", "political" ]
            },
            {
               "long_name" : "Turkey",
               "short_name" : "TR",
               "types" : [ "country", "political" ]
            },
            {
               "long_name" : "26010",
               "short_name" : "26010",
               "types" : [ "postal_code" ]
            }
         ],
         "formatted_address" : "İstiklal, Sökmen Sk. No:1, 26010 Odunpazarı/Eskişehir, Turkey",
         "geometry" : {
            "location" : {
               "lat" : 39.77472700000001,
               "lng" : 30.514554
            },
            "location_type" : "ROOFTOP",
            "viewport" : {
               "northeast" : {
                  "lat" : 39.77607598029151,
                  "lng" : 30.5159029802915
               },
               "southwest" : {
                  "lat" : 39.77337801970851,
                  "lng" : 30.5132050197085
               }
            }
         },
         "place_id" : "ChIJqU1l6QgWzBQR4a-KvLk_1Wc",
         "plus_code" : {
            "compound_code" : "QGF7+VR Odunpazarı/Eskişehir, Turkey",
            "global_code" : "8GFGQGF7+VR"
         },
         "types" : [ "street_address" ]
      },
      {
         "address_components" : [
            {
               "long_name" : "7",
               "short_name" : "7",
               "types" : [ "street_number" ]
            },
            {
               "long_name" : "Özmen Sokak",
               "short_name" : "Özmen Sk.",
               "types" : [ "route" ]
            },
            {
               "long_name" : "İstiklal",
               "short_name" : "İstiklal",
               "types" : [ "administrative_area_level_4", "political" ]
            },
            {
               "long_name" : "Odunpazarı",
               "short_name" : "Odunpazarı",
               "types" : [ "administrative_area_level_2", "political" ]
            },
            {
               "long_name" : "Eskişehir",
               "short_name" : "Eskişehir",
               "types" : [ "administrative_area_level_1", "political" ]
            },
            {
               "long_name" : "Turkey",
               "short_name" : "TR",
               "types" : [ "country", "political" ]
            },
            {
               "long_name" : "26010",
               "short_name" : "26010",
               "types" : [ "postal_code" ]
            }
         ],
         "formatted_address" : "İstiklal, Özmen Sk. No:7, 26010 Odunpazarı/Eskişehir, Turkey",
         "geometry" : {
            "bounds" : {
               "northeast" : {
                  "lat" : 39.7749904,
                  "lng" : 30.5144516
               },
               "southwest" : {
                  "lat" : 39.7747859,
                  "lng" : 30.5142313
               }
            },
            "location" : {
               "lat" : 39.7748775,
               "lng" : 30.5143482
            },
            "location_type" : "ROOFTOP",
            "viewport" : {
               "northeast" : {
                  "lat" : 39.7762371302915,
                  "lng" : 30.5156904302915
               },
               "southwest" : {
                  "lat" : 39.7735391697085,
                  "lng" : 30.5129924697085
               }
            }
         },
         "place_id" : "ChIJX-mk6AgWzBQRqadTvkANZbY",
         "types" : [ "premise" ]
      },
      {
         "address_components" : [
            {
               "long_name" : "2",
               "short_name" : "2",
               "types" : [ "street_number" ]
            },
            {
               "long_name" : "Sökmen Sokak",
               "short_name" : "Sökmen Sk.",
               "types" : [ "route" ]
            },
            {
               "long_name" : "İstiklal",
               "short_name" : "İstiklal",
               "types" : [ "administrative_area_level_4", "political" ]
            },
            {
               "long_name" : "Odunpazarı",
               "short_name" : "Odunpazarı",
               "types" : [ "administrative_area_level_2", "political" ]
            },
            {
               "long_name" : "Eskişehir",
               "short_name" : "Eskişehir",
               "types" : [ "administrative_area_level_1", "political" ]
            },
            {
               "long_name" : "Turkey",
               "short_name" : "TR",
               "types" : [ "country", "political" ]
            },
            {
               "long_name" : "26010",
               "short_name" : "26010",
               "types" : [ "postal_code" ]
            }
         ],
         "formatted_address" : "İstiklal, Sökmen Sk. No:2, 26010 Odunpazarı/Eskişehir, Turkey",
         "geometry" : {
            "location" : {
               "lat" : 39.7748525,
               "lng" : 30.5146131
            },
            "location_type" : "RANGE_INTERPOLATED",
            "viewport" : {
               "northeast" : {
                  "lat" : 39.7762014802915,
                  "lng" : 30.5159620802915
               },
               "southwest" : {
                  "lat" : 39.77350351970851,
                  "lng" : 30.5132641197085
               }
            }
         },
         "place_id" : "EkHEsHN0aWtsYWwsIFPDtmttZW4gU2suIE5vOjIsIDI2MDEwIE9kdW5wYXphcsSxL0Vza2nFn2VoaXIsIFR1cmtleSIaEhgKFAoSCdEHGuwIFswUEb8tGqE04S5HEAI",
         "types" : [ "street_address" ]
      },
      {
         "address_components" : [
            {
               "long_name" : "QGF7+WR",
               "short_name" : "QGF7+WR",
               "types" : [ "plus_code" ]
            },
            {
               "long_name" : "Odunpazarı",
               "short_name" : "Odunpazarı",
               "types" : [ "administrative_area_level_2", "political" ]
            },
            {
               "long_name" : "Eskişehir",
               "short_name" : "Eskişehir",
               "types" : [ "administrative_area_level_1", "political" ]
            },
            {
               "long_name" : "Turkey",
               "short_name" : "TR",
               "types" : [ "country", "political" ]
            }
         ],
         "formatted_address" : "QGF7+WR Odunpazarı/Eskişehir, Turkey",
         "geometry" : {
            "bounds" : {
               "northeast" : {
                  "lat" : 39.774875,
                  "lng" : 30.514625
               },
               "southwest" : {
                  "lat" : 39.77475,
                  "lng" : 30.5145
               }
            },
            "location" : {
               "lat" : 39.7747695,
               "lng" : 30.5145264
            },
            "location_type" : "GEOMETRIC_CENTER",
            "viewport" : {
               "northeast" : {
                  "lat" : 39.7761614802915,
                  "lng" : 30.5159114802915
               },
               "southwest" : {
                  "lat" : 39.77346351970851,
                  "lng" : 30.5132135197085
               }
            }
         },
         "place_id" : "GhIJGTigpSvjQ0ARue2MALiDPkA",
         "plus_code" : {
            "compound_code" : "QGF7+WR Odunpazarı/Eskişehir, Turkey",
            "global_code" : "8GFGQGF7+WR"
         },
         "types" : [ "plus_code" ]
      },
      {
         "address_components" : [
            {
               "long_name" : "5-1",
               "short_name" : "5-1",
               "types" : [ "street_number" ]
            },
            {
               "long_name" : "Sökmen Sokak",
               "short_name" : "Sökmen Sk.",
               "types" : [ "route" ]
            },
            {
               "long_name" : "İstiklal",
               "short_name" : "İstiklal",
               "types" : [ "administrative_area_level_4", "political" ]
            },
            {
               "long_name" : "Odunpazarı",
               "short_name" : "Odunpazarı",
               "types" : [ "administrative_area_level_2", "political" ]
            },
            {
               "long_name" : "Eskişehir",
               "short_name" : "Eskişehir",
               "types" : [ "administrative_area_level_1", "political" ]
            },
            {
               "long_name" : "Turkey",
               "short_name" : "TR",
               "types" : [ "country", "political" ]
            },
            {
               "long_name" : "26010",
               "short_name" : "26010",
               "types" : [ "postal_code" ]
            }
         ],
         "formatted_address" : "İstiklal, Sökmen Sk. 5-1, 26010 Odunpazarı/Eskişehir, Turkey",
         "geometry" : {
            "bounds" : {
               "northeast" : {
                  "lat" : 39.7750556,
                  "lng" : 30.51475559999999
               },
               "southwest" : {
                  "lat" : 39.7746309,
                  "lng" : 30.5144824
               }
            },
            "location" : {
               "lat" : 39.7748433,
               "lng" : 30.514619
            },
            "location_type" : "GEOMETRIC_CENTER",
            "viewport" : {
               "northeast" : {
                  "lat" : 39.7761922302915,
                  "lng" : 30.5159679802915
               },
               "southwest" : {
                  "lat" : 39.77349426970851,
                  "lng" : 30.5132700197085
               }
            }
         },
         "place_id" : "ChIJ0Qca7AgWzBQRvi0aoTThLkc",
         "types" : [ "route" ]
      },
      {
         "address_components" : [
            {
               "long_name" : "26010",
               "short_name" : "26010",
               "types" : [ "postal_code" ]
            },
            {
               "long_name" : "İstiklal",
               "short_name" : "İstiklal",
               "types" : [ "administrative_area_level_4", "political" ]
            },
            {
               "long_name" : "Odunpazarı",
               "short_name" : "Odunpazarı",
               "types" : [ "administrative_area_level_2", "political" ]
            },
            {
               "long_name" : "Eskişehir",
               "short_name" : "Eskişehir",
               "types" : [ "administrative_area_level_1", "political" ]
            },
            {
               "long_name" : "Turkey",
               "short_name" : "TR",
               "types" : [ "country", "political" ]
            }
         ],
         "formatted_address" : "İstiklal, 26010 Odunpazarı/Eskişehir, Turkey",
         "geometry" : {
            "bounds" : {
               "northeast" : {
                  "lat" : 39.7778861,
                  "lng" : 30.51822409999999
               },
               "southwest" : {
                  "lat" : 39.7708811,
                  "lng" : 30.5103591
               }
            },
            "location" : {
               "lat" : 39.774427,
               "lng" : 30.5149555
            },
            "location_type" : "APPROXIMATE",
            "viewport" : {
               "northeast" : {
                  "lat" : 39.7778861,
                  "lng" : 30.51822409999999
               },
               "southwest" : {
                  "lat" : 39.7708811,
                  "lng" : 30.5103591
               }
            }
         },
         "place_id" : "ChIJF31GwwgWzBQRrU3eh2XwnLg",
         "types" : [ "postal_code" ]
      },
      {
         "address_components" : [
            {
               "long_name" : "İstiklal",
               "short_name" : "İstiklal",
               "types" : [ "administrative_area_level_4", "political" ]
            },
            {
               "long_name" : "Odunpazarı",
               "short_name" : "Odunpazarı",
               "types" : [ "administrative_area_level_2", "political" ]
            },
            {
               "long_name" : "Eskişehir",
               "short_name" : "Eskişehir",
               "types" : [ "administrative_area_level_1", "political" ]
            },
            {
               "long_name" : "Turkey",
               "short_name" : "TR",
               "types" : [ "country", "political" ]
            },
            {
               "long_name" : "26010",
               "short_name" : "26010",
               "types" : [ "postal_code" ]
            }
         ],
         "formatted_address" : "İstiklal, 26010 Odunpazarı/Eskişehir, Turkey",
         "geometry" : {
            "bounds" : {
               "northeast" : {
                  "lat" : 39.7778861,
                  "lng" : 30.51822409999999
               },
               "southwest" : {
                  "lat" : 39.7708811,
                  "lng" : 30.5103591
               }
            },
            "location" : {
               "lat" : 39.774427,
               "lng" : 30.5149555
            },
            "location_type" : "APPROXIMATE",
            "viewport" : {
               "northeast" : {
                  "lat" : 39.7778861,
                  "lng" : 30.51822409999999
               },
               "southwest" : {
                  "lat" : 39.7708811,
                  "lng" : 30.5103591
               }
            }
         },
         "place_id" : "ChIJJ9tM3AgWzBQRhpJXW-kPR7k",
         "types" : [ "administrative_area_level_4", "political" ]
      },
      {
         "address_components" : [
            {
               "long_name" : "Eskişehir",
               "short_name" : "Eskişehir",
               "types" : [ "locality", "political" ]
            },
            {
               "long_name" : "Eskişehir",
               "short_name" : "Eskişehir",
               "types" : [ "administrative_area_level_1", "political" ]
            },
            {
               "long_name" : "Turkey",
               "short_name" : "TR",
               "types" : [ "country", "political" ]
            }
         ],
         "formatted_address" : "Eskişehir, Turkey",
         "geometry" : {
            "bounds" : {
               "northeast" : {
                  "lat" : 39.828122,
                  "lng" : 30.680574
               },
               "southwest" : {
                  "lat" : 39.702564,
                  "lng" : 30.409055
               }
            },
            "location" : {
               "lat" : 39.7667061,
               "lng" : 30.52563109999999
            },
            "location_type" : "APPROXIMATE",
            "viewport" : {
               "northeast" : {
                  "lat" : 39.828122,
                  "lng" : 30.680574
               },
               "southwest" : {
                  "lat" : 39.702564,
                  "lng" : 30.409055
               }
            }
         },
         "place_id" : "ChIJXw4MIgg-zBQRCJoEOFk5ibw",
         "types" : [ "locality", "political" ]
      },
      {
         "address_components" : [
            {
               "long_name" : "Odunpazarı",
               "short_name" : "Odunpazarı",
               "types" : [ "administrative_area_level_2", "political" ]
            },
            {
               "long_name" : "Eskişehir",
               "short_name" : "Eskişehir",
               "types" : [ "administrative_area_level_1", "political" ]
            },
            {
               "long_name" : "Turkey",
               "short_name" : "TR",
               "types" : [ "country", "political" ]
            }
         ],
         "formatted_address" : "Odunpazarı/Eskişehir, Turkey",
         "geometry" : {
            "bounds" : {
               "northeast" : {
                  "lat" : 39.8579331,
                  "lng" : 30.8872509
               },
               "southwest" : {
                  "lat" : 39.4395509,
                  "lng" : 30.2223909
               }
            },
            "location" : {
               "lat" : 39.64829719999999,
               "lng" : 30.5739579
            },
            "location_type" : "APPROXIMATE",
            "viewport" : {
               "northeast" : {
                  "lat" : 39.8579331,
                  "lng" : 30.8872509
               },
               "southwest" : {
                  "lat" : 39.4395509,
                  "lng" : 30.2223909
               }
            }
         },
         "place_id" : "ChIJo0vBmz4izBQRPJU1OOJuX_Q",
         "types" : [ "administrative_area_level_2", "political" ]
      },
      {
         "address_components" : [
            {
               "long_name" : "Eskişehir",
               "short_name" : "Eskişehir",
               "types" : [ "administrative_area_level_1", "political" ]
            },
            {
               "long_name" : "Turkey",
               "short_name" : "TR",
               "types" : [ "country", "political" ]
            }
         ],
         "formatted_address" : "Eskişehir, Turkey",
         "geometry" : {
            "bounds" : {
               "northeast" : {
                  "lat" : 40.158349,
                  "lng" : 32.009396
               },
               "southwest" : {
                  "lat" : 39.029024,
                  "lng" : 29.97498299999999
               }
            },
            "location" : {
               "lat" : 39.6329657,
               "lng" : 31.2626366
            },
            "location_type" : "APPROXIMATE",
            "viewport" : {
               "northeast" : {
                  "lat" : 40.158349,
                  "lng" : 32.009396
               },
               "southwest" : {
                  "lat" : 39.029024,
                  "lng" : 29.97498299999999
               }
            }
         },
         "place_id" : "ChIJF44c-PoVzBQRTydTJ7V7mtg",
         "types" : [ "administrative_area_level_1", "political" ]
      },
      {
         "address_components" : [
            {
               "long_name" : "Turkey",
               "short_name" : "TR",
               "types" : [ "country", "political" ]
            }
         ],
         "formatted_address" : "Turkey",
         "geometry" : {
            "bounds" : {
               "northeast" : {
                  "lat" : 42.3666999,
                  "lng" : 44.8178449
               },
               "southwest" : {
                  "lat" : 35.808592,
                  "lng" : 25.5377
               }
            },
            "location" : {
               "lat" : 38.963745,
               "lng" : 35.243322
            },
            "location_type" : "APPROXIMATE",
            "viewport" : {
               "northeast" : {
                  "lat" : 42.3666999,
                  "lng" : 44.8178449
               },
               "southwest" : {
                  "lat" : 35.808592,
                  "lng" : 25.5377
               }
            }
         },
         "place_id" : "ChIJcSZPllwVsBQRKl9iKtTb2UA",
         "types" : [ "country", "political" ]
      }
   ],
   "status" : "OK"
}
