{
   "plus_code" : {
      "compound_code" : "5W8G+GG6 Beypazarı/Ankara, Turkey",
      "global_code" : "8GGH5W8G+GG6"
   },
   "results" : [
      {
         "address_components" : [
            {
               "long_name" : "5W8G+GG",
               "short_name" : "5W8G+GG",
               "types" : [ "plus_code" ]
            },
            {
               "long_name" : "Beypazarı",
               "short_name" : "Beypazarı",
               "types" : [ "administrative_area_level_2", "political" ]
            },
            {
               "long_name" : "Ankara",
               "short_name" : "Ankara",
               "types" : [ "administrative_area_level_1", "political" ]
            },
            {
               "long_name" : "Turkey",
               "short_name" : "TR",
               "types" : [ "country", "political" ]
            }
         ],
         "formatted_address" : "5W8G+GG Beypazarı/Ankara, Turkey",
         "geometry" : {
            "bounds" : {
               "northeast" : {
                  "lat" : 40.166375,
                  "lng" : 31.926375
               },
               "southwest" : {
                  "lat" : 40.16625,
                  "lng" : 31.92625
               }
            },
            "location" : {
               "lat" : 40.1662813,
               "lng" : 31.9262695
            },
            "location_type" : "GEOMETRIC_CENTER",
            "viewport" : {
               "northeast" : {
                  "lat" : 40.16766148029149,
                  "lng" : 31.9276614802915
               },
               "southwest" : {
                  "lat" : 40.16496351970849,
                  "lng" : 31.9249635197085
               }
            }
         },
         "place_id" : "GhIJ27ektEgVREARQ8h5_x_tP0A",
         "plus_code" : {
            "compound_code" : "5W8G+GG Beypazarı/Ankara, Turkey",
            "global_code" : "8GGH5W8G+GG"
         },
         "types" : [ "plus_code" ]
      },
      {
         "address_components" : [
            {
               "long_name" : "27",
               "short_name" : "27",
               "types" : [ "street_number" ]
            },
            {
               "long_name" : "Doktor Mustafa Güler Sokak",
               "short_name" : "Dr. Mustafa Güler Sk.",
               "types" : [ "route" ]
            },
            {
               "long_name" : "Ayvaşık",
               "short_name" : "Ayvaşık",
               "types" : [ "administrative_area_level_4", "political" ]
            },
            {
               "long_name" : "Beypazarı",
               "short_name" : "Beypazarı",
               "types" : [ "administrative_area_level_2", "political" ]
            },
            {
               "long_name" : "Ankara",
               "short_name" : "Ankara",
               "types" : [ "administrative_area_level_1", "political" ]
            },
            {
               "long_name" : "Turkey",
               "short_name" : "TR",
               "types" : [ "country", "political" ]
            },
            {
               "long_name" : "06730",
               "short_name" : "06730",
               "types" : [ "postal_code" ]
            }
         ],
         "formatted_address" : "Ayvaşık, Dr. Mustafa Güler Sk. No:27, 06730 Beypazarı/Ankara, Turkey",
         "geometry" : {
            "location" : {
               "lat" : 40.1663952,
               "lng" : 31.92838099999999
            },
            "location_type" : "ROOFTOP",
            "viewport" : {
               "northeast" : {
                  "lat" : 40.1677441802915,
                  "lng" : 31.92972998029149
               },
               "southwest" : {
                  "lat" : 40.1650462197085,
                  "lng" : 31.9270320197085
               }
            }
         },
         "place_id" : "ChIJkVcr6dy50hQRgQEFdJVFxEI",
         "plus_code" : {
            "compound_code" : "5W8H+H9 Beypazarı/Ankara, Turkey",
            "global_code" : "8GGH5W8H+H9"
         },
         "types" : [ "street_address" ]
      },
      {
         "address_components" : [
            {
               "long_name" : "Ulusoy Sokak",
               "short_name" : "Ulusoy Sk.",
               "types" : [ "route" ]
            },
            {
               "long_name" : "Ayvaşık",
               "short_name" : "Ayvaşık",
               "types" : [ "administrative_area_level_4", "political" ]
            },
            {
               "long_name" : "Beypazarı",
               "short_name" : "Beypazarı",
               "types" : [ "administrative_area_level_2", "political" ]
            },
            {
               "long_name" : "Ankara",
               "short_name" : "Ankara",
               "types" : [ "administrative_area_level_1", "political" ]
            },
            {
               "long_name" : "Turkey",
               "short_name" : "TR",
               "types" : [ "country", "political" ]
            },
            {
               "long_name" : "06730",
               "short_name" : "06730",
               "types" : [ "postal_code" ]
            }
         ],
         "formatted_address" : "Ayvaşık, Ulusoy Sk., 06730 Beypazarı/Ankara, Turkey",
         "geometry" : {
            "bounds" : {
               "northeast" : {
                  "lat" : 40.1666269,
                  "lng" : 31.9249993
               },
               "southwest" : {
                  "lat" : 40.1649698,
                  "lng" : 31.924823
               }
            },
            "location" : {
               "lat" : 40.1658037,
               "lng" : 31.9249924
            },
            "location_type" : "GEOMETRIC_CENTER",
            "viewport" : {
               "northeast" : {
                  "lat" : 40.1671473302915,
                  "lng" : 31.9262601302915
               },
               "southwest" : {
                  "lat" : 40.1644493697085,
                  "lng" : 31.9235621697085
               }
            }
         },
         "place_id" : "ChIJYaMLrMK50hQRFDRjNKtfqeM",
         "types" : [ "route" ]
      },
      {
         "address_components" : [
            {
               "long_name" : "30",
               "short_name" : "30",
               "types" : [ "street_number" ]
            },
            {
               "long_name" : "Doktor Mustafa Güler Sokak",
               "short_name" : "Dr. Mustafa Güler Sk.",
               "types" : [ "route" ]
            },
            {
               "long_name" : "Ayvaşık",
               "short_name" : "Ayvaşık",
               "types" : [ "administrative_area_level_4", "political" ]
            },
            {
               "long_name" : "Beypazarı",
               "short_name" : "Beypazarı",
               "types" : [ "administrative_area_level_2", "political" ]
            },
            {
               "long_name" : "Ankara",
               "short_name" : "Ankara",
               "types" : [ "administrative_area_level_1", "political" ]
            },
            {
               "long_name" : "Turkey",
               "short_name" : "TR",
               "types" : [ "country", "political" ]
            },
            {
               "long_name" : "06730",
               "short_name" : "06730",
               "types" : [ "postal_code" ]
            }
         ],
         "formatted_address" : "Ayvaşık, Dr. Mustafa Güler Sk. No:30, 06730 Beypazarı/Ankara, Turkey",
         "geometry" : {
            "location" : {
               "lat" : 40.1666634,
               "lng" : 31.9283683
            },
            "location_type" : "RANGE_INTERPOLATED",
            "viewport" : {
               "northeast" : {
                  "lat" : 40.16801238029149,
                  "lng" : 31.9297172802915
               },
               "southwest" : {
                  "lat" : 40.1653144197085,
                  "lng" : 31.9270193197085
               }
            }
         },
         "place_id" : "EkhBeXZhxZ_EsWssIERyLiBNdXN0YWZhIEfDvGxlciBTay4gTm86MzAsIDA2NzMwIEJleXBhemFyxLEvQW5rYXJhLCBUdXJrZXkiGhIYChQKEgkDwJL23LnSFBFn3v5vRmWMBRAe",
         "types" : [ "street_address" ]
      },
      {
         "address_components" : [
            {
               "long_name" : "Beypazarı",
               "short_name" : "Beypazarı",
               "types" : [ "locality", "political" ]
            },
            {
               "long_name" : "Beypazarı",
               "short_name" : "Beypazarı",
               "types" : [ "administrative_area_level_2", "political" ]
            },
            {
               "long_name" : "Ankara",
               "short_name" : "Ankara",
               "types" : [ "administrative_area_level_1", "political" ]
            },
            {
               "long_name" : "Turkey",
               "short_name" : "TR",
               "types" : [ "country", "political" ]
            }
         ],
         "formatted_address" : "Beypazarı, Ankara, Turkey",
         "geometry" : {
            "bounds" : {
               "northeast" : {
                  "lat" : 40.181357,
                  "lng" : 31.9550281
               },
               "southwest" : {
                  "lat" : 40.1433898,
                  "lng" : 31.896961
               }
            },
            "location" : {
               "lat" : 40.168218,
               "lng" : 31.920441
            },
            "location_type" : "APPROXIMATE",
            "viewport" : {
               "northeast" : {
                  "lat" : 40.181357,
                  "lng" : 31.9550281
               },
               "southwest" : {
                  "lat" : 40.1433898,
                  "lng" : 31.896961
               }
            }
         },
         "place_id" : "ChIJb0PCYey50hQRMK-EAWiA6N4",
         "types" : [ "locality", "political" ]
      },
      {
         "address_components" : [
            {
               "long_name" : "06730",
               "short_name" : "06730",
               "types" : [ "postal_code" ]
            },
            {
               "long_name" : "Ayvaşık",
               "short_name" : "Ayvaşık",
               "types" : [ "administrative_area_level_4", "political" ]
            },
            {
               "long_name" : "Beypazarı",
               "short_name" : "Beypazarı",
               "types" : [ "administrative_area_level_2", "political" ]
            },
            {
               "long_name" : "Ankara",
               "short_name" : "Ankara",
               "types" : [ "administrative_area_level_1", "political" ]
            },
            {
               "long_name" : "Turkey",
               "short_name" : "TR",
               "types" : [ "country", "political" ]
            }
         ],
         "formatted_address" : "Ayvaşık, 06730 Beypazarı/Ankara, Turkey",
         "geometry" : {
            "bounds" : {
               "northeast" : {
                  "lat" : 40.185022,
                  "lng" : 31.969298
               },
               "southwest" : {
                  "lat" : 40.11642500000001,
                  "lng" : 31.92073599999999
               }
            },
            "location" : {
               "lat" : 40.1470636,
               "lng" : 31.9416226
            },
            "location_type" : "APPROXIMATE",
            "viewport" : {
               "northeast" : {
                  "lat" : 40.185022,
                  "lng" : 31.969298
               },
               "southwest" : {
                  "lat" : 40.11642500000001,
                  "lng" : 31.92073599999999
               }
            }
         },
         "place_id" : "ChIJmx_0gsq50hQRRYAvhGrN_yM",
         "types" : [ "postal_code" ]
      },
      {
         "address_components" : [
            {
               "long_name" : "Ayvaşık",
               "short_name" : "Ayvaşık",
               "types" : [ "administrative_area_level_4", "political" ]
            },
            {
               "long_name" : "Beypazarı",
               "short_name" : "Beypazarı",
               "types" : [ "administrative_area_level_2", "political" ]
            },
            {
               "long_name" : "Ankara",
               "short_name" : "Ankara",
               "types" : [ "administrative_area_level_1", "political" ]
            },
            {
               "long_name" : "Turkey",
               "short_name" : "TR",
               "types" : [ "country", "political" ]
            }
         ],
         "formatted_address" : "Ayvaşık, Beypazarı/Ankara, Turkey",
         "geometry" : {
            "bounds" : {
               "northeast" : {
                  "lat" : 40.185022,
                  "lng" : 31.969298
               },
               "southwest" : {
                  "lat" : 40.11642500000001,
                  "lng" : 31.92073599999999
               }
            },
            "location" : {
               "lat" : 40.1655143,
               "lng" : 31.9416226
            },
            "location_type" : "APPROXIMATE",
            "viewport" : {
               "northeast" : {
                  "lat" : 40.185022,
                  "lng" : 31.969298
               },
               "southwest" : {
                  "lat" : 40.11642500000001,
                  "lng" : 31.92073599999999
               }
            }
         },
         "place_id" : "ChIJ93YX0dG50hQRQ-B_vsHwYvE",
         "types" : [ "administrative_area_level_4", "political" ]
      },
      {
         "address_components" : [
            {
               "long_name" : "Beypazarı",
               "short_name" : "Beypazarı",
               "types" : [ "administrative_area_level_2", "political" ]
            },
            {
               "long_name" : "Ankara",
               "short_name" : "Ankara",
               "types" : [ "administrative_area_level_1", "political" ]
            },
            {
               "long_name" : "Turkey",
               "short_name" : "TR",
               "types" : [ "country", "political" ]
            }
         ],
         "formatted_address" : "Beypazarı/Ankara, Turkey",
         "geometry" : {
            "bounds" : {
               "northeast" : {
                  "lat" : 40.421678,
                  "lng" : 32.2130269
               },
               "southwest" : {
                  "lat" : 39.869159,
                  "lng" : 31.6840201
               }
            },
            "location" : {
               "lat" : 40.1085204,
               "lng" : 31.9017954
            },
            "location_type" : "APPROXIMATE",
            "viewport" : {
               "northeast" : {
                  "lat" : 40.421678,
                  "lng" : 32.2130269
               },
               "southwest" : {
                  "lat" : 39.869159,
                  "lng" : 31.6840201
               }
            }
         },
         "place_id" : "ChIJXfvkXEu40hQRUhxfGKqcgR8",
         "types" : [ "administrative_area_level_2", "political" ]
      },
      {
         "address_components" : [
            {
               "long_name" : "Ankara",
               "short_name" : "Ankara",
               "types" : [ "administrative_area_level_1", "political" ]
            },
            {
               "long_name" : "Turkey",
               "short_name" : "TR",
               "types" : [ "country", "political" ]
            }
         ],
         "formatted_address" : "Ankara, Turkey",
         "geometry" : {
            "bounds" : {
               "northeast" : {
                  "lat" : 40.756282,
                  "lng" : 33.871969
               },
               "southwest" : {
                  "lat" : 38.6699421,
                  "lng" : 30.8240371
               }
            },
            "location" : {
               "lat" : 39.7805245,
               "lng" : 32.7181375
            },
            "location_type" : "APPROXIMATE",
            "viewport" : {
               "northeast" : {
                  "lat" : 40.756282,
                  "lng" : 33.871969
               },
               "southwest" : {
                  "lat" : 38.6699421,
                  "lng" : 30.8240371
               }
            }
         },
         "place_id" : "ChIJ2UbubYMC0xQRePrg-9apYgY",
         "types" : [ "administrative_area_level_1", "political" ]
      },
      {
         "address_components" : [
            {
               "long_name" : "Turkey",
               "short_name" : "TR",
               "types" : [ "country", "political" ]
            }
         ],
         "formatted_address" : "Turkey",
         "geometry" : {
            "bounds" : {
               "northeast" : {
                  "lat" : 42.3666999,
                  "lng" : 44.8178449
               },
               "southwest" : {
                  "lat" : 35.808592,
                  "lng" : 25.5377
               }
            },
            "location" : {
               "lat" : 38.963745,
               "lng" : 35.243322
            },
            "location_type" : "APPROXIMATE",
            "viewport" : {
               "northeast" : {
                  "lat" : 42.3666999,
                  "lng" : 44.8178449
               },
               "southwest" : {
                  "lat" : 35.808592,
                  "lng" : 25.5377
               }
            }
         },
         "place_id" : "ChIJcSZPllwVsBQRKl9iKtTb2UA",
         "types" : [ "country", "political" ]
      }
   ],
   "status" : "OK"
}
