{
   "plus_code" : {
      "compound_code" : "53P5+WG4 Osmangazi/Bursa, Turkey",
      "global_code" : "8GGF53P5+WG4"
   },
   "results" : [
      {
         "address_components" : [
            {
               "long_name" : "9",
               "short_name" : "9",
               "types" : [ "street_number" ]
            },
            {
               "long_name" : "Cemal Nadir Caddesi",
               "short_name" : "Cemal Nadir Cd.",
               "types" : [ "route" ]
            },
            {
               "long_name" : "Şehreküstü",
               "short_name" : "Şehreküstü",
               "types" : [ "administrative_area_level_4", "political" ]
            },
            {
               "long_name" : "Osmangazi",
               "short_name" : "Osmangazi",
               "types" : [ "administrative_area_level_2", "political" ]
            },
            {
               "long_name" : "Bursa",
               "short_name" : "Bursa",
               "types" : [ "administrative_area_level_1", "political" ]
            },
            {
               "long_name" : "Turkey",
               "short_name" : "TR",
               "types" : [ "country", "political" ]
            },
            {
               "long_name" : "16050",
               "short_name" : "16050",
               "types" : [ "postal_code" ]
            }
         ],
         "formatted_address" : "Şehreküstü, Cemal Nadir Cd. No:9, 16050 Osmangazi/Bursa, Turkey",
         "geometry" : {
            "location" : {
               "lat" : 40.1872693,
               "lng" : 29.0586955
            },
            "location_type" : "ROOFTOP",
            "viewport" : {
               "northeast" : {
                  "lat" : 40.18861828029149,
                  "lng" : 29.0600444802915
               },
               "southwest" : {
                  "lat" : 40.18592031970849,
                  "lng" : 29.0573465197085
               }
            }
         },
         "place_id" : "ChIJ-x3cvuI9yhQRLSt9V8T-nhI",
         "plus_code" : {
            "compound_code" : "53P5+WF Osmangazi/Bursa, Turkey",
            "global_code" : "8GGF53P5+WF"
         },
         "types" : [ "street_address" ]
      },
      {
         "address_components" : [
            {
               "long_name" : "9",
               "short_name" : "9",
               "types" : [ "street_number" ]
            },
            {
               "long_name" : "Cemal Nadir Caddesi",
               "short_name" : "Cemal Nadir Cd.",
               "types" : [ "route" ]
            },
            {
               "long_name" : "Osmangazi",
               "short_name" : "Osmangazi",
               "types" : [ "administrative_area_level_4", "political" ]
            },
            {
               "long_name" : "Osmangazi",
               "short_name" : "Osmangazi",
               "types" : [ "administrative_area_level_2", "political" ]
            },
            {
               "long_name" : "Bursa",
               "short_name" : "Bursa",
               "types" : [ "administrative_area_level_1", "political" ]
            },
            {
               "long_name" : "Turkey",
               "short_name" : "TR",
               "types" : [ "country", "political" ]
            },
            {
               "long_name" : "16040",
               "short_name" : "16040",
               "types" : [ "postal_code" ]
            }
         ],
         "formatted_address" : "Osmangazi, Cemal Nadir Cd. No:9, 16040 Osmangazi/Bursa, Turkey",
         "geometry" : {
            "location" : {
               "lat" : 40.1873559,
               "lng" : 29.0589425
            },
            "location_type" : "RANGE_INTERPOLATED",
            "viewport" : {
               "northeast" : {
                  "lat" : 40.1887048802915,
                  "lng" : 29.0602914802915
               },
               "southwest" : {
                  "lat" : 40.1860069197085,
                  "lng" : 29.0575935197085
               }
            }
         },
         "place_id" : "Ej5Pc21hbmdhemksIENlbWFsIE5hZGlyIENkLiBObzo5LCAxNjA0MCBPc21hbmdhemkvQnVyc2EsIFR1cmtleSIaEhgKFAoSCQMqQL7iPcoUEaIgat83Xy3oEAk",
         "types" : [ "street_address" ]
      },
      {
         "address_components" : [
            {
               "long_name" : "53P5+WG",
               "short_name" : "53P5+WG",
               "types" : [ "plus_code" ]
            },
            {
               "long_name" : "Osmangazi",
               "short_name" : "Osmangazi",
               "types" : [ "administrative_area_level_2", "political" ]
            },
            {
               "long_name" : "Bursa",
               "short_name" : "Bursa",
               "types" : [ "administrative_area_level_1", "political" ]
            },
            {
               "long_name" : "Turkey",
               "short_name" : "TR",
               "types" : [ "country", "political" ]
            }
         ],
         "formatted_address" : "53P5+WG Osmangazi/Bursa, Turkey",
         "geometry" : {
            "bounds" : {
               "northeast" : {
                  "lat" : 40.187375,
                  "lng" : 29.058875
               },
               "southwest" : {
                  "lat" : 40.18725,
                  "lng" : 29.05875
               }
            },
            "location" : {
               "lat" : 40.1872667,
               "lng" : 29.0588379
            },
            "location_type" : "GEOMETRIC_CENTER",
            "viewport" : {
               "northeast" : {
                  "lat" : 40.18866148029149,
                  "lng" : 29.0601614802915
               },
               "southwest" : {
                  "lat" : 40.18596351970849,
                  "lng" : 29.0574635197085
               }
            }
         },
         "place_id" : "GhIJnhDwWvgXREAR7EMoABAPPUA",
         "plus_code" : {
            "compound_code" : "53P5+WG Osmangazi/Bursa, Turkey",
            "global_code" : "8GGF53P5+WG"
         },
         "types" : [ "plus_code" ]
      },
      {
         "address_components" : [
            {
               "long_name" : "9",
               "short_name" : "9",
               "types" : [ "street_number" ]
            },
            {
               "long_name" : "Cemal Nadir Caddesi",
               "short_name" : "Cemal Nadir Cd.",
               "types" : [ "route" ]
            },
            {
               "long_name" : "Osmangazi",
               "short_name" : "Osmangazi",
               "types" : [ "administrative_area_level_4", "political" ]
            },
            {
               "long_name" : "Osmangazi",
               "short_name" : "Osmangazi",
               "types" : [ "administrative_area_level_2", "political" ]
            },
            {
               "long_name" : "Bursa",
               "short_name" : "Bursa",
               "types" : [ "administrative_area_level_1", "political" ]
            },
            {
               "long_name" : "Turkey",
               "short_name" : "TR",
               "types" : [ "country", "political" ]
            },
            {
               "long_name" : "16040",
               "short_name" : "16040",
               "types" : [ "postal_code" ]
            }
         ],
         "formatted_address" : "Osmangazi, Cemal Nadir Cd. No:9, 16040 Osmangazi/Bursa, Turkey",
         "geometry" : {
            "bounds" : {
               "northeast" : {
                  "lat" : 40.1873559,
                  "lng" : 29.0590851
               },
               "southwest" : {
                  "lat" : 40.1871259,
                  "lng" : 29.0589425
               }
            },
            "location" : {
               "lat" : 40.1872409,
               "lng" : 29.0590138
            },
            "location_type" : "GEOMETRIC_CENTER",
            "viewport" : {
               "northeast" : {
                  "lat" : 40.1885898802915,
                  "lng" : 29.06036278029149
               },
               "southwest" : {
                  "lat" : 40.1858919197085,
                  "lng" : 29.0576648197085
               }
            }
         },
         "place_id" : "ChIJAypAvuI9yhQRoiBq3zdfLeg",
         "types" : [ "route" ]
      },
      {
         "address_components" : [
            {
               "long_name" : "Osmangazi",
               "short_name" : "Osmangazi",
               "types" : [ "administrative_area_level_4", "political" ]
            },
            {
               "long_name" : "Osmangazi",
               "short_name" : "Osmangazi",
               "types" : [ "administrative_area_level_2", "political" ]
            },
            {
               "long_name" : "Bursa",
               "short_name" : "Bursa",
               "types" : [ "administrative_area_level_1", "political" ]
            },
            {
               "long_name" : "Turkey",
               "short_name" : "TR",
               "types" : [ "country", "political" ]
            },
            {
               "long_name" : "16040",
               "short_name" : "16040",
               "types" : [ "postal_code" ]
            }
         ],
         "formatted_address" : "Osmangazi, 16040 Osmangazi/Bursa, Turkey",
         "geometry" : {
            "bounds" : {
               "northeast" : {
                  "lat" : 40.188357,
                  "lng" : 29.05976
               },
               "southwest" : {
                  "lat" : 40.1839191,
                  "lng" : 29.05191799999999
               }
            },
            "location" : {
               "lat" : 40.1871034,
               "lng" : 29.0569025
            },
            "location_type" : "APPROXIMATE",
            "viewport" : {
               "northeast" : {
                  "lat" : 40.188357,
                  "lng" : 29.05976
               },
               "southwest" : {
                  "lat" : 40.1839191,
                  "lng" : 29.05191799999999
               }
            }
         },
         "place_id" : "ChIJrUUIzAk-yhQRBLlLOfQtUl4",
         "types" : [ "administrative_area_level_4", "political" ]
      },
      {
         "address_components" : [
            {
               "long_name" : "16040",
               "short_name" : "16040",
               "types" : [ "postal_code" ]
            },
            {
               "long_name" : "Osmangazi",
               "short_name" : "Osmangazi",
               "types" : [ "administrative_area_level_2", "political" ]
            },
            {
               "long_name" : "Bursa",
               "short_name" : "Bursa",
               "types" : [ "administrative_area_level_1", "political" ]
            },
            {
               "long_name" : "Turkey",
               "short_name" : "TR",
               "types" : [ "country", "political" ]
            }
         ],
         "formatted_address" : "16040 Osmangazi/Bursa, Turkey",
         "geometry" : {
            "bounds" : {
               "northeast" : {
                  "lat" : 40.188357,
                  "lng" : 29.05976
               },
               "southwest" : {
                  "lat" : 40.1839191,
                  "lng" : 29.05191799999999
               }
            },
            "location" : {
               "lat" : 40.1871034,
               "lng" : 29.0569025
            },
            "location_type" : "APPROXIMATE",
            "viewport" : {
               "northeast" : {
                  "lat" : 40.188357,
                  "lng" : 29.05976
               },
               "southwest" : {
                  "lat" : 40.1839191,
                  "lng" : 29.05191799999999
               }
            }
         },
         "place_id" : "ChIJO57J6Pw9yhQRGzFn31hU7Mk",
         "types" : [ "postal_code" ]
      },
      {
         "address_components" : [
            {
               "long_name" : "Bursa",
               "short_name" : "Bursa",
               "types" : [ "locality", "political" ]
            },
            {
               "long_name" : "Bursa",
               "short_name" : "Bursa",
               "types" : [ "administrative_area_level_1", "political" ]
            },
            {
               "long_name" : "Turkey",
               "short_name" : "TR",
               "types" : [ "country", "political" ]
            }
         ],
         "formatted_address" : "Bursa, Turkey",
         "geometry" : {
            "bounds" : {
               "northeast" : {
                  "lat" : 40.276336,
                  "lng" : 29.202363
               },
               "southwest" : {
                  "lat" : 40.16702,
                  "lng" : 28.862216
               }
            },
            "location" : {
               "lat" : 40.1885281,
               "lng" : 29.0609636
            },
            "location_type" : "APPROXIMATE",
            "viewport" : {
               "northeast" : {
                  "lat" : 40.276336,
                  "lng" : 29.202363
               },
               "southwest" : {
                  "lat" : 40.16702,
                  "lng" : 28.862216
               }
            }
         },
         "place_id" : "ChIJlVbU2IIVyhQRkjOX_FUFoGE",
         "types" : [ "locality", "political" ]
      },
      {
         "address_components" : [
            {
               "long_name" : "Osmangazi",
               "short_name" : "Osmangazi",
               "types" : [ "administrative_area_level_2", "political" ]
            },
            {
               "long_name" : "Bursa",
               "short_name" : "Bursa",
               "types" : [ "administrative_area_level_1", "political" ]
            },
            {
               "long_name" : "Turkey",
               "short_name" : "TR",
               "types" : [ "country", "political" ]
            }
         ],
         "formatted_address" : "Osmangazi/Bursa, Turkey",
         "geometry" : {
            "bounds" : {
               "northeast" : {
                  "lat" : 40.3447159,
                  "lng" : 29.26984
               },
               "southwest" : {
                  "lat" : 39.98636399999999,
                  "lng" : 28.919984
               }
            },
            "location" : {
               "lat" : 40.1794498,
               "lng" : 29.0227201
            },
            "location_type" : "APPROXIMATE",
            "viewport" : {
               "northeast" : {
                  "lat" : 40.3447159,
                  "lng" : 29.26984
               },
               "southwest" : {
                  "lat" : 39.98636399999999,
                  "lng" : 28.919984
               }
            }
         },
         "place_id" : "ChIJO1HUDDM8yhQROsoHltWpfgY",
         "types" : [ "administrative_area_level_2", "political" ]
      },
      {
         "address_components" : [
            {
               "long_name" : "Bursa",
               "short_name" : "Bursa",
               "types" : [ "administrative_area_level_1", "political" ]
            },
            {
               "long_name" : "Turkey",
               "short_name" : "TR",
               "types" : [ "country", "political" ]
            }
         ],
         "formatted_address" : "Bursa, Turkey",
         "geometry" : {
            "bounds" : {
               "northeast" : {
                  "lat" : 40.6212121,
                  "lng" : 29.9561661
               },
               "southwest" : {
                  "lat" : 39.5937439,
                  "lng" : 28.0876659
               }
            },
            "location" : {
               "lat" : 40.0655459,
               "lng" : 29.2320784
            },
            "location_type" : "APPROXIMATE",
            "viewport" : {
               "northeast" : {
                  "lat" : 40.6212121,
                  "lng" : 29.9561661
               },
               "southwest" : {
                  "lat" : 39.5937439,
                  "lng" : 28.0876659
               }
            }
         },
         "place_id" : "ChIJqSK43XuPtRQRzUZGtXCmLJI",
         "types" : [ "administrative_area_level_1", "political" ]
      },
      {
         "address_components" : [
            {
               "long_name" : "Turkey",
               "short_name" : "TR",
               "types" : [ "country", "political" ]
            }
         ],
         "formatted_address" : "Turkey",
         "geometry" : {
            "bounds" : {
               "northeast" : {
                  "lat" : 42.3666999,
                  "lng" : 44.8178449
               },
               "southwest" : {
                  "lat" : 35.808592,
                  "lng" : 25.5377
               }
            },
            "location" : {
               "lat" : 38.963745,
               "lng" : 35.243322
            },
            "location_type" : "APPROXIMATE",
            "viewport" : {
               "northeast" : {
                  "lat" : 42.3666999,
                  "lng" : 44.8178449
               },
               "southwest" : {
                  "lat" : 35.808592,
                  "lng" : 25.5377
               }
            }
         },
         "place_id" : "ChIJcSZPllwVsBQRKl9iKtTb2UA",
         "types" : [ "country", "political" ]
      }
   ],
   "status" : "OK"
}
