{
   "plus_code" : {
      "compound_code" : "WVV6+92H Altındağ/Ankara, Turkey",
      "global_code" : "8GFJWVV6+92H"
   },
   "results" : [
      {
         "address_components" : [
            {
               "long_name" : "47",
               "short_name" : "47",
               "types" : [ "street_number" ]
            },
            {
               "long_name" : "Kevgirli Sokak",
               "short_name" : "Kevgirli Sk.",
               "types" : [ "route" ]
            },
            {
               "long_name" : "Hacı Bayram",
               "short_name" : "Hacı Bayram",
               "types" : [ "administrative_area_level_4", "political" ]
            },
            {
               "long_name" : "Altındağ",
               "short_name" : "Altındağ",
               "types" : [ "administrative_area_level_2", "political" ]
            },
            {
               "long_name" : "Ankara",
               "short_name" : "Ankara",
               "types" : [ "administrative_area_level_1", "political" ]
            },
            {
               "long_name" : "Turkey",
               "short_name" : "TR",
               "types" : [ "country", "political" ]
            },
            {
               "long_name" : "06050",
               "short_name" : "06050",
               "types" : [ "postal_code" ]
            }
         ],
         "formatted_address" : "Hacı Bayram, Kevgirli Sk. No:47, 06050 Altındağ/Ankara, Turkey",
         "geometry" : {
            "location" : {
               "lat" : 39.9432068,
               "lng" : 32.8602899
            },
            "location_type" : "ROOFTOP",
            "viewport" : {
               "northeast" : {
                  "lat" : 39.94455578029149,
                  "lng" : 32.86163888029149
               },
               "southwest" : {
                  "lat" : 39.9418578197085,
                  "lng" : 32.85894091970849
               }
            }
         },
         "place_id" : "ChIJBeDXG2RO0xQRy4CMcrLt6N8",
         "plus_code" : {
            "compound_code" : "WVV6+74 Altındağ/Ankara, Turkey",
            "global_code" : "8GFJWVV6+74"
         },
         "types" : [ "street_address" ]
      },
      {
         "address_components" : [
            {
               "long_name" : "19",
               "short_name" : "19",
               "types" : [ "street_number" ]
            },
            {
               "long_name" : "Tabakhane Sokak",
               "short_name" : "Tabakhane Sk.",
               "types" : [ "route" ]
            },
            {
               "long_name" : "Hacı Bayram",
               "short_name" : "Hacı Bayram",
               "types" : [ "administrative_area_level_4", "political" ]
            },
            {
               "long_name" : "Altındağ",
               "short_name" : "Altındağ",
               "types" : [ "administrative_area_level_2", "political" ]
            },
            {
               "long_name" : "Ankara",
               "short_name" : "Ankara",
               "types" : [ "administrative_area_level_1", "political" ]
            },
            {
               "long_name" : "Turkey",
               "short_name" : "TR",
               "types" : [ "country", "political" ]
            },
            {
               "long_name" : "06050",
               "short_name" : "06050",
               "types" : [ "postal_code" ]
            }
         ],
         "formatted_address" : "Hacı Bayram, Tabakhane Sk. No:19, 06050 Altındağ/Ankara, Turkey",
         "geometry" : {
            "location" : {
               "lat" : 39.9431599,
               "lng" : 32.8604745
            },
            "location_type" : "RANGE_INTERPOLATED",
            "viewport" : {
               "northeast" : {
                  "lat" : 39.9445088802915,
                  "lng" : 32.8618234802915
               },
               "southwest" : {
                  "lat" : 39.9418109197085,
                  "lng" : 32.8591255197085
               }
            }
         },
         "place_id" : "EkJIYWPEsSBCYXlyYW0sIFRhYmFraGFuZSBTay4gTm86MTksIDA2MDUwIEFsdMSxbmRhxJ8vQW5rYXJhLCBUdXJrZXkiGhIYChQKEglvrc0dZE7TFBFfVoBwe0B1fhAT",
         "types" : [ "street_address" ]
      },
      {
         "address_components" : [
            {
               "long_name" : "WVV6+92",
               "short_name" : "WVV6+92",
               "types" : [ "plus_code" ]
            },
            {
               "long_name" : "Altındağ",
               "short_name" : "Altındağ",
               "types" : [ "administrative_area_level_2", "political" ]
            },
            {
               "long_name" : "Ankara",
               "short_name" : "Ankara",
               "types" : [ "administrative_area_level_1", "political" ]
            },
            {
               "long_name" : "Turkey",
               "short_name" : "TR",
               "types" : [ "country", "political" ]
            }
         ],
         "formatted_address" : "WVV6+92 Altındağ/Ankara, Turkey",
         "geometry" : {
            "bounds" : {
               "northeast" : {
                  "lat" : 39.9435,
                  "lng" : 32.860125
               },
               "southwest" : {
                  "lat" : 39.943375,
                  "lng" : 32.86
               }
            },
            "location" : {
               "lat" : 39.9434365,
               "lng" : 32.8601074
            },
            "location_type" : "GEOMETRIC_CENTER",
            "viewport" : {
               "northeast" : {
                  "lat" : 39.9447864802915,
                  "lng" : 32.86141148029149
               },
               "southwest" : {
                  "lat" : 39.9420885197085,
                  "lng" : 32.85871351970849
               }
            }
         },
         "place_id" : "GhIJJa34hsL4Q0ARFwbR_xduQEA",
         "plus_code" : {
            "compound_code" : "WVV6+92 Altındağ/Ankara, Turkey",
            "global_code" : "8GFJWVV6+92"
         },
         "types" : [ "plus_code" ]
      },
      {
         "address_components" : [
            {
               "long_name" : "Yayık Sokak",
               "short_name" : "Yayık Sk.",
               "types" : [ "route" ]
            },
            {
               "long_name" : "Hacı Bayram",
               "short_name" : "Hacı Bayram",
               "types" : [ "administrative_area_level_4", "political" ]
            },
            {
               "long_name" : "Altındağ",
               "short_name" : "Altındağ",
               "types" : [ "administrative_area_level_2", "political" ]
            },
            {
               "long_name" : "Ankara",
               "short_name" : "Ankara",
               "types" : [ "administrative_area_level_1", "political" ]
            },
            {
               "long_name" : "Turkey",
               "short_name" : "TR",
               "types" : [ "country", "political" ]
            },
            {
               "long_name" : "06050",
               "short_name" : "06050",
               "types" : [ "postal_code" ]
            }
         ],
         "formatted_address" : "Hacı Bayram, Yayık Sk., 06050 Altındağ/Ankara, Turkey",
         "geometry" : {
            "bounds" : {
               "northeast" : {
                  "lat" : 39.9435524,
                  "lng" : 32.860401
               },
               "southwest" : {
                  "lat" : 39.9434961,
                  "lng" : 32.8596478
               }
            },
            "location" : {
               "lat" : 39.943541,
               "lng" : 32.860029
            },
            "location_type" : "GEOMETRIC_CENTER",
            "viewport" : {
               "northeast" : {
                  "lat" : 39.94487323029149,
                  "lng" : 32.8613733802915
               },
               "southwest" : {
                  "lat" : 39.94217526970849,
                  "lng" : 32.8586754197085
               }
            }
         },
         "place_id" : "ChIJ312eGmRO0xQR2NZEGvo5z1k",
         "types" : [ "route" ]
      },
      {
         "address_components" : [
            {
               "long_name" : "Hacı Bayram",
               "short_name" : "Hacı Bayram",
               "types" : [ "administrative_area_level_4", "political" ]
            },
            {
               "long_name" : "Altındağ",
               "short_name" : "Altındağ",
               "types" : [ "administrative_area_level_2", "political" ]
            },
            {
               "long_name" : "Ankara",
               "short_name" : "Ankara",
               "types" : [ "administrative_area_level_1", "political" ]
            },
            {
               "long_name" : "Turkey",
               "short_name" : "TR",
               "types" : [ "country", "political" ]
            },
            {
               "long_name" : "06050",
               "short_name" : "06050",
               "types" : [ "postal_code" ]
            }
         ],
         "formatted_address" : "Hacı Bayram, 06050 Altındağ/Ankara, Turkey",
         "geometry" : {
            "bounds" : {
               "northeast" : {
                  "lat" : 39.9510851,
                  "lng" : 32.8614529
               },
               "southwest" : {
                  "lat" : 39.941661,
                  "lng" : 32.854392
               }
            },
            "location" : {
               "lat" : 39.9447455,
               "lng" : 32.857805
            },
            "location_type" : "APPROXIMATE",
            "viewport" : {
               "northeast" : {
                  "lat" : 39.9510851,
                  "lng" : 32.8614529
               },
               "southwest" : {
                  "lat" : 39.941661,
                  "lng" : 32.854392
               }
            }
         },
         "place_id" : "ChIJubuTcmNO0xQRqv3atNtxKBY",
         "types" : [ "administrative_area_level_4", "political" ]
      },
      {
         "address_components" : [
            {
               "long_name" : "06050",
               "short_name" : "06050",
               "types" : [ "postal_code" ]
            },
            {
               "long_name" : "Hacı Bayram",
               "short_name" : "Hacı Bayram",
               "types" : [ "administrative_area_level_4", "political" ]
            },
            {
               "long_name" : "Altındağ",
               "short_name" : "Altındağ",
               "types" : [ "administrative_area_level_2", "political" ]
            },
            {
               "long_name" : "Ankara",
               "short_name" : "Ankara",
               "types" : [ "administrative_area_level_1", "political" ]
            },
            {
               "long_name" : "Turkey",
               "short_name" : "TR",
               "types" : [ "country", "political" ]
            }
         ],
         "formatted_address" : "Hacı Bayram, 06050 Altındağ/Ankara, Turkey",
         "geometry" : {
            "bounds" : {
               "northeast" : {
                  "lat" : 39.9510851,
                  "lng" : 32.8614529
               },
               "southwest" : {
                  "lat" : 39.941661,
                  "lng" : 32.854392
               }
            },
            "location" : {
               "lat" : 39.9447455,
               "lng" : 32.857805
            },
            "location_type" : "APPROXIMATE",
            "viewport" : {
               "northeast" : {
                  "lat" : 39.9510851,
                  "lng" : 32.8614529
               },
               "southwest" : {
                  "lat" : 39.941661,
                  "lng" : 32.854392
               }
            }
         },
         "place_id" : "ChIJubuTcmNO0xQR0ujXHRyuXFA",
         "types" : [ "postal_code" ]
      },
      {
         "address_components" : [
            {
               "long_name" : "Altındağ",
               "short_name" : "Altındağ",
               "types" : [ "administrative_area_level_2", "political" ]
            },
            {
               "long_name" : "Ankara",
               "short_name" : "Ankara",
               "types" : [ "administrative_area_level_1", "political" ]
            },
            {
               "long_name" : "Turkey",
               "short_name" : "TR",
               "types" : [ "country", "political" ]
            }
         ],
         "formatted_address" : "Altındağ/Ankara, Turkey",
         "geometry" : {
            "bounds" : {
               "northeast" : {
                  "lat" : 40.0570421,
                  "lng" : 33.1173301
               },
               "southwest" : {
                  "lat" : 39.928408,
                  "lng" : 32.8307209
               }
            },
            "location" : {
               "lat" : 40.0092683,
               "lng" : 32.9833371
            },
            "location_type" : "APPROXIMATE",
            "viewport" : {
               "northeast" : {
                  "lat" : 40.0570421,
                  "lng" : 33.1173301
               },
               "southwest" : {
                  "lat" : 39.928408,
                  "lng" : 32.8307209
               }
            }
         },
         "place_id" : "ChIJFViTEmgHgkARyu6AxEhAUYQ",
         "types" : [ "administrative_area_level_2", "political" ]
      },
      {
         "address_components" : [
            {
               "long_name" : "Ankara",
               "short_name" : "Ankara",
               "types" : [ "locality", "political" ]
            },
            {
               "long_name" : "Ankara",
               "short_name" : "Ankara",
               "types" : [ "administrative_area_level_1", "political" ]
            },
            {
               "long_name" : "Turkey",
               "short_name" : "TR",
               "types" : [ "country", "political" ]
            }
         ],
         "formatted_address" : "Ankara, Turkey",
         "geometry" : {
            "bounds" : {
               "northeast" : {
                  "lat" : 40.076332,
                  "lng" : 33.007056
               },
               "southwest" : {
                  "lat" : 39.7304211,
                  "lng" : 32.5184735
               }
            },
            "location" : {
               "lat" : 39.9333635,
               "lng" : 32.8597419
            },
            "location_type" : "APPROXIMATE",
            "viewport" : {
               "northeast" : {
                  "lat" : 40.076332,
                  "lng" : 33.007056
               },
               "southwest" : {
                  "lat" : 39.7304211,
                  "lng" : 32.5184735
               }
            }
         },
         "place_id" : "ChIJsS1zINVH0xQRjSuEwLBX3As",
         "types" : [ "locality", "political" ]
      },
      {
         "address_components" : [
            {
               "long_name" : "Ankara",
               "short_name" : "Ankara",
               "types" : [ "administrative_area_level_1", "political" ]
            },
            {
               "long_name" : "Turkey",
               "short_name" : "TR",
               "types" : [ "country", "political" ]
            }
         ],
         "formatted_address" : "Ankara, Turkey",
         "geometry" : {
            "bounds" : {
               "northeast" : {
                  "lat" : 40.756282,
                  "lng" : 33.871969
               },
               "southwest" : {
                  "lat" : 38.6699421,
                  "lng" : 30.8240371
               }
            },
            "location" : {
               "lat" : 39.7805245,
               "lng" : 32.7181375
            },
            "location_type" : "APPROXIMATE",
            "viewport" : {
               "northeast" : {
                  "lat" : 40.756282,
                  "lng" : 33.871969
               },
               "southwest" : {
                  "lat" : 38.6699421,
                  "lng" : 30.8240371
               }
            }
         },
         "place_id" : "ChIJ2UbubYMC0xQRePrg-9apYgY",
         "types" : [ "administrative_area_level_1", "political" ]
      },
      {
         "address_components" : [
            {
               "long_name" : "Turkey",
               "short_name" : "TR",
               "types" : [ "country", "political" ]
            }
         ],
         "formatted_address" : "Turkey",
         "geometry" : {
            "bounds" : {
               "northeast" : {
                  "lat" : 42.3666999,
                  "lng" : 44.8178449
               },
               "southwest" : {
                  "lat" : 35.808592,
                  "lng" : 25.5377
               }
            },
            "location" : {
               "lat" : 38.963745,
               "lng" : 35.243322
            },
            "location_type" : "APPROXIMATE",
            "viewport" : {
               "northeast" : {
                  "lat" : 42.3666999,
                  "lng" : 44.8178449
               },
               "southwest" : {
                  "lat" : 35.808592,
                  "lng" : 25.5377
               }
            }
         },
         "place_id" : "ChIJcSZPllwVsBQRKl9iKtTb2UA",
         "types" : [ "country", "political" ]
      }
   ],
   "status" : "OK"
}
