{
   "plus_code" : {
      "compound_code" : "JMV5+72 Karamürsel/Kocaeli, Turkey",
      "global_code" : "8GGFJMV5+72"
   },
   "results" : [
      {
         "address_components" : [
            {
               "long_name" : "JMV5+72",
               "short_name" : "JMV5+72",
               "types" : [ "plus_code" ]
            },
            {
               "long_name" : "Karamürsel",
               "short_name" : "Karamürsel",
               "types" : [ "administrative_area_level_2", "political" ]
            },
            {
               "long_name" : "Kocaeli",
               "short_name" : "Kocaeli",
               "types" : [ "administrative_area_level_1", "political" ]
            },
            {
               "long_name" : "Turkey",
               "short_name" : "TR",
               "types" : [ "country", "political" ]
            }
         ],
         "formatted_address" : "JMV5+72 Karamürsel/Kocaeli, Turkey",
         "geometry" : {
            "bounds" : {
               "northeast" : {
                  "lat" : 40.64325,
                  "lng" : 29.657625
               },
               "southwest" : {
                  "lat" : 40.643125,
                  "lng" : 29.6575
               }
            },
            "location" : {
               "lat" : 40.6431356,
               "lng" : 29.6575928
            },
            "location_type" : "GEOMETRIC_CENTER",
            "viewport" : {
               "northeast" : {
                  "lat" : 40.6445364802915,
                  "lng" : 29.6589114802915
               },
               "southwest" : {
                  "lat" : 40.6418385197085,
                  "lng" : 29.6562135197085
               }
            }
         },
         "place_id" : "GhIJWXJwRFJSREARyBVyAFioPUA",
         "plus_code" : {
            "compound_code" : "JMV5+72 Karamürsel/Kocaeli, Turkey",
            "global_code" : "8GGFJMV5+72"
         },
         "types" : [ "plus_code" ]
      },
      {
         "address_components" : [
            {
               "long_name" : "Suludere Köyü İç Yolu",
               "short_name" : "Suludere Köyü İç Yolu",
               "types" : [ "route" ]
            },
            {
               "long_name" : "Nusretiye",
               "short_name" : "Nusretiye",
               "types" : [ "administrative_area_level_4", "political" ]
            },
            {
               "long_name" : "Karamürsel",
               "short_name" : "Karamürsel",
               "types" : [ "administrative_area_level_2", "political" ]
            },
            {
               "long_name" : "Kocaeli",
               "short_name" : "Kocaeli",
               "types" : [ "administrative_area_level_1", "political" ]
            },
            {
               "long_name" : "Turkey",
               "short_name" : "TR",
               "types" : [ "country", "political" ]
            },
            {
               "long_name" : "41500",
               "short_name" : "41500",
               "types" : [ "postal_code" ]
            }
         ],
         "formatted_address" : "Nusretiye, Suludere Köyü İç Yolu, 41500 Karamürsel/Kocaeli, Turkey",
         "geometry" : {
            "bounds" : {
               "northeast" : {
                  "lat" : 40.6440479,
                  "lng" : 29.6500545
               },
               "southwest" : {
                  "lat" : 40.64399359999999,
                  "lng" : 29.6496643
               }
            },
            "location" : {
               "lat" : 40.6440208,
               "lng" : 29.6498594
            },
            "location_type" : "GEOMETRIC_CENTER",
            "viewport" : {
               "northeast" : {
                  "lat" : 40.64536973029149,
                  "lng" : 29.6512083802915
               },
               "southwest" : {
                  "lat" : 40.64267176970849,
                  "lng" : 29.6485104197085
               }
            }
         },
         "place_id" : "ChIJPfawIB4XyxQRlAQVGBpvvgE",
         "types" : [ "route" ]
      },
      {
         "address_components" : [
            {
               "long_name" : "22",
               "short_name" : "22",
               "types" : [ "street_number" ]
            },
            {
               "long_name" : "Nusretiye Köyü İç Yolu",
               "short_name" : "Nusretiye Köyü İç Yolu",
               "types" : [ "route" ]
            },
            {
               "long_name" : "Nusretiye",
               "short_name" : "Nusretiye",
               "types" : [ "administrative_area_level_4", "political" ]
            },
            {
               "long_name" : "Karamürsel",
               "short_name" : "Karamürsel",
               "types" : [ "administrative_area_level_2", "political" ]
            },
            {
               "long_name" : "Kocaeli",
               "short_name" : "Kocaeli",
               "types" : [ "administrative_area_level_1", "political" ]
            },
            {
               "long_name" : "Turkey",
               "short_name" : "TR",
               "types" : [ "country", "political" ]
            },
            {
               "long_name" : "41500",
               "short_name" : "41500",
               "types" : [ "postal_code" ]
            }
         ],
         "formatted_address" : "Nusretiye, Nusretiye Köyü İç Yolu No:22, 41500 Karamürsel/Kocaeli, Turkey",
         "geometry" : {
            "location" : {
               "lat" : 40.6571091,
               "lng" : 29.6569004
            },
            "location_type" : "RANGE_INTERPOLATED",
            "viewport" : {
               "northeast" : {
                  "lat" : 40.6584580802915,
                  "lng" : 29.6582493802915
               },
               "southwest" : {
                  "lat" : 40.6557601197085,
                  "lng" : 29.6555514197085
               }
            }
         },
         "place_id" : "Ek5OdXNyZXRpeWUsIE51c3JldGl5ZSBLw7Z5w7wgxLDDpyBZb2x1IE5vOjIyLCA0MTUwMCBLYXJhbcO8cnNlbC9Lb2NhZWxpLCBUdXJrZXkiGhIYChQKEgmDdYwgVhbLFBHOCd2RKUTSmhAW",
         "types" : [ "street_address" ]
      },
      {
         "address_components" : [
            {
               "long_name" : "Nusretiye",
               "short_name" : "Nusretiye",
               "types" : [ "administrative_area_level_4", "political" ]
            },
            {
               "long_name" : "Karamürsel",
               "short_name" : "Karamürsel",
               "types" : [ "administrative_area_level_2", "political" ]
            },
            {
               "long_name" : "Kocaeli",
               "short_name" : "Kocaeli",
               "types" : [ "administrative_area_level_1", "political" ]
            },
            {
               "long_name" : "Turkey",
               "short_name" : "TR",
               "types" : [ "country", "political" ]
            },
            {
               "long_name" : "41500",
               "short_name" : "41500",
               "types" : [ "postal_code" ]
            }
         ],
         "formatted_address" : "Nusretiye, 41500 Karamürsel/Kocaeli, Turkey",
         "geometry" : {
            "bounds" : {
               "northeast" : {
                  "lat" : 40.6755,
                  "lng" : 29.688136
               },
               "southwest" : {
                  "lat" : 40.6406909,
                  "lng" : 29.64299
               }
            },
            "location" : {
               "lat" : 40.659108,
               "lng" : 29.6672998
            },
            "location_type" : "APPROXIMATE",
            "viewport" : {
               "northeast" : {
                  "lat" : 40.6755,
                  "lng" : 29.688136
               },
               "southwest" : {
                  "lat" : 40.6406909,
                  "lng" : 29.64299
               }
            }
         },
         "place_id" : "ChIJuXUtdlUWyxQRQBaOsEtSXjI",
         "types" : [ "administrative_area_level_4", "political" ]
      },
      {
         "address_components" : [
            {
               "long_name" : "41500",
               "short_name" : "41500",
               "types" : [ "postal_code" ]
            },
            {
               "long_name" : "Nusretiye",
               "short_name" : "Nusretiye",
               "types" : [ "administrative_area_level_4", "political" ]
            },
            {
               "long_name" : "Karamürsel",
               "short_name" : "Karamürsel",
               "types" : [ "administrative_area_level_2", "political" ]
            },
            {
               "long_name" : "Kocaeli",
               "short_name" : "Kocaeli",
               "types" : [ "administrative_area_level_1", "political" ]
            },
            {
               "long_name" : "Turkey",
               "short_name" : "TR",
               "types" : [ "country", "political" ]
            }
         ],
         "formatted_address" : "Nusretiye, 41500 Karamürsel/Kocaeli, Turkey",
         "geometry" : {
            "bounds" : {
               "northeast" : {
                  "lat" : 40.6755,
                  "lng" : 29.688136
               },
               "southwest" : {
                  "lat" : 40.6406909,
                  "lng" : 29.64299
               }
            },
            "location" : {
               "lat" : 40.659108,
               "lng" : 29.6672998
            },
            "location_type" : "APPROXIMATE",
            "viewport" : {
               "northeast" : {
                  "lat" : 40.6755,
                  "lng" : 29.688136
               },
               "southwest" : {
                  "lat" : 40.6406909,
                  "lng" : 29.64299
               }
            }
         },
         "place_id" : "ChIJOT68FlkWyxQRMD1bYYGB_fw",
         "types" : [ "postal_code" ]
      },
      {
         "address_components" : [
            {
               "long_name" : "Karamürsel",
               "short_name" : "Karamürsel",
               "types" : [ "administrative_area_level_2", "political" ]
            },
            {
               "long_name" : "Kocaeli",
               "short_name" : "Kocaeli",
               "types" : [ "administrative_area_level_1", "political" ]
            },
            {
               "long_name" : "Turkey",
               "short_name" : "TR",
               "types" : [ "country", "political" ]
            }
         ],
         "formatted_address" : "Karamürsel/Kocaeli, Turkey",
         "geometry" : {
            "bounds" : {
               "northeast" : {
                  "lat" : 40.70541600000001,
                  "lng" : 29.719954
               },
               "southwest" : {
                  "lat" : 40.521065,
                  "lng" : 29.4814689
               }
            },
            "location" : {
               "lat" : 40.6231487,
               "lng" : 29.5803605
            },
            "location_type" : "APPROXIMATE",
            "viewport" : {
               "northeast" : {
                  "lat" : 40.70541600000001,
                  "lng" : 29.719954
               },
               "southwest" : {
                  "lat" : 40.521065,
                  "lng" : 29.4814689
               }
            }
         },
         "place_id" : "ChIJo8NveacQyxQREPcd5HrpfSk",
         "types" : [ "administrative_area_level_2", "political" ]
      },
      {
         "address_components" : [
            {
               "long_name" : "Kocaeli",
               "short_name" : "Kocaeli",
               "types" : [ "administrative_area_level_1", "political" ]
            },
            {
               "long_name" : "Turkey",
               "short_name" : "TR",
               "types" : [ "country", "political" ]
            }
         ],
         "formatted_address" : "Kocaeli, Turkey",
         "geometry" : {
            "bounds" : {
               "northeast" : {
                  "lat" : 41.20976,
                  "lng" : 30.367743
               },
               "southwest" : {
                  "lat" : 40.524151,
                  "lng" : 29.3331261
               }
            },
            "location" : {
               "lat" : 40.8532704,
               "lng" : 29.8815203
            },
            "location_type" : "APPROXIMATE",
            "viewport" : {
               "northeast" : {
                  "lat" : 41.20976,
                  "lng" : 30.367743
               },
               "southwest" : {
                  "lat" : 40.524151,
                  "lng" : 29.3331261
               }
            }
         },
         "place_id" : "ChIJQ8zKb5QgyxQRWdhW642zLKg",
         "types" : [ "administrative_area_level_1", "political" ]
      },
      {
         "address_components" : [
            {
               "long_name" : "Turkey",
               "short_name" : "TR",
               "types" : [ "country", "political" ]
            }
         ],
         "formatted_address" : "Turkey",
         "geometry" : {
            "bounds" : {
               "northeast" : {
                  "lat" : 42.3666999,
                  "lng" : 44.8178449
               },
               "southwest" : {
                  "lat" : 35.808592,
                  "lng" : 25.5377
               }
            },
            "location" : {
               "lat" : 38.963745,
               "lng" : 35.243322
            },
            "location_type" : "APPROXIMATE",
            "viewport" : {
               "northeast" : {
                  "lat" : 42.3666999,
                  "lng" : 44.8178449
               },
               "southwest" : {
                  "lat" : 35.808592,
                  "lng" : 25.5377
               }
            }
         },
         "place_id" : "ChIJcSZPllwVsBQRKl9iKtTb2UA",
         "types" : [ "country", "political" ]
      }
   ],
   "status" : "OK"
}
