{
   "plus_code" : {
      "compound_code" : "2X7J+6QF Fatih/İstanbul, Turkey",
      "global_code" : "8GHC2X7J+6QF"
   },
   "results" : [
      {
         "address_components" : [
            {
               "long_name" : "Gülhane Park",
               "short_name" : "Gülhane Park",
               "types" : [ "establishment", "park", "point_of_interest", "tourist_attraction" ]
            },
            {
               "long_name" : "Kennedy Caddesi",
               "short_name" : "Kennedy Cd.",
               "types" : [ "route" ]
            },
            {
               "long_name" : "Cankurtaran",
               "short_name" : "Cankurtaran",
               "types" : [ "administrative_area_level_4", "political" ]
            },
            {
               "long_name" : "Fatih",
               "short_name" : "Fatih",
               "types" : [ "administrative_area_level_2", "political" ]
            },
            {
               "long_name" : "İstanbul",
               "short_name" : "İstanbul",
               "types" : [ "administrative_area_level_1", "political" ]
            },
            {
               "long_name" : "Turkey",
               "short_name" : "TR",
               "types" : [ "country", "political" ]
            },
            {
               "long_name" : "34122",
               "short_name" : "34122",
               "types" : [ "postal_code" ]
            }
         ],
         "formatted_address" : "Cankurtaran, Gülhane Park, Kennedy Cd., 34122 Fatih/İstanbul, Turkey",
         "geometry" : {
            "location" : {
               "lat" : 41.0133079,
               "lng" : 28.9815101
            },
            "location_type" : "GEOMETRIC_CENTER",
            "viewport" : {
               "northeast" : {
                  "lat" : 41.0146568802915,
                  "lng" : 28.9828590802915
               },
               "southwest" : {
                  "lat" : 41.0119589197085,
                  "lng" : 28.9801611197085
               }
            }
         },
         "place_id" : "ChIJK9q8Nce5yhQRy0am325qXgY",
         "plus_code" : {
            "compound_code" : "2X7J+8J Fatih/İstanbul, Turkey",
            "global_code" : "8GHC2X7J+8J"
         },
         "types" : [ "establishment", "park", "point_of_interest", "tourist_attraction" ]
      },
      {
         "address_components" : [
            {
               "long_name" : "2X7J+6Q",
               "short_name" : "2X7J+6Q",
               "types" : [ "plus_code" ]
            },
            {
               "long_name" : "Fatih",
               "short_name" : "Fatih",
               "types" : [ "administrative_area_level_2", "political" ]
            },
            {
               "long_name" : "İstanbul",
               "short_name" : "İstanbul",
               "types" : [ "administrative_area_level_1", "political" ]
            },
            {
               "long_name" : "Turkey",
               "short_name" : "TR",
               "types" : [ "country", "political" ]
            }
         ],
         "formatted_address" : "2X7J+6Q Fatih/İstanbul, Turkey",
         "geometry" : {
            "bounds" : {
               "northeast" : {
                  "lat" : 41.013125,
                  "lng" : 28.982
               },
               "southwest" : {
                  "lat" : 41.013,
                  "lng" : 28.981875
               }
            },
            "location" : {
               "lat" : 41.0130658,
               "lng" : 28.9819336
            },
            "location_type" : "GEOMETRIC_CENTER",
            "viewport" : {
               "northeast" : {
                  "lat" : 41.0144114802915,
                  "lng" : 28.9832864802915
               },
               "southwest" : {
                  "lat" : 41.0117135197085,
                  "lng" : 28.9805885197085
               }
            }
         },
         "place_id" : "GhIJGdnfI6yBREAR89caAGD7PEA",
         "plus_code" : {
            "compound_code" : "2X7J+6Q Fatih/İstanbul, Turkey",
            "global_code" : "8GHC2X7J+6Q"
         },
         "types" : [ "plus_code" ]
      },
      {
         "address_components" : [
            {
               "long_name" : "Park İçi Yolu",
               "short_name" : "Park İçi Yolu",
               "types" : [ "route" ]
            },
            {
               "long_name" : "Cankurtaran",
               "short_name" : "Cankurtaran",
               "types" : [ "administrative_area_level_4", "political" ]
            },
            {
               "long_name" : "Fatih",
               "short_name" : "Fatih",
               "types" : [ "administrative_area_level_2", "political" ]
            },
            {
               "long_name" : "İstanbul",
               "short_name" : "İstanbul",
               "types" : [ "administrative_area_level_1", "political" ]
            },
            {
               "long_name" : "Turkey",
               "short_name" : "TR",
               "types" : [ "country", "political" ]
            },
            {
               "long_name" : "34122",
               "short_name" : "34122",
               "types" : [ "postal_code" ]
            }
         ],
         "formatted_address" : "Cankurtaran, Park İçi Yolu, 34122 Fatih/İstanbul, Turkey",
         "geometry" : {
            "bounds" : {
               "northeast" : {
                  "lat" : 41.0134249,
                  "lng" : 28.9825541
               },
               "southwest" : {
                  "lat" : 41.0127549,
                  "lng" : 28.9814754
               }
            },
            "location" : {
               "lat" : 41.0130207,
               "lng" : 28.9820891
            },
            "location_type" : "GEOMETRIC_CENTER",
            "viewport" : {
               "northeast" : {
                  "lat" : 41.0144388802915,
                  "lng" : 28.9833637302915
               },
               "southwest" : {
                  "lat" : 41.0117409197085,
                  "lng" : 28.9806657697085
               }
            }
         },
         "place_id" : "ChIJG4RVMce5yhQR5Py3OQ1kPJc",
         "types" : [ "route" ]
      },
      {
         "address_components" : [
            {
               "long_name" : "Cankurtaran",
               "short_name" : "Cankurtaran",
               "types" : [ "administrative_area_level_4", "political" ]
            },
            {
               "long_name" : "Fatih",
               "short_name" : "Fatih",
               "types" : [ "administrative_area_level_2", "political" ]
            },
            {
               "long_name" : "İstanbul",
               "short_name" : "İstanbul",
               "types" : [ "administrative_area_level_1", "political" ]
            },
            {
               "long_name" : "Turkey",
               "short_name" : "TR",
               "types" : [ "country", "political" ]
            },
            {
               "long_name" : "34122",
               "short_name" : "34122",
               "types" : [ "postal_code" ]
            }
         ],
         "formatted_address" : "Cankurtaran, 34122 Fatih/İstanbul, Turkey",
         "geometry" : {
            "bounds" : {
               "northeast" : {
                  "lat" : 41.017558,
                  "lng" : 28.9880719
               },
               "southwest" : {
                  "lat" : 41.0032692,
                  "lng" : 28.977074
               }
            },
            "location" : {
               "lat" : 41.0103672,
               "lng" : 28.9834284
            },
            "location_type" : "APPROXIMATE",
            "viewport" : {
               "northeast" : {
                  "lat" : 41.017558,
                  "lng" : 28.9880719
               },
               "southwest" : {
                  "lat" : 41.0032692,
                  "lng" : 28.977074
               }
            }
         },
         "place_id" : "ChIJoyjoyLi5yhQR4IJ_lAftkPM",
         "types" : [ "administrative_area_level_4", "political" ]
      },
      {
         "address_components" : [
            {
               "long_name" : "34122",
               "short_name" : "34122",
               "types" : [ "postal_code" ]
            },
            {
               "long_name" : "Cankurtaran",
               "short_name" : "Cankurtaran",
               "types" : [ "administrative_area_level_4", "political" ]
            },
            {
               "long_name" : "Fatih",
               "short_name" : "Fatih",
               "types" : [ "administrative_area_level_2", "political" ]
            },
            {
               "long_name" : "İstanbul",
               "short_name" : "İstanbul",
               "types" : [ "administrative_area_level_1", "political" ]
            },
            {
               "long_name" : "Turkey",
               "short_name" : "TR",
               "types" : [ "country", "political" ]
            }
         ],
         "formatted_address" : "Cankurtaran, 34122 Fatih/İstanbul, Turkey",
         "geometry" : {
            "bounds" : {
               "northeast" : {
                  "lat" : 41.017558,
                  "lng" : 28.9880719
               },
               "southwest" : {
                  "lat" : 41.003213,
                  "lng" : 28.977074
               }
            },
            "location" : {
               "lat" : 41.0103672,
               "lng" : 28.9834284
            },
            "location_type" : "APPROXIMATE",
            "viewport" : {
               "northeast" : {
                  "lat" : 41.017558,
                  "lng" : 28.9880719
               },
               "southwest" : {
                  "lat" : 41.003213,
                  "lng" : 28.977074
               }
            }
         },
         "place_id" : "ChIJZeITq5C5yhQRSp376FJW8ro",
         "types" : [ "postal_code" ]
      },
      {
         "address_components" : [
            {
               "long_name" : "Fatih",
               "short_name" : "Fatih",
               "types" : [ "administrative_area_level_2", "political" ]
            },
            {
               "long_name" : "İstanbul",
               "short_name" : "İstanbul",
               "types" : [ "administrative_area_level_1", "political" ]
            },
            {
               "long_name" : "Turkey",
               "short_name" : "TR",
               "types" : [ "country", "political" ]
            }
         ],
         "formatted_address" : "Fatih/İstanbul, Turkey",
         "geometry" : {
            "bounds" : {
               "northeast" : {
                  "lat" : 41.040882,
                  "lng" : 28.9880719
               },
               "southwest" : {
                  "lat" : 40.987637,
                  "lng" : 28.919171
               }
            },
            "location" : {
               "lat" : 41.0168639,
               "lng" : 28.9470422
            },
            "location_type" : "APPROXIMATE",
            "viewport" : {
               "northeast" : {
                  "lat" : 41.040882,
                  "lng" : 28.9880719
               },
               "southwest" : {
                  "lat" : 40.987637,
                  "lng" : 28.919171
               }
            }
         },
         "place_id" : "ChIJmeP65Ym5yhQR4CKL7X6E8DQ",
         "types" : [ "administrative_area_level_2", "political" ]
      },
      {
         "address_components" : [
            {
               "long_name" : "European Side",
               "short_name" : "European Side",
               "types" : [ "neighborhood", "political" ]
            },
            {
               "long_name" : "İstanbul",
               "short_name" : "İstanbul",
               "types" : [ "administrative_area_level_1", "political" ]
            },
            {
               "long_name" : "Turkey",
               "short_name" : "TR",
               "types" : [ "country", "political" ]
            }
         ],
         "formatted_address" : "European Side, İstanbul, Turkey",
         "geometry" : {
            "bounds" : {
               "northeast" : {
                  "lat" : 41.199239,
                  "lng" : 29.077487
               },
               "southwest" : {
                  "lat" : 40.954508,
                  "lng" : 28.595554
               }
            },
            "location" : {
               "lat" : 41.0286909,
               "lng" : 28.92404269999999
            },
            "location_type" : "APPROXIMATE",
            "viewport" : {
               "northeast" : {
                  "lat" : 41.199239,
                  "lng" : 29.077487
               },
               "southwest" : {
                  "lat" : 40.954508,
                  "lng" : 28.595554
               }
            }
         },
         "place_id" : "ChIJhTq6hpGkyhQRC5OjsPQ0MVY",
         "types" : [ "neighborhood", "political" ]
      },
      {
         "address_components" : [
            {
               "long_name" : "İstanbul",
               "short_name" : "İstanbul",
               "types" : [ "locality", "political" ]
            },
            {
               "long_name" : "İstanbul",
               "short_name" : "İstanbul",
               "types" : [ "administrative_area_level_1", "political" ]
            },
            {
               "long_name" : "Turkey",
               "short_name" : "TR",
               "types" : [ "country", "political" ]
            }
         ],
         "formatted_address" : "İstanbul, Turkey",
         "geometry" : {
            "bounds" : {
               "northeast" : {
                  "lat" : 41.199239,
                  "lng" : 29.4288049
               },
               "southwest" : {
                  "lat" : 40.811404,
                  "lng" : 28.595554
               }
            },
            "location" : {
               "lat" : 41.0082376,
               "lng" : 28.9783589
            },
            "location_type" : "APPROXIMATE",
            "viewport" : {
               "northeast" : {
                  "lat" : 41.199239,
                  "lng" : 29.4288049
               },
               "southwest" : {
                  "lat" : 40.811404,
                  "lng" : 28.595554
               }
            }
         },
         "place_id" : "ChIJawhoAASnyhQR0LABvJj-zOE",
         "types" : [ "locality", "political" ]
      },
      {
         "address_components" : [
            {
               "long_name" : "İstanbul",
               "short_name" : "İstanbul",
               "types" : [ "administrative_area_level_1", "political" ]
            },
            {
               "long_name" : "Turkey",
               "short_name" : "TR",
               "types" : [ "country", "political" ]
            }
         ],
         "formatted_address" : "İstanbul, Turkey",
         "geometry" : {
            "bounds" : {
               "northeast" : {
                  "lat" : 41.58461,
                  "lng" : 29.915705
               },
               "southwest" : {
                  "lat" : 40.8026889,
                  "lng" : 27.971373
               }
            },
            "location" : {
               "lat" : 41.1634302,
               "lng" : 28.7664408
            },
            "location_type" : "APPROXIMATE",
            "viewport" : {
               "northeast" : {
                  "lat" : 41.58461,
                  "lng" : 29.915705
               },
               "southwest" : {
                  "lat" : 40.8026889,
                  "lng" : 27.971373
               }
            }
         },
         "place_id" : "ChIJexVgWlG2yhQR6B1akfSarCI",
         "types" : [ "administrative_area_level_1", "political" ]
      },
      {
         "address_components" : [
            {
               "long_name" : "Turkey",
               "short_name" : "TR",
               "types" : [ "country", "political" ]
            }
         ],
         "formatted_address" : "Turkey",
         "geometry" : {
            "bounds" : {
               "northeast" : {
                  "lat" : 42.3666999,
                  "lng" : 44.8178449
               },
               "southwest" : {
                  "lat" : 35.808592,
                  "lng" : 25.5377
               }
            },
            "location" : {
               "lat" : 38.963745,
               "lng" : 35.243322
            },
            "location_type" : "APPROXIMATE",
            "viewport" : {
               "northeast" : {
                  "lat" : 42.3666999,
                  "lng" : 44.8178449
               },
               "southwest" : {
                  "lat" : 35.808592,
                  "lng" : 25.5377
               }
            }
         },
         "place_id" : "ChIJcSZPllwVsBQRKl9iKtTb2UA",
         "types" : [ "country", "political" ]
      }
   ],
   "status" : "OK"
}
