{
   "plus_code" : {
      "compound_code" : "P2V5+XM Kartepe/Kocaeli, Turkey",
      "global_code" : "8GGGP2V5+XM"
   },
   "results" : [
      {
         "address_components" : [
            {
               "long_name" : "49",
               "short_name" : "49",
               "types" : [ "street_number" ]
            },
            {
               "long_name" : "Fevzi Çakmak Caddesi",
               "short_name" : "Fevzi Çakmak Cd.",
               "types" : [ "route" ]
            },
            {
               "long_name" : "Çayırköy",
               "short_name" : "Çayırköy",
               "types" : [ "administrative_area_level_4", "political" ]
            },
            {
               "long_name" : "Kartepe",
               "short_name" : "Kartepe",
               "types" : [ "administrative_area_level_2", "political" ]
            },
            {
               "long_name" : "Kocaeli",
               "short_name" : "Kocaeli",
               "types" : [ "administrative_area_level_1", "political" ]
            },
            {
               "long_name" : "Turkey",
               "short_name" : "TR",
               "types" : [ "country", "political" ]
            },
            {
               "long_name" : "41250",
               "short_name" : "41250",
               "types" : [ "postal_code" ]
            }
         ],
         "formatted_address" : "Çayırköy, Fevzi Çakmak Cd. No:49, 41250 Kartepe/Kocaeli, Turkey",
         "geometry" : {
            "location" : {
               "lat" : 40.7444675,
               "lng" : 30.0099132
            },
            "location_type" : "ROOFTOP",
            "viewport" : {
               "northeast" : {
                  "lat" : 40.7458164802915,
                  "lng" : 30.0112621802915
               },
               "southwest" : {
                  "lat" : 40.7431185197085,
                  "lng" : 30.0085642197085
               }
            }
         },
         "place_id" : "ChIJi0SUOXhQyxQRCulzDXzMBZs",
         "plus_code" : {
            "compound_code" : "P2V5+QX Kartepe/Kocaeli, Turkey",
            "global_code" : "8GGGP2V5+QX"
         },
         "types" : [ "street_address" ]
      },
      {
         "address_components" : [
            {
               "long_name" : "P2V5+XM",
               "short_name" : "P2V5+XM",
               "types" : [ "plus_code" ]
            },
            {
               "long_name" : "Kartepe",
               "short_name" : "Kartepe",
               "types" : [ "administrative_area_level_2", "political" ]
            },
            {
               "long_name" : "Kocaeli",
               "short_name" : "Kocaeli",
               "types" : [ "administrative_area_level_1", "political" ]
            },
            {
               "long_name" : "Turkey",
               "short_name" : "TR",
               "types" : [ "country", "political" ]
            }
         ],
         "formatted_address" : "P2V5+XM Kartepe/Kocaeli, Turkey",
         "geometry" : {
            "bounds" : {
               "northeast" : {
                  "lat" : 40.745,
                  "lng" : 30.00924999999999
               },
               "southwest" : {
                  "lat" : 40.744875,
                  "lng" : 30.009125
               }
            },
            "location" : {
               "lat" : 40.744916,
               "lng" : 30.0091553
            },
            "location_type" : "GEOMETRIC_CENTER",
            "viewport" : {
               "northeast" : {
                  "lat" : 40.7462864802915,
                  "lng" : 30.0105364802915
               },
               "southwest" : {
                  "lat" : 40.7435885197085,
                  "lng" : 30.0078385197085
               }
            }
         },
         "place_id" : "GhIJMSJRaFlfREARyBVyAFgCPkA",
         "plus_code" : {
            "compound_code" : "P2V5+XM Kartepe/Kocaeli, Turkey",
            "global_code" : "8GGGP2V5+XM"
         },
         "types" : [ "plus_code" ]
      },
      {
         "address_components" : [
            {
               "long_name" : "56",
               "short_name" : "56",
               "types" : [ "street_number" ]
            },
            {
               "long_name" : "Fevzi Çakmak Caddesi",
               "short_name" : "Fevzi Çakmak Cd.",
               "types" : [ "route" ]
            },
            {
               "long_name" : "Çayırköy",
               "short_name" : "Çayırköy",
               "types" : [ "administrative_area_level_4", "political" ]
            },
            {
               "long_name" : "Kartepe",
               "short_name" : "Kartepe",
               "types" : [ "administrative_area_level_2", "political" ]
            },
            {
               "long_name" : "Kocaeli",
               "short_name" : "Kocaeli",
               "types" : [ "administrative_area_level_1", "political" ]
            },
            {
               "long_name" : "Turkey",
               "short_name" : "TR",
               "types" : [ "country", "political" ]
            },
            {
               "long_name" : "41250",
               "short_name" : "41250",
               "types" : [ "postal_code" ]
            }
         ],
         "formatted_address" : "Çayırköy, Fevzi Çakmak Cd. No:56, 41250 Kartepe/Kocaeli, Turkey",
         "geometry" : {
            "location" : {
               "lat" : 40.7444449,
               "lng" : 30.0099696
            },
            "location_type" : "RANGE_INTERPOLATED",
            "viewport" : {
               "northeast" : {
                  "lat" : 40.7457938802915,
                  "lng" : 30.0113185802915
               },
               "southwest" : {
                  "lat" : 40.7430959197085,
                  "lng" : 30.0086206197085
               }
            }
         },
         "place_id" : "EkPDh2F5xLFya8O2eSwgRmV2emkgw4dha21hayBDZC4gTm86NTYsIDQxMjUwIEthcnRlcGUvS29jYWVsaSwgVHVya2V5IhoSGAoUChIJ2d10OXhQyxQRVFHkS6h36qMQOA",
         "types" : [ "street_address" ]
      },
      {
         "address_components" : [
            {
               "long_name" : "44-56",
               "short_name" : "44-56",
               "types" : [ "street_number" ]
            },
            {
               "long_name" : "Fevzi Çakmak Caddesi",
               "short_name" : "Fevzi Çakmak Cd.",
               "types" : [ "route" ]
            },
            {
               "long_name" : "Çayırköy",
               "short_name" : "Çayırköy",
               "types" : [ "administrative_area_level_4", "political" ]
            },
            {
               "long_name" : "Kartepe",
               "short_name" : "Kartepe",
               "types" : [ "administrative_area_level_2", "political" ]
            },
            {
               "long_name" : "Kocaeli",
               "short_name" : "Kocaeli",
               "types" : [ "administrative_area_level_1", "political" ]
            },
            {
               "long_name" : "Turkey",
               "short_name" : "TR",
               "types" : [ "country", "political" ]
            },
            {
               "long_name" : "41250",
               "short_name" : "41250",
               "types" : [ "postal_code" ]
            }
         ],
         "formatted_address" : "Çayırköy, Fevzi Çakmak Cd. 44-56, 41250 Kartepe/Kocaeli, Turkey",
         "geometry" : {
            "bounds" : {
               "northeast" : {
                  "lat" : 40.7444668,
                  "lng" : 30.0099997
               },
               "southwest" : {
                  "lat" : 40.7436498,
                  "lng" : 30.0088759
               }
            },
            "location" : {
               "lat" : 40.7440583,
               "lng" : 30.0094378
            },
            "location_type" : "GEOMETRIC_CENTER",
            "viewport" : {
               "northeast" : {
                  "lat" : 40.7454072802915,
                  "lng" : 30.0107867802915
               },
               "southwest" : {
                  "lat" : 40.7427093197085,
                  "lng" : 30.0080888197085
               }
            }
         },
         "place_id" : "ChIJ2d10OXhQyxQRVFHkS6h36qM",
         "types" : [ "route" ]
      },
      {
         "address_components" : [
            {
               "long_name" : "41250",
               "short_name" : "41250",
               "types" : [ "postal_code" ]
            },
            {
               "long_name" : "Köseköy",
               "short_name" : "Köseköy",
               "types" : [ "administrative_area_level_4", "political" ]
            },
            {
               "long_name" : "Kartepe",
               "short_name" : "Kartepe",
               "types" : [ "administrative_area_level_2", "political" ]
            },
            {
               "long_name" : "Kocaeli",
               "short_name" : "Kocaeli",
               "types" : [ "administrative_area_level_1", "political" ]
            },
            {
               "long_name" : "Turkey",
               "short_name" : "TR",
               "types" : [ "country", "political" ]
            }
         ],
         "formatted_address" : "Köseköy, 41250 Kartepe/Kocaeli, Turkey",
         "geometry" : {
            "bounds" : {
               "northeast" : {
                  "lat" : 40.7585989,
                  "lng" : 30.016236
               },
               "southwest" : {
                  "lat" : 40.7278969,
                  "lng" : 29.9860989
               }
            },
            "location" : {
               "lat" : 40.7400611,
               "lng" : 30.0029572
            },
            "location_type" : "APPROXIMATE",
            "viewport" : {
               "northeast" : {
                  "lat" : 40.7585989,
                  "lng" : 30.016236
               },
               "southwest" : {
                  "lat" : 40.7278969,
                  "lng" : 29.9860989
               }
            }
         },
         "place_id" : "ChIJF8p0XJ5ayxQRybjheIOEOKc",
         "types" : [ "postal_code" ]
      },
      {
         "address_components" : [
            {
               "long_name" : "Köseköy",
               "short_name" : "Köseköy",
               "types" : [ "administrative_area_level_4", "political" ]
            },
            {
               "long_name" : "Kartepe",
               "short_name" : "Kartepe",
               "types" : [ "administrative_area_level_2", "political" ]
            },
            {
               "long_name" : "Kocaeli",
               "short_name" : "Kocaeli",
               "types" : [ "administrative_area_level_1", "political" ]
            },
            {
               "long_name" : "Turkey",
               "short_name" : "TR",
               "types" : [ "country", "political" ]
            }
         ],
         "formatted_address" : "Köseköy, Kartepe/Kocaeli, Turkey",
         "geometry" : {
            "bounds" : {
               "northeast" : {
                  "lat" : 40.7585989,
                  "lng" : 30.016236
               },
               "southwest" : {
                  "lat" : 40.7278969,
                  "lng" : 29.9860989
               }
            },
            "location" : {
               "lat" : 40.7400611,
               "lng" : 30.0029572
            },
            "location_type" : "APPROXIMATE",
            "viewport" : {
               "northeast" : {
                  "lat" : 40.7585989,
                  "lng" : 30.016236
               },
               "southwest" : {
                  "lat" : 40.7278969,
                  "lng" : 29.9860989
               }
            }
         },
         "place_id" : "ChIJF8p0XJ5ayxQRFXcaxT1Tv9A",
         "types" : [ "administrative_area_level_4", "political" ]
      },
      {
         "address_components" : [
            {
               "long_name" : "Kartepe",
               "short_name" : "Kartepe",
               "types" : [ "administrative_area_level_2", "political" ]
            },
            {
               "long_name" : "Kocaeli",
               "short_name" : "Kocaeli",
               "types" : [ "administrative_area_level_1", "political" ]
            },
            {
               "long_name" : "Turkey",
               "short_name" : "TR",
               "types" : [ "country", "political" ]
            }
         ],
         "formatted_address" : "Kartepe/Kocaeli, Turkey",
         "geometry" : {
            "bounds" : {
               "northeast" : {
                  "lat" : 40.786927,
                  "lng" : 30.26217
               },
               "southwest" : {
                  "lat" : 40.588952,
                  "lng" : 29.9860989
               }
            },
            "location" : {
               "lat" : 40.70139169999999,
               "lng" : 30.0896313
            },
            "location_type" : "APPROXIMATE",
            "viewport" : {
               "northeast" : {
                  "lat" : 40.786927,
                  "lng" : 30.26217
               },
               "southwest" : {
                  "lat" : 40.588952,
                  "lng" : 29.9860989
               }
            }
         },
         "place_id" : "ChIJY9NMDlFYyxQRxGvcZ6xs_aY",
         "types" : [ "administrative_area_level_2", "political" ]
      },
      {
         "address_components" : [
            {
               "long_name" : "Kocaeli",
               "short_name" : "Kocaeli",
               "types" : [ "administrative_area_level_1", "political" ]
            },
            {
               "long_name" : "Turkey",
               "short_name" : "TR",
               "types" : [ "country", "political" ]
            }
         ],
         "formatted_address" : "Kocaeli, Turkey",
         "geometry" : {
            "bounds" : {
               "northeast" : {
                  "lat" : 41.20976,
                  "lng" : 30.367743
               },
               "southwest" : {
                  "lat" : 40.524151,
                  "lng" : 29.3331261
               }
            },
            "location" : {
               "lat" : 40.8532704,
               "lng" : 29.8815203
            },
            "location_type" : "APPROXIMATE",
            "viewport" : {
               "northeast" : {
                  "lat" : 41.20976,
                  "lng" : 30.367743
               },
               "southwest" : {
                  "lat" : 40.524151,
                  "lng" : 29.3331261
               }
            }
         },
         "place_id" : "ChIJQ8zKb5QgyxQRWdhW642zLKg",
         "types" : [ "administrative_area_level_1", "political" ]
      },
      {
         "address_components" : [
            {
               "long_name" : "Turkey",
               "short_name" : "TR",
               "types" : [ "country", "political" ]
            }
         ],
         "formatted_address" : "Turkey",
         "geometry" : {
            "bounds" : {
               "northeast" : {
                  "lat" : 42.3666999,
                  "lng" : 44.8178449
               },
               "southwest" : {
                  "lat" : 35.808592,
                  "lng" : 25.5377
               }
            },
            "location" : {
               "lat" : 38.963745,
               "lng" : 35.243322
            },
            "location_type" : "APPROXIMATE",
            "viewport" : {
               "northeast" : {
                  "lat" : 42.3666999,
                  "lng" : 44.8178449
               },
               "southwest" : {
                  "lat" : 35.808592,
                  "lng" : 25.5377
               }
            }
         },
         "place_id" : "ChIJcSZPllwVsBQRKl9iKtTb2UA",
         "types" : [ "country", "political" ]
      }
   ],
   "status" : "OK"
}
