{
   "plus_code" : {
      "compound_code" : "QW7V+V3F İzmit/Kocaeli, Turkey",
      "global_code" : "8GGFQW7V+V3F"
   },
   "results" : [
      {
         "address_components" : [
            {
               "long_name" : "8",
               "short_name" : "8",
               "types" : [ "street_number" ]
            },
            {
               "long_name" : "Sırma Sokak",
               "short_name" : "Sırma Sk",
               "types" : [ "route" ]
            },
            {
               "long_name" : "Körfez Mh.",
               "short_name" : "Körfez Mh.",
               "types" : [ "administrative_area_level_4", "political" ]
            },
            {
               "long_name" : "İzmit",
               "short_name" : "İzmit",
               "types" : [ "administrative_area_level_2", "political" ]
            },
            {
               "long_name" : "Kocaeli",
               "short_name" : "Kocaeli",
               "types" : [ "administrative_area_level_1", "political" ]
            },
            {
               "long_name" : "Turkey",
               "short_name" : "TR",
               "types" : [ "country", "political" ]
            },
            {
               "long_name" : "41040",
               "short_name" : "41040",
               "types" : [ "postal_code" ]
            }
         ],
         "formatted_address" : "Körfez Mh., Sırma Sk No:8, 41040 İzmit/Kocaeli, Turkey",
         "geometry" : {
            "location" : {
               "lat" : 40.764762,
               "lng" : 29.942763
            },
            "location_type" : "ROOFTOP",
            "viewport" : {
               "northeast" : {
                  "lat" : 40.76611098029149,
                  "lng" : 29.9441119802915
               },
               "southwest" : {
                  "lat" : 40.76341301970849,
                  "lng" : 29.9414140197085
               }
            }
         },
         "place_id" : "ChIJYTAsG4lPyxQRUq3iKaspvTU",
         "plus_code" : {
            "compound_code" : "QW7V+W4 İzmit/Kocaeli, Turkey",
            "global_code" : "8GGFQW7V+W4"
         },
         "types" : [ "street_address" ]
      },
      {
         "address_components" : [
            {
               "long_name" : "6",
               "short_name" : "6",
               "types" : [ "street_number" ]
            },
            {
               "long_name" : "Sırma Sokak",
               "short_name" : "Sırma Sk",
               "types" : [ "route" ]
            },
            {
               "long_name" : "Körfez Mh.",
               "short_name" : "Körfez Mh.",
               "types" : [ "administrative_area_level_4", "political" ]
            },
            {
               "long_name" : "İzmit",
               "short_name" : "İzmit",
               "types" : [ "administrative_area_level_2", "political" ]
            },
            {
               "long_name" : "Kocaeli",
               "short_name" : "Kocaeli",
               "types" : [ "administrative_area_level_1", "political" ]
            },
            {
               "long_name" : "Turkey",
               "short_name" : "TR",
               "types" : [ "country", "political" ]
            },
            {
               "long_name" : "41040",
               "short_name" : "41040",
               "types" : [ "postal_code" ]
            }
         ],
         "formatted_address" : "Körfez Mh., Sırma Sk No:6, 41040 İzmit/Kocaeli, Turkey",
         "geometry" : {
            "bounds" : {
               "northeast" : {
                  "lat" : 40.7643741,
                  "lng" : 29.942882
               },
               "southwest" : {
                  "lat" : 40.76416400000001,
                  "lng" : 29.9427396
               }
            },
            "location" : {
               "lat" : 40.7642795,
               "lng" : 29.9428169
            },
            "location_type" : "ROOFTOP",
            "viewport" : {
               "northeast" : {
                  "lat" : 40.76561803029151,
                  "lng" : 29.94415978029149
               },
               "southwest" : {
                  "lat" : 40.76292006970851,
                  "lng" : 29.9414618197085
               }
            }
         },
         "place_id" : "ChIJl-moB4lPyxQRRR8LpKkj3Fg",
         "types" : [ "premise" ]
      },
      {
         "address_components" : [
            {
               "long_name" : "34",
               "short_name" : "34",
               "types" : [ "street_number" ]
            },
            {
               "long_name" : "Şehit Rafet Karacan Bulvarı",
               "short_name" : "Şht. Rafet Karacan Blv",
               "types" : [ "route" ]
            },
            {
               "long_name" : "Körfez",
               "short_name" : "Körfez",
               "types" : [ "administrative_area_level_4", "political" ]
            },
            {
               "long_name" : "İzmit",
               "short_name" : "İzmit",
               "types" : [ "administrative_area_level_2", "political" ]
            },
            {
               "long_name" : "Kocaeli",
               "short_name" : "Kocaeli",
               "types" : [ "administrative_area_level_1", "political" ]
            },
            {
               "long_name" : "Turkey",
               "short_name" : "TR",
               "types" : [ "country", "political" ]
            },
            {
               "long_name" : "41040",
               "short_name" : "41040",
               "types" : [ "postal_code" ]
            }
         ],
         "formatted_address" : "Körfez, Şht. Rafet Karacan Blv No:34, 41040 İzmit/Kocaeli, Turkey",
         "geometry" : {
            "location" : {
               "lat" : 40.7645234,
               "lng" : 29.941969
            },
            "location_type" : "ROOFTOP",
            "viewport" : {
               "northeast" : {
                  "lat" : 40.7658723802915,
                  "lng" : 29.9433179802915
               },
               "southwest" : {
                  "lat" : 40.76317441970851,
                  "lng" : 29.9406200197085
               }
            }
         },
         "place_id" : "ChIJwxguVMNPyxQRdef-9QXRwoM",
         "plus_code" : {
            "compound_code" : "QW7R+RQ İzmit/Kocaeli, Turkey",
            "global_code" : "8GGFQW7R+RQ"
         },
         "types" : [ "establishment", "point_of_interest" ]
      },
      {
         "address_components" : [
            {
               "long_name" : "QW7V+V3",
               "short_name" : "QW7V+V3",
               "types" : [ "plus_code" ]
            },
            {
               "long_name" : "İzmit",
               "short_name" : "İzmit",
               "types" : [ "administrative_area_level_2", "political" ]
            },
            {
               "long_name" : "Kocaeli",
               "short_name" : "Kocaeli",
               "types" : [ "administrative_area_level_1", "political" ]
            },
            {
               "long_name" : "Turkey",
               "short_name" : "TR",
               "types" : [ "country", "political" ]
            }
         ],
         "formatted_address" : "QW7V+V3 İzmit/Kocaeli, Turkey",
         "geometry" : {
            "bounds" : {
               "northeast" : {
                  "lat" : 40.76475,
                  "lng" : 29.94275
               },
               "southwest" : {
                  "lat" : 40.764625,
                  "lng" : 29.942625
               }
            },
            "location" : {
               "lat" : 40.7646814,
               "lng" : 29.9426794
            },
            "location_type" : "GEOMETRIC_CENTER",
            "viewport" : {
               "northeast" : {
                  "lat" : 40.7660364802915,
                  "lng" : 29.9440364802915
               },
               "southwest" : {
                  "lat" : 40.7633385197085,
                  "lng" : 29.9413385197085
               }
            }
         },
         "place_id" : "GhIJBG6CFOFhREAR55zpb1PxPUA",
         "plus_code" : {
            "compound_code" : "QW7V+V3 İzmit/Kocaeli, Turkey",
            "global_code" : "8GGFQW7V+V3"
         },
         "types" : [ "plus_code" ]
      },
      {
         "address_components" : [
            {
               "long_name" : "39",
               "short_name" : "39",
               "types" : [ "street_number" ]
            },
            {
               "long_name" : "Şehit Rafet Karacan Bulvarı",
               "short_name" : "Şht. Rafet Karacan Blv",
               "types" : [ "route" ]
            },
            {
               "long_name" : "Körfez",
               "short_name" : "Körfez",
               "types" : [ "administrative_area_level_4", "political" ]
            },
            {
               "long_name" : "İzmit",
               "short_name" : "İzmit",
               "types" : [ "administrative_area_level_2", "political" ]
            },
            {
               "long_name" : "Kocaeli",
               "short_name" : "Kocaeli",
               "types" : [ "administrative_area_level_1", "political" ]
            },
            {
               "long_name" : "Turkey",
               "short_name" : "TR",
               "types" : [ "country", "political" ]
            },
            {
               "long_name" : "41040",
               "short_name" : "41040",
               "types" : [ "postal_code" ]
            }
         ],
         "formatted_address" : "Körfez, Şht. Rafet Karacan Blv No:39, 41040 İzmit/Kocaeli, Turkey",
         "geometry" : {
            "location" : {
               "lat" : 40.7651302,
               "lng" : 29.9432665
            },
            "location_type" : "RANGE_INTERPOLATED",
            "viewport" : {
               "northeast" : {
                  "lat" : 40.7664791802915,
                  "lng" : 29.9446154802915
               },
               "southwest" : {
                  "lat" : 40.76378121970851,
                  "lng" : 29.9419175197085
               }
            }
         },
         "place_id" : "EkRLw7ZyZmV6LCDFnmh0LiBSYWZldCBLYXJhY2FuIEJsdiBObzozOSwgNDEwNDAgxLB6bWl0L0tvY2FlbGksIFR1cmtleSIaEhgKFAoSCQHYORaJT8sUEQ1QToouu1RAECc",
         "types" : [ "street_address" ]
      },
      {
         "address_components" : [
            {
               "long_name" : "Şehit Rafet Karacan Bulvarı",
               "short_name" : "Şht. Rafet Karacan Blv",
               "types" : [ "route" ]
            },
            {
               "long_name" : "Kadıköy",
               "short_name" : "Kadıköy",
               "types" : [ "administrative_area_level_4", "political" ]
            },
            {
               "long_name" : "İzmit",
               "short_name" : "İzmit",
               "types" : [ "administrative_area_level_2", "political" ]
            },
            {
               "long_name" : "Kocaeli",
               "short_name" : "Kocaeli",
               "types" : [ "administrative_area_level_1", "political" ]
            },
            {
               "long_name" : "Turkey",
               "short_name" : "TR",
               "types" : [ "country", "political" ]
            },
            {
               "long_name" : "41040",
               "short_name" : "41040",
               "types" : [ "postal_code" ]
            }
         ],
         "formatted_address" : "Kadıköy, Şht. Rafet Karacan Blv, 41040 İzmit/Kocaeli, Turkey",
         "geometry" : {
            "bounds" : {
               "northeast" : {
                  "lat" : 40.7652194,
                  "lng" : 29.9432665
               },
               "southwest" : {
                  "lat" : 40.7651302,
                  "lng" : 29.9426225
               }
            },
            "location" : {
               "lat" : 40.7651748,
               "lng" : 29.9429445
            },
            "location_type" : "GEOMETRIC_CENTER",
            "viewport" : {
               "northeast" : {
                  "lat" : 40.76652378029151,
                  "lng" : 29.9442934802915
               },
               "southwest" : {
                  "lat" : 40.76382581970851,
                  "lng" : 29.9415955197085
               }
            }
         },
         "place_id" : "ChIJAdg5FolPyxQRDFBOii67VEA",
         "types" : [ "route" ]
      },
      {
         "address_components" : [
            {
               "long_name" : "41040",
               "short_name" : "41040",
               "types" : [ "postal_code" ]
            },
            {
               "long_name" : "İzmit",
               "short_name" : "İzmit",
               "types" : [ "administrative_area_level_2", "political" ]
            },
            {
               "long_name" : "Kocaeli",
               "short_name" : "Kocaeli",
               "types" : [ "administrative_area_level_1", "political" ]
            },
            {
               "long_name" : "Turkey",
               "short_name" : "TR",
               "types" : [ "country", "political" ]
            }
         ],
         "formatted_address" : "41040 İzmit/Kocaeli, Turkey",
         "geometry" : {
            "bounds" : {
               "northeast" : {
                  "lat" : 40.7653761,
                  "lng" : 29.9631269
               },
               "southwest" : {
                  "lat" : 40.757143,
                  "lng" : 29.9383831
               }
            },
            "location" : {
               "lat" : 40.7610979,
               "lng" : 29.9494804
            },
            "location_type" : "APPROXIMATE",
            "viewport" : {
               "northeast" : {
                  "lat" : 40.7653761,
                  "lng" : 29.9631269
               },
               "southwest" : {
                  "lat" : 40.757143,
                  "lng" : 29.9383831
               }
            }
         },
         "place_id" : "ChIJO3l2zYpPyxQR7-rF8BAGPHU",
         "types" : [ "postal_code" ]
      },
      {
         "address_components" : [
            {
               "long_name" : "Körfez",
               "short_name" : "Körfez",
               "types" : [ "administrative_area_level_4", "political" ]
            },
            {
               "long_name" : "İzmit",
               "short_name" : "İzmit",
               "types" : [ "administrative_area_level_2", "political" ]
            },
            {
               "long_name" : "Kocaeli",
               "short_name" : "Kocaeli",
               "types" : [ "administrative_area_level_1", "political" ]
            },
            {
               "long_name" : "Turkey",
               "short_name" : "TR",
               "types" : [ "country", "political" ]
            },
            {
               "long_name" : "41040",
               "short_name" : "41040",
               "types" : [ "postal_code" ]
            }
         ],
         "formatted_address" : "Körfez, 41040 İzmit/Kocaeli, Turkey",
         "geometry" : {
            "bounds" : {
               "northeast" : {
                  "lat" : 40.765456,
                  "lng" : 29.9631269
               },
               "southwest" : {
                  "lat" : 40.75719,
                  "lng" : 29.9383831
               }
            },
            "location" : {
               "lat" : 40.7610979,
               "lng" : 29.9494804
            },
            "location_type" : "APPROXIMATE",
            "viewport" : {
               "northeast" : {
                  "lat" : 40.765456,
                  "lng" : 29.9631269
               },
               "southwest" : {
                  "lat" : 40.75719,
                  "lng" : 29.9383831
               }
            }
         },
         "place_id" : "ChIJp3VlAbNayxQRYCN59Wi7Ukg",
         "types" : [ "administrative_area_level_4", "political" ]
      },
      {
         "address_components" : [
            {
               "long_name" : "İzmit",
               "short_name" : "İzmit",
               "types" : [ "locality", "political" ]
            },
            {
               "long_name" : "İzmit",
               "short_name" : "İzmit",
               "types" : [ "administrative_area_level_2", "political" ]
            },
            {
               "long_name" : "Kocaeli",
               "short_name" : "Kocaeli",
               "types" : [ "administrative_area_level_1", "political" ]
            },
            {
               "long_name" : "Turkey",
               "short_name" : "TR",
               "types" : [ "country", "political" ]
            }
         ],
         "formatted_address" : "İzmit, Kocaeli, Turkey",
         "geometry" : {
            "bounds" : {
               "northeast" : {
                  "lat" : 40.805401,
                  "lng" : 30.014834
               },
               "southwest" : {
                  "lat" : 40.736827,
                  "lng" : 29.8541681
               }
            },
            "location" : {
               "lat" : 40.7654408,
               "lng" : 29.9408089
            },
            "location_type" : "APPROXIMATE",
            "viewport" : {
               "northeast" : {
                  "lat" : 40.805401,
                  "lng" : 30.014834
               },
               "southwest" : {
                  "lat" : 40.736827,
                  "lng" : 29.8541681
               }
            }
         },
         "place_id" : "ChIJnftLZGZPyxQRuX5rWOcOaYI",
         "types" : [ "locality", "political" ]
      },
      {
         "address_components" : [
            {
               "long_name" : "İzmit",
               "short_name" : "İzmit",
               "types" : [ "administrative_area_level_2", "political" ]
            },
            {
               "long_name" : "Kocaeli",
               "short_name" : "Kocaeli",
               "types" : [ "administrative_area_level_1", "political" ]
            },
            {
               "long_name" : "Turkey",
               "short_name" : "TR",
               "types" : [ "country", "political" ]
            }
         ],
         "formatted_address" : "İzmit/Kocaeli, Turkey",
         "geometry" : {
            "bounds" : {
               "northeast" : {
                  "lat" : 40.971557,
                  "lng" : 30.2639339
               },
               "southwest" : {
                  "lat" : 40.720553,
                  "lng" : 29.8541681
               }
            },
            "location" : {
               "lat" : 40.8506635,
               "lng" : 30.0202964
            },
            "location_type" : "APPROXIMATE",
            "viewport" : {
               "northeast" : {
                  "lat" : 40.971557,
                  "lng" : 30.2639339
               },
               "southwest" : {
                  "lat" : 40.720553,
                  "lng" : 29.8541681
               }
            }
         },
         "place_id" : "ChIJL2DfPLZQyxQRitx6sY9PIGU",
         "types" : [ "administrative_area_level_2", "political" ]
      },
      {
         "address_components" : [
            {
               "long_name" : "Kocaeli",
               "short_name" : "Kocaeli",
               "types" : [ "administrative_area_level_1", "political" ]
            },
            {
               "long_name" : "Turkey",
               "short_name" : "TR",
               "types" : [ "country", "political" ]
            }
         ],
         "formatted_address" : "Kocaeli, Turkey",
         "geometry" : {
            "bounds" : {
               "northeast" : {
                  "lat" : 41.20976,
                  "lng" : 30.367743
               },
               "southwest" : {
                  "lat" : 40.524151,
                  "lng" : 29.3331261
               }
            },
            "location" : {
               "lat" : 40.8532704,
               "lng" : 29.8815203
            },
            "location_type" : "APPROXIMATE",
            "viewport" : {
               "northeast" : {
                  "lat" : 41.20976,
                  "lng" : 30.367743
               },
               "southwest" : {
                  "lat" : 40.524151,
                  "lng" : 29.3331261
               }
            }
         },
         "place_id" : "ChIJQ8zKb5QgyxQRWdhW642zLKg",
         "types" : [ "administrative_area_level_1", "political" ]
      },
      {
         "address_components" : [
            {
               "long_name" : "Turkey",
               "short_name" : "TR",
               "types" : [ "country", "political" ]
            }
         ],
         "formatted_address" : "Turkey",
         "geometry" : {
            "bounds" : {
               "northeast" : {
                  "lat" : 42.3666999,
                  "lng" : 44.8178449
               },
               "southwest" : {
                  "lat" : 35.808592,
                  "lng" : 25.5377
               }
            },
            "location" : {
               "lat" : 38.963745,
               "lng" : 35.243322
            },
            "location_type" : "APPROXIMATE",
            "viewport" : {
               "northeast" : {
                  "lat" : 42.3666999,
                  "lng" : 44.8178449
               },
               "southwest" : {
                  "lat" : 35.808592,
                  "lng" : 25.5377
               }
            }
         },
         "place_id" : "ChIJcSZPllwVsBQRKl9iKtTb2UA",
         "types" : [ "country", "political" ]
      }
   ],
   "status" : "OK"
}
