{
   "plus_code" : {
      "compound_code" : "2XC5+GXW Fatih/İstanbul, Turkey",
      "global_code" : "8GHC2XC5+GXW"
   },
   "results" : [
      {
         "address_components" : [
            {
               "long_name" : "No:30/C",
               "short_name" : "No:30/C",
               "types" : [ "street_number" ]
            },
            {
               "long_name" : "Atatürk Bulvarı",
               "short_name" : "Atatürk Blv.",
               "types" : [ "route" ]
            },
            {
               "long_name" : "Cibali",
               "short_name" : "Cibali",
               "types" : [ "administrative_area_level_4", "political" ]
            },
            {
               "long_name" : "Fatih",
               "short_name" : "Fatih",
               "types" : [ "administrative_area_level_2", "political" ]
            },
            {
               "long_name" : "İstanbul",
               "short_name" : "İstanbul",
               "types" : [ "administrative_area_level_1", "political" ]
            },
            {
               "long_name" : "Turkey",
               "short_name" : "TR",
               "types" : [ "country", "political" ]
            },
            {
               "long_name" : "34083",
               "short_name" : "34083",
               "types" : [ "postal_code" ]
            }
         ],
         "formatted_address" : "Cibali, Atatürk Blv. No:30/C, 34083 Fatih/İstanbul, Turkey",
         "geometry" : {
            "location" : {
               "lat" : 41.0212191,
               "lng" : 28.9597471
            },
            "location_type" : "ROOFTOP",
            "viewport" : {
               "northeast" : {
                  "lat" : 41.02256808029149,
                  "lng" : 28.9610960802915
               },
               "southwest" : {
                  "lat" : 41.01987011970849,
                  "lng" : 28.9583981197085
               }
            }
         },
         "place_id" : "ChIJp2j8k_O5yhQRoG0nTmUB6qc",
         "plus_code" : {
            "compound_code" : "2XC5+FV Fatih/İstanbul, Turkey",
            "global_code" : "8GHC2XC5+FV"
         },
         "types" : [ "street_address" ]
      },
      {
         "address_components" : [
            {
               "long_name" : "27",
               "short_name" : "27",
               "types" : [ "street_number" ]
            },
            {
               "long_name" : "Atatürk Bulvarı",
               "short_name" : "Atatürk Blv.",
               "types" : [ "route" ]
            },
            {
               "long_name" : "Cibali",
               "short_name" : "Cibali",
               "types" : [ "administrative_area_level_4", "political" ]
            },
            {
               "long_name" : "Fatih",
               "short_name" : "Fatih",
               "types" : [ "administrative_area_level_2", "political" ]
            },
            {
               "long_name" : "İstanbul",
               "short_name" : "İstanbul",
               "types" : [ "administrative_area_level_1", "political" ]
            },
            {
               "long_name" : "Turkey",
               "short_name" : "TR",
               "types" : [ "country", "political" ]
            },
            {
               "long_name" : "34083",
               "short_name" : "34083",
               "types" : [ "postal_code" ]
            }
         ],
         "formatted_address" : "Cibali, Atatürk Blv. No:27, 34083 Fatih/İstanbul, Turkey",
         "geometry" : {
            "location" : {
               "lat" : 41.0212191,
               "lng" : 28.9597471
            },
            "location_type" : "RANGE_INTERPOLATED",
            "viewport" : {
               "northeast" : {
                  "lat" : 41.02256808029149,
                  "lng" : 28.9610960802915
               },
               "southwest" : {
                  "lat" : 41.01987011970849,
                  "lng" : 28.9583981197085
               }
            }
         },
         "place_id" : "EjpDaWJhbGksIEF0YXTDvHJrIEJsdi4gTm86MjcsIDM0MDgzIEZhdGloL8Swc3RhbmJ1bCwgVHVya2V5IhoSGAoUChIJ6fuJlPO5yhQRj5pNewoKjBIQGw",
         "types" : [ "street_address" ]
      },
      {
         "address_components" : [
            {
               "long_name" : "Atatürk Bulvarı",
               "short_name" : "Atatürk Blv.",
               "types" : [ "route" ]
            },
            {
               "long_name" : "Hacı Kadın",
               "short_name" : "Hacı Kadın",
               "types" : [ "administrative_area_level_4", "political" ]
            },
            {
               "long_name" : "Fatih",
               "short_name" : "Fatih",
               "types" : [ "administrative_area_level_2", "political" ]
            },
            {
               "long_name" : "İstanbul",
               "short_name" : "İstanbul",
               "types" : [ "administrative_area_level_1", "political" ]
            },
            {
               "long_name" : "Turkey",
               "short_name" : "TR",
               "types" : [ "country", "political" ]
            },
            {
               "long_name" : "34134",
               "short_name" : "34134",
               "types" : [ "postal_code" ]
            }
         ],
         "formatted_address" : "Hacı Kadın, Atatürk Blv., 34134 Fatih/İstanbul, Turkey",
         "geometry" : {
            "bounds" : {
               "northeast" : {
                  "lat" : 41.021443,
                  "lng" : 28.9600953
               },
               "southwest" : {
                  "lat" : 41.0212383,
                  "lng" : 28.9598915
               }
            },
            "location" : {
               "lat" : 41.021342,
               "lng" : 28.959991
            },
            "location_type" : "GEOMETRIC_CENTER",
            "viewport" : {
               "northeast" : {
                  "lat" : 41.0226896302915,
                  "lng" : 28.96134238029149
               },
               "southwest" : {
                  "lat" : 41.0199916697085,
                  "lng" : 28.9586444197085
               }
            }
         },
         "place_id" : "ChIJiyFTlfO5yhQRPEvipLeqs5s",
         "types" : [ "route" ]
      },
      {
         "address_components" : [
            {
               "long_name" : "2XC5+GX",
               "short_name" : "2XC5+GX",
               "types" : [ "plus_code" ]
            },
            {
               "long_name" : "Fatih",
               "short_name" : "Fatih",
               "types" : [ "administrative_area_level_2", "political" ]
            },
            {
               "long_name" : "İstanbul",
               "short_name" : "İstanbul",
               "types" : [ "administrative_area_level_1", "political" ]
            },
            {
               "long_name" : "Turkey",
               "short_name" : "TR",
               "types" : [ "country", "political" ]
            }
         ],
         "formatted_address" : "2XC5+GX Fatih/İstanbul, Turkey",
         "geometry" : {
            "bounds" : {
               "northeast" : {
                  "lat" : 41.021375,
                  "lng" : 28.96
               },
               "southwest" : {
                  "lat" : 41.02124999999999,
                  "lng" : 28.959875
               }
            },
            "location" : {
               "lat" : 41.0213551,
               "lng" : 28.9599609
            },
            "location_type" : "GEOMETRIC_CENTER",
            "viewport" : {
               "northeast" : {
                  "lat" : 41.02266148029149,
                  "lng" : 28.9612864802915
               },
               "southwest" : {
                  "lat" : 41.01996351970849,
                  "lng" : 28.9585885197085
               }
            }
         },
         "place_id" : "GhIJKQ2Qw7uCREARUPBe_7_1PEA",
         "plus_code" : {
            "compound_code" : "2XC5+GX Fatih/İstanbul, Turkey",
            "global_code" : "8GHC2XC5+GX"
         },
         "types" : [ "plus_code" ]
      },
      {
         "address_components" : [
            {
               "long_name" : "34134",
               "short_name" : "34134",
               "types" : [ "postal_code" ]
            },
            {
               "long_name" : "Yavuz Sinan",
               "short_name" : "Yavuz Sinan",
               "types" : [ "administrative_area_level_4", "political" ]
            },
            {
               "long_name" : "Fatih",
               "short_name" : "Fatih",
               "types" : [ "administrative_area_level_2", "political" ]
            },
            {
               "long_name" : "İstanbul",
               "short_name" : "İstanbul",
               "types" : [ "administrative_area_level_1", "political" ]
            },
            {
               "long_name" : "Turkey",
               "short_name" : "TR",
               "types" : [ "country", "political" ]
            }
         ],
         "formatted_address" : "Yavuz Sinan, 34134 Fatih/İstanbul, Turkey",
         "geometry" : {
            "bounds" : {
               "northeast" : {
                  "lat" : 41.0223579,
                  "lng" : 28.9644311
               },
               "southwest" : {
                  "lat" : 41.0194879,
                  "lng" : 28.959947
               }
            },
            "location" : {
               "lat" : 41.0205977,
               "lng" : 28.9619616
            },
            "location_type" : "APPROXIMATE",
            "viewport" : {
               "northeast" : {
                  "lat" : 41.0223579,
                  "lng" : 28.9644311
               },
               "southwest" : {
                  "lat" : 41.0194879,
                  "lng" : 28.959947
               }
            }
         },
         "place_id" : "ChIJg3i6N_K5yhQR-byTt202hFQ",
         "types" : [ "postal_code" ]
      },
      {
         "address_components" : [
            {
               "long_name" : "Yavuz Sinan",
               "short_name" : "Yavuz Sinan",
               "types" : [ "administrative_area_level_4", "political" ]
            },
            {
               "long_name" : "Fatih",
               "short_name" : "Fatih",
               "types" : [ "administrative_area_level_2", "political" ]
            },
            {
               "long_name" : "İstanbul",
               "short_name" : "İstanbul",
               "types" : [ "administrative_area_level_1", "political" ]
            },
            {
               "long_name" : "Turkey",
               "short_name" : "TR",
               "types" : [ "country", "political" ]
            },
            {
               "long_name" : "34134",
               "short_name" : "34134",
               "types" : [ "postal_code" ]
            }
         ],
         "formatted_address" : "Yavuz Sinan, 34134 Fatih/İstanbul, Turkey",
         "geometry" : {
            "bounds" : {
               "northeast" : {
                  "lat" : 41.0223579,
                  "lng" : 28.9644311
               },
               "southwest" : {
                  "lat" : 41.0194879,
                  "lng" : 28.959947
               }
            },
            "location" : {
               "lat" : 41.0205977,
               "lng" : 28.9619616
            },
            "location_type" : "APPROXIMATE",
            "viewport" : {
               "northeast" : {
                  "lat" : 41.0223579,
                  "lng" : 28.9644311
               },
               "southwest" : {
                  "lat" : 41.0194879,
                  "lng" : 28.959947
               }
            }
         },
         "place_id" : "ChIJg3i6N_K5yhQROqkuDR24EKk",
         "types" : [ "administrative_area_level_4", "political" ]
      },
      {
         "address_components" : [
            {
               "long_name" : "Fatih",
               "short_name" : "Fatih",
               "types" : [ "administrative_area_level_2", "political" ]
            },
            {
               "long_name" : "İstanbul",
               "short_name" : "İstanbul",
               "types" : [ "administrative_area_level_1", "political" ]
            },
            {
               "long_name" : "Turkey",
               "short_name" : "TR",
               "types" : [ "country", "political" ]
            }
         ],
         "formatted_address" : "Fatih/İstanbul, Turkey",
         "geometry" : {
            "bounds" : {
               "northeast" : {
                  "lat" : 41.040882,
                  "lng" : 28.9880719
               },
               "southwest" : {
                  "lat" : 40.987637,
                  "lng" : 28.919171
               }
            },
            "location" : {
               "lat" : 41.0168639,
               "lng" : 28.9470422
            },
            "location_type" : "APPROXIMATE",
            "viewport" : {
               "northeast" : {
                  "lat" : 41.040882,
                  "lng" : 28.9880719
               },
               "southwest" : {
                  "lat" : 40.987637,
                  "lng" : 28.919171
               }
            }
         },
         "place_id" : "ChIJmeP65Ym5yhQR4CKL7X6E8DQ",
         "types" : [ "administrative_area_level_2", "political" ]
      },
      {
         "address_components" : [
            {
               "long_name" : "European Side",
               "short_name" : "European Side",
               "types" : [ "neighborhood", "political" ]
            },
            {
               "long_name" : "İstanbul",
               "short_name" : "İstanbul",
               "types" : [ "administrative_area_level_1", "political" ]
            },
            {
               "long_name" : "Turkey",
               "short_name" : "TR",
               "types" : [ "country", "political" ]
            }
         ],
         "formatted_address" : "European Side, İstanbul, Turkey",
         "geometry" : {
            "bounds" : {
               "northeast" : {
                  "lat" : 41.199239,
                  "lng" : 29.077487
               },
               "southwest" : {
                  "lat" : 40.954508,
                  "lng" : 28.595554
               }
            },
            "location" : {
               "lat" : 41.0286909,
               "lng" : 28.92404269999999
            },
            "location_type" : "APPROXIMATE",
            "viewport" : {
               "northeast" : {
                  "lat" : 41.199239,
                  "lng" : 29.077487
               },
               "southwest" : {
                  "lat" : 40.954508,
                  "lng" : 28.595554
               }
            }
         },
         "place_id" : "ChIJhTq6hpGkyhQRC5OjsPQ0MVY",
         "types" : [ "neighborhood", "political" ]
      },
      {
         "address_components" : [
            {
               "long_name" : "İstanbul",
               "short_name" : "İstanbul",
               "types" : [ "locality", "political" ]
            },
            {
               "long_name" : "İstanbul",
               "short_name" : "İstanbul",
               "types" : [ "administrative_area_level_1", "political" ]
            },
            {
               "long_name" : "Turkey",
               "short_name" : "TR",
               "types" : [ "country", "political" ]
            }
         ],
         "formatted_address" : "İstanbul, Turkey",
         "geometry" : {
            "bounds" : {
               "northeast" : {
                  "lat" : 41.199239,
                  "lng" : 29.4288049
               },
               "southwest" : {
                  "lat" : 40.811404,
                  "lng" : 28.595554
               }
            },
            "location" : {
               "lat" : 41.0082376,
               "lng" : 28.9783589
            },
            "location_type" : "APPROXIMATE",
            "viewport" : {
               "northeast" : {
                  "lat" : 41.199239,
                  "lng" : 29.4288049
               },
               "southwest" : {
                  "lat" : 40.811404,
                  "lng" : 28.595554
               }
            }
         },
         "place_id" : "ChIJawhoAASnyhQR0LABvJj-zOE",
         "types" : [ "locality", "political" ]
      },
      {
         "address_components" : [
            {
               "long_name" : "İstanbul",
               "short_name" : "İstanbul",
               "types" : [ "administrative_area_level_1", "political" ]
            },
            {
               "long_name" : "Turkey",
               "short_name" : "TR",
               "types" : [ "country", "political" ]
            }
         ],
         "formatted_address" : "İstanbul, Turkey",
         "geometry" : {
            "bounds" : {
               "northeast" : {
                  "lat" : 41.58461,
                  "lng" : 29.915705
               },
               "southwest" : {
                  "lat" : 40.8026889,
                  "lng" : 27.971373
               }
            },
            "location" : {
               "lat" : 41.1634302,
               "lng" : 28.7664408
            },
            "location_type" : "APPROXIMATE",
            "viewport" : {
               "northeast" : {
                  "lat" : 41.58461,
                  "lng" : 29.915705
               },
               "southwest" : {
                  "lat" : 40.8026889,
                  "lng" : 27.971373
               }
            }
         },
         "place_id" : "ChIJexVgWlG2yhQR6B1akfSarCI",
         "types" : [ "administrative_area_level_1", "political" ]
      },
      {
         "address_components" : [
            {
               "long_name" : "Turkey",
               "short_name" : "TR",
               "types" : [ "country", "political" ]
            }
         ],
         "formatted_address" : "Turkey",
         "geometry" : {
            "bounds" : {
               "northeast" : {
                  "lat" : 42.3666999,
                  "lng" : 44.8178449
               },
               "southwest" : {
                  "lat" : 35.808592,
                  "lng" : 25.5377
               }
            },
            "location" : {
               "lat" : 38.963745,
               "lng" : 35.243322
            },
            "location_type" : "APPROXIMATE",
            "viewport" : {
               "northeast" : {
                  "lat" : 42.3666999,
                  "lng" : 44.8178449
               },
               "southwest" : {
                  "lat" : 35.808592,
                  "lng" : 25.5377
               }
            }
         },
         "place_id" : "ChIJcSZPllwVsBQRKl9iKtTb2UA",
         "types" : [ "country", "political" ]
      }
   ],
   "status" : "OK"
}
