{
   "plus_code" : {
      "compound_code" : "QW8Q+22 İzmit/Kocaeli, Turkey",
      "global_code" : "8GGFQW8Q+22"
   },
   "results" : [
      {
         "address_components" : [
            {
               "long_name" : "38",
               "short_name" : "38",
               "types" : [ "street_number" ]
            },
            {
               "long_name" : "Cengiz Topel Caddesi",
               "short_name" : "Cengiz Topel Cd.",
               "types" : [ "route" ]
            },
            {
               "long_name" : "Karabaş",
               "short_name" : "Karabaş",
               "types" : [ "administrative_area_level_4", "political" ]
            },
            {
               "long_name" : "İzmit",
               "short_name" : "İzmit",
               "types" : [ "administrative_area_level_2", "political" ]
            },
            {
               "long_name" : "Kocaeli",
               "short_name" : "Kocaeli",
               "types" : [ "administrative_area_level_1", "political" ]
            },
            {
               "long_name" : "Turkey",
               "short_name" : "TR",
               "types" : [ "country", "political" ]
            },
            {
               "long_name" : "41040",
               "short_name" : "41040",
               "types" : [ "postal_code" ]
            }
         ],
         "formatted_address" : "Karabaş, Cengiz Topel Cd. No:38, 41040 İzmit/Kocaeli, Turkey",
         "geometry" : {
            "location" : {
               "lat" : 40.7649323,
               "lng" : 29.9376199
            },
            "location_type" : "ROOFTOP",
            "viewport" : {
               "northeast" : {
                  "lat" : 40.7662812802915,
                  "lng" : 29.9389688802915
               },
               "southwest" : {
                  "lat" : 40.7635833197085,
                  "lng" : 29.9362709197085
               }
            }
         },
         "place_id" : "ChIJmZT-u4dPyxQRjC8NfAHrX3Q",
         "plus_code" : {
            "compound_code" : "QW7Q+X2 İzmit/Kocaeli, Turkey",
            "global_code" : "8GGFQW7Q+X2"
         },
         "types" : [ "street_address" ]
      },
      {
         "address_components" : [
            {
               "long_name" : "9 A",
               "short_name" : "9 A",
               "types" : [ "street_number" ]
            },
            {
               "long_name" : "Halit Molla Sokak",
               "short_name" : "Halit Molla Sk.",
               "types" : [ "route" ]
            },
            {
               "long_name" : "Cedit",
               "short_name" : "Cedit",
               "types" : [ "administrative_area_level_4", "political" ]
            },
            {
               "long_name" : "İzmit",
               "short_name" : "İzmit",
               "types" : [ "administrative_area_level_2", "political" ]
            },
            {
               "long_name" : "Kocaeli",
               "short_name" : "Kocaeli",
               "types" : [ "administrative_area_level_1", "political" ]
            },
            {
               "long_name" : "Turkey",
               "short_name" : "TR",
               "types" : [ "country", "political" ]
            },
            {
               "long_name" : "41300",
               "short_name" : "41300",
               "types" : [ "postal_code" ]
            }
         ],
         "formatted_address" : "Cedit, Halit Molla Sk. 9 A, 41300 İzmit/Kocaeli, Turkey",
         "geometry" : {
            "bounds" : {
               "northeast" : {
                  "lat" : 40.7654344,
                  "lng" : 29.9378639
               },
               "southwest" : {
                  "lat" : 40.7652595,
                  "lng" : 29.9375804
               }
            },
            "location" : {
               "lat" : 40.7653605,
               "lng" : 29.9376892
            },
            "location_type" : "ROOFTOP",
            "viewport" : {
               "northeast" : {
                  "lat" : 40.7666959302915,
                  "lng" : 29.9390711302915
               },
               "southwest" : {
                  "lat" : 40.7639979697085,
                  "lng" : 29.9363731697085
               }
            }
         },
         "place_id" : "ChIJf9vTtYdPyxQRJs_OuzUGew0",
         "types" : [ "premise" ]
      },
      {
         "address_components" : [
            {
               "long_name" : "1",
               "short_name" : "1",
               "types" : [ "street_number" ]
            },
            {
               "long_name" : "Atatürk Bulvarı",
               "short_name" : "Atatürk Blv.",
               "types" : [ "route" ]
            },
            {
               "long_name" : "Cedit",
               "short_name" : "Cedit",
               "types" : [ "administrative_area_level_4", "political" ]
            },
            {
               "long_name" : "İzmit",
               "short_name" : "İzmit",
               "types" : [ "administrative_area_level_2", "political" ]
            },
            {
               "long_name" : "Kocaeli",
               "short_name" : "Kocaeli",
               "types" : [ "administrative_area_level_1", "political" ]
            },
            {
               "long_name" : "Turkey",
               "short_name" : "TR",
               "types" : [ "country", "political" ]
            },
            {
               "long_name" : "41300",
               "short_name" : "41300",
               "types" : [ "postal_code" ]
            }
         ],
         "formatted_address" : "Cedit, Atatürk Blv. No:1, 41300 İzmit/Kocaeli, Turkey",
         "geometry" : {
            "location" : {
               "lat" : 40.7651227,
               "lng" : 29.9375642
            },
            "location_type" : "RANGE_INTERPOLATED",
            "viewport" : {
               "northeast" : {
                  "lat" : 40.7664716802915,
                  "lng" : 29.9389131802915
               },
               "southwest" : {
                  "lat" : 40.7637737197085,
                  "lng" : 29.9362152197085
               }
            }
         },
         "place_id" : "EjdDZWRpdCwgQXRhdMO8cmsgQmx2LiBObzoxLCA0MTMwMCDEsHptaXQvS29jYWVsaSwgVHVya2V5IhoSGAoUChIJ4V-GuodPyxQR0HcE6nVhmCgQAQ",
         "types" : [ "street_address" ]
      },
      {
         "address_components" : [
            {
               "long_name" : "QW8Q+22",
               "short_name" : "QW8Q+22",
               "types" : [ "plus_code" ]
            },
            {
               "long_name" : "İzmit",
               "short_name" : "İzmit",
               "types" : [ "administrative_area_level_2", "political" ]
            },
            {
               "long_name" : "Kocaeli",
               "short_name" : "Kocaeli",
               "types" : [ "administrative_area_level_1", "political" ]
            },
            {
               "long_name" : "Turkey",
               "short_name" : "TR",
               "types" : [ "country", "political" ]
            }
         ],
         "formatted_address" : "QW8Q+22 İzmit/Kocaeli, Turkey",
         "geometry" : {
            "bounds" : {
               "northeast" : {
                  "lat" : 40.765125,
                  "lng" : 29.937625
               },
               "southwest" : {
                  "lat" : 40.765,
                  "lng" : 29.9375
               }
            },
            "location" : {
               "lat" : 40.7650714,
               "lng" : 29.93752959999999
            },
            "location_type" : "GEOMETRIC_CENTER",
            "viewport" : {
               "northeast" : {
                  "lat" : 40.7664114802915,
                  "lng" : 29.9389114802915
               },
               "southwest" : {
                  "lat" : 40.7637135197085,
                  "lng" : 29.9362135197085
               }
            }
         },
         "place_id" : "GhIJbg0R3O1hREARLQib8AHwPUA",
         "plus_code" : {
            "compound_code" : "QW8Q+22 İzmit/Kocaeli, Turkey",
            "global_code" : "8GGFQW8Q+22"
         },
         "types" : [ "plus_code" ]
      },
      {
         "address_components" : [
            {
               "long_name" : "1",
               "short_name" : "1",
               "types" : [ "street_number" ]
            },
            {
               "long_name" : "Atatürk Bulvarı",
               "short_name" : "Atatürk Blv.",
               "types" : [ "route" ]
            },
            {
               "long_name" : "Cedit",
               "short_name" : "Cedit",
               "types" : [ "administrative_area_level_4", "political" ]
            },
            {
               "long_name" : "İzmit",
               "short_name" : "İzmit",
               "types" : [ "administrative_area_level_2", "political" ]
            },
            {
               "long_name" : "Kocaeli",
               "short_name" : "Kocaeli",
               "types" : [ "administrative_area_level_1", "political" ]
            },
            {
               "long_name" : "Turkey",
               "short_name" : "TR",
               "types" : [ "country", "political" ]
            },
            {
               "long_name" : "41300",
               "short_name" : "41300",
               "types" : [ "postal_code" ]
            }
         ],
         "formatted_address" : "Cedit, Atatürk Blv. No:1, 41300 İzmit/Kocaeli, Turkey",
         "geometry" : {
            "bounds" : {
               "northeast" : {
                  "lat" : 40.7651227,
                  "lng" : 29.9375642
               },
               "southwest" : {
                  "lat" : 40.765048,
                  "lng" : 29.9371446
               }
            },
            "location" : {
               "lat" : 40.7650854,
               "lng" : 29.9373544
            },
            "location_type" : "GEOMETRIC_CENTER",
            "viewport" : {
               "northeast" : {
                  "lat" : 40.7664343302915,
                  "lng" : 29.93870338029149
               },
               "southwest" : {
                  "lat" : 40.7637363697085,
                  "lng" : 29.9360054197085
               }
            }
         },
         "place_id" : "ChIJ4V-GuodPyxQR0HcE6nVhmCg",
         "types" : [ "route" ]
      },
      {
         "address_components" : [
            {
               "long_name" : "41300",
               "short_name" : "41300",
               "types" : [ "postal_code" ]
            },
            {
               "long_name" : "Cedit",
               "short_name" : "Cedit",
               "types" : [ "administrative_area_level_4", "political" ]
            },
            {
               "long_name" : "İzmit",
               "short_name" : "İzmit",
               "types" : [ "administrative_area_level_2", "political" ]
            },
            {
               "long_name" : "Kocaeli",
               "short_name" : "Kocaeli",
               "types" : [ "administrative_area_level_1", "political" ]
            },
            {
               "long_name" : "Turkey",
               "short_name" : "TR",
               "types" : [ "country", "political" ]
            }
         ],
         "formatted_address" : "Cedit, 41300 İzmit/Kocaeli, Turkey",
         "geometry" : {
            "bounds" : {
               "northeast" : {
                  "lat" : 40.773598,
                  "lng" : 29.9407609
               },
               "southwest" : {
                  "lat" : 40.764453,
                  "lng" : 29.932455
               }
            },
            "location" : {
               "lat" : 40.7690192,
               "lng" : 29.9379151
            },
            "location_type" : "APPROXIMATE",
            "viewport" : {
               "northeast" : {
                  "lat" : 40.773598,
                  "lng" : 29.9407609
               },
               "southwest" : {
                  "lat" : 40.764453,
                  "lng" : 29.932455
               }
            }
         },
         "place_id" : "ChIJWb3yzIVPyxQRro8SxMjuEKQ",
         "types" : [ "postal_code" ]
      },
      {
         "address_components" : [
            {
               "long_name" : "Cedit",
               "short_name" : "Cedit",
               "types" : [ "administrative_area_level_4", "political" ]
            },
            {
               "long_name" : "İzmit",
               "short_name" : "İzmit",
               "types" : [ "administrative_area_level_2", "political" ]
            },
            {
               "long_name" : "Kocaeli",
               "short_name" : "Kocaeli",
               "types" : [ "administrative_area_level_1", "political" ]
            },
            {
               "long_name" : "Turkey",
               "short_name" : "TR",
               "types" : [ "country", "political" ]
            }
         ],
         "formatted_address" : "Cedit, İzmit/Kocaeli, Turkey",
         "geometry" : {
            "bounds" : {
               "northeast" : {
                  "lat" : 40.773598,
                  "lng" : 29.942349
               },
               "southwest" : {
                  "lat" : 40.764453,
                  "lng" : 29.932455
               }
            },
            "location" : {
               "lat" : 40.7690192,
               "lng" : 29.9379151
            },
            "location_type" : "APPROXIMATE",
            "viewport" : {
               "northeast" : {
                  "lat" : 40.773598,
                  "lng" : 29.942349
               },
               "southwest" : {
                  "lat" : 40.764453,
                  "lng" : 29.932455
               }
            }
         },
         "place_id" : "ChIJIZ8AzYVPyxQRSDAbAY4BRlk",
         "types" : [ "administrative_area_level_4", "political" ]
      },
      {
         "address_components" : [
            {
               "long_name" : "İzmit",
               "short_name" : "İzmit",
               "types" : [ "locality", "political" ]
            },
            {
               "long_name" : "İzmit",
               "short_name" : "İzmit",
               "types" : [ "administrative_area_level_2", "political" ]
            },
            {
               "long_name" : "Kocaeli",
               "short_name" : "Kocaeli",
               "types" : [ "administrative_area_level_1", "political" ]
            },
            {
               "long_name" : "Turkey",
               "short_name" : "TR",
               "types" : [ "country", "political" ]
            }
         ],
         "formatted_address" : "İzmit, Kocaeli, Turkey",
         "geometry" : {
            "bounds" : {
               "northeast" : {
                  "lat" : 40.805401,
                  "lng" : 30.014834
               },
               "southwest" : {
                  "lat" : 40.736827,
                  "lng" : 29.8541681
               }
            },
            "location" : {
               "lat" : 40.7654408,
               "lng" : 29.9408089
            },
            "location_type" : "APPROXIMATE",
            "viewport" : {
               "northeast" : {
                  "lat" : 40.805401,
                  "lng" : 30.014834
               },
               "southwest" : {
                  "lat" : 40.736827,
                  "lng" : 29.8541681
               }
            }
         },
         "place_id" : "ChIJnftLZGZPyxQRuX5rWOcOaYI",
         "types" : [ "locality", "political" ]
      },
      {
         "address_components" : [
            {
               "long_name" : "İzmit",
               "short_name" : "İzmit",
               "types" : [ "administrative_area_level_2", "political" ]
            },
            {
               "long_name" : "Kocaeli",
               "short_name" : "Kocaeli",
               "types" : [ "administrative_area_level_1", "political" ]
            },
            {
               "long_name" : "Turkey",
               "short_name" : "TR",
               "types" : [ "country", "political" ]
            }
         ],
         "formatted_address" : "İzmit/Kocaeli, Turkey",
         "geometry" : {
            "bounds" : {
               "northeast" : {
                  "lat" : 40.971557,
                  "lng" : 30.2639339
               },
               "southwest" : {
                  "lat" : 40.720553,
                  "lng" : 29.8541681
               }
            },
            "location" : {
               "lat" : 40.8506635,
               "lng" : 30.0202964
            },
            "location_type" : "APPROXIMATE",
            "viewport" : {
               "northeast" : {
                  "lat" : 40.971557,
                  "lng" : 30.2639339
               },
               "southwest" : {
                  "lat" : 40.720553,
                  "lng" : 29.8541681
               }
            }
         },
         "place_id" : "ChIJL2DfPLZQyxQRitx6sY9PIGU",
         "types" : [ "administrative_area_level_2", "political" ]
      },
      {
         "address_components" : [
            {
               "long_name" : "Kocaeli",
               "short_name" : "Kocaeli",
               "types" : [ "administrative_area_level_1", "political" ]
            },
            {
               "long_name" : "Turkey",
               "short_name" : "TR",
               "types" : [ "country", "political" ]
            }
         ],
         "formatted_address" : "Kocaeli, Turkey",
         "geometry" : {
            "bounds" : {
               "northeast" : {
                  "lat" : 41.20976,
                  "lng" : 30.367743
               },
               "southwest" : {
                  "lat" : 40.524151,
                  "lng" : 29.3331261
               }
            },
            "location" : {
               "lat" : 40.8532704,
               "lng" : 29.8815203
            },
            "location_type" : "APPROXIMATE",
            "viewport" : {
               "northeast" : {
                  "lat" : 41.20976,
                  "lng" : 30.367743
               },
               "southwest" : {
                  "lat" : 40.524151,
                  "lng" : 29.3331261
               }
            }
         },
         "place_id" : "ChIJQ8zKb5QgyxQRWdhW642zLKg",
         "types" : [ "administrative_area_level_1", "political" ]
      },
      {
         "address_components" : [
            {
               "long_name" : "Turkey",
               "short_name" : "TR",
               "types" : [ "country", "political" ]
            }
         ],
         "formatted_address" : "Turkey",
         "geometry" : {
            "bounds" : {
               "northeast" : {
                  "lat" : 42.3666999,
                  "lng" : 44.8178449
               },
               "southwest" : {
                  "lat" : 35.808592,
                  "lng" : 25.5377
               }
            },
            "location" : {
               "lat" : 38.963745,
               "lng" : 35.243322
            },
            "location_type" : "APPROXIMATE",
            "viewport" : {
               "northeast" : {
                  "lat" : 42.3666999,
                  "lng" : 44.8178449
               },
               "southwest" : {
                  "lat" : 35.808592,
                  "lng" : 25.5377
               }
            }
         },
         "place_id" : "ChIJcSZPllwVsBQRKl9iKtTb2UA",
         "types" : [ "country", "political" ]
      }
   ],
   "status" : "OK"
}
