{
   "plus_code" : {
      "compound_code" : "52PX+W45 Osmangazi/Bursa, Turkey",
      "global_code" : "8GGF52PX+W45"
   },
   "results" : [
      {
         "address_components" : [
            {
               "long_name" : "18",
               "short_name" : "18",
               "types" : [ "street_number" ]
            },
            {
               "long_name" : "Hasan Yurdu Caddesi",
               "short_name" : "Hasan Yurdu Cd.",
               "types" : [ "route" ]
            },
            {
               "long_name" : "Yahşibey",
               "short_name" : "Yahşibey",
               "types" : [ "administrative_area_level_4", "political" ]
            },
            {
               "long_name" : "Osmangazi",
               "short_name" : "Osmangazi",
               "types" : [ "administrative_area_level_2", "political" ]
            },
            {
               "long_name" : "Bursa",
               "short_name" : "Bursa",
               "types" : [ "administrative_area_level_1", "political" ]
            },
            {
               "long_name" : "Turkey",
               "short_name" : "TR",
               "types" : [ "country", "political" ]
            },
            {
               "long_name" : "16050",
               "short_name" : "16050",
               "types" : [ "postal_code" ]
            }
         ],
         "formatted_address" : "Yahşibey, Hasan Yurdu Cd. No:18, 16050 Osmangazi/Bursa, Turkey",
         "geometry" : {
            "location" : {
               "lat" : 40.1871635,
               "lng" : 29.0478399
            },
            "location_type" : "ROOFTOP",
            "viewport" : {
               "northeast" : {
                  "lat" : 40.1885124802915,
                  "lng" : 29.0491888802915
               },
               "southwest" : {
                  "lat" : 40.1858145197085,
                  "lng" : 29.0464909197085
               }
            }
         },
         "place_id" : "ChIJoVi1MP89yhQR7Nl4peNLzgo",
         "plus_code" : {
            "compound_code" : "52PX+V4 Osmangazi/Bursa, Turkey",
            "global_code" : "8GGF52PX+V4"
         },
         "types" : [ "street_address" ]
      },
      {
         "address_components" : [
            {
               "long_name" : "20",
               "short_name" : "20",
               "types" : [ "street_number" ]
            },
            {
               "long_name" : "Kaplıca Caddesi",
               "short_name" : "Kaplıca Cd.",
               "types" : [ "route" ]
            },
            {
               "long_name" : "Yahşibey",
               "short_name" : "Yahşibey",
               "types" : [ "administrative_area_level_4", "political" ]
            },
            {
               "long_name" : "Osmangazi",
               "short_name" : "Osmangazi",
               "types" : [ "administrative_area_level_2", "political" ]
            },
            {
               "long_name" : "Bursa",
               "short_name" : "Bursa",
               "types" : [ "administrative_area_level_1", "political" ]
            },
            {
               "long_name" : "Turkey",
               "short_name" : "TR",
               "types" : [ "country", "political" ]
            },
            {
               "long_name" : "16060",
               "short_name" : "16060",
               "types" : [ "postal_code" ]
            }
         ],
         "formatted_address" : "Yahşibey, Kaplıca Cd. No:20, 16060 Osmangazi/Bursa, Turkey",
         "geometry" : {
            "location" : {
               "lat" : 40.1872415,
               "lng" : 29.0476364
            },
            "location_type" : "RANGE_INTERPOLATED",
            "viewport" : {
               "northeast" : {
                  "lat" : 40.1885904802915,
                  "lng" : 29.0489853802915
               },
               "southwest" : {
                  "lat" : 40.1858925197085,
                  "lng" : 29.0462874197085
               }
            }
         },
         "place_id" : "EjxZYWjFn2liZXksIEthcGzEsWNhIENkLiBObzoyMCwgMTYwNjAgT3NtYW5nYXppL0J1cnNhLCBUdXJrZXkiGhIYChQKEgmZ-Vo3_z3KFBFfCHvhV9v3VRAU",
         "types" : [ "street_address" ]
      },
      {
         "address_components" : [
            {
               "long_name" : "52PX+W4",
               "short_name" : "52PX+W4",
               "types" : [ "plus_code" ]
            },
            {
               "long_name" : "Osmangazi",
               "short_name" : "Osmangazi",
               "types" : [ "administrative_area_level_2", "political" ]
            },
            {
               "long_name" : "Bursa",
               "short_name" : "Bursa",
               "types" : [ "administrative_area_level_1", "political" ]
            },
            {
               "long_name" : "Turkey",
               "short_name" : "TR",
               "types" : [ "country", "political" ]
            }
         ],
         "formatted_address" : "52PX+W4 Osmangazi/Bursa, Turkey",
         "geometry" : {
            "bounds" : {
               "northeast" : {
                  "lat" : 40.187375,
                  "lng" : 29.047875
               },
               "southwest" : {
                  "lat" : 40.18725,
                  "lng" : 29.04775
               }
            },
            "location" : {
               "lat" : 40.1872667,
               "lng" : 29.0478516
            },
            "location_type" : "GEOMETRIC_CENTER",
            "viewport" : {
               "northeast" : {
                  "lat" : 40.18866148029149,
                  "lng" : 29.0491614802915
               },
               "southwest" : {
                  "lat" : 40.18596351970849,
                  "lng" : 29.0464635197085
               }
            }
         },
         "place_id" : "GhIJnhDwWvgXREARsA-hAEAMPUA",
         "plus_code" : {
            "compound_code" : "52PX+W4 Osmangazi/Bursa, Turkey",
            "global_code" : "8GGF52PX+W4"
         },
         "types" : [ "plus_code" ]
      },
      {
         "address_components" : [
            {
               "long_name" : "7-1",
               "short_name" : "7-1",
               "types" : [ "street_number" ]
            },
            {
               "long_name" : "Kaplıca Caddesi",
               "short_name" : "Kaplıca Cd.",
               "types" : [ "route" ]
            },
            {
               "long_name" : "Kocanaip",
               "short_name" : "Kocanaip",
               "types" : [ "administrative_area_level_4", "political" ]
            },
            {
               "long_name" : "Osmangazi",
               "short_name" : "Osmangazi",
               "types" : [ "administrative_area_level_2", "political" ]
            },
            {
               "long_name" : "Bursa",
               "short_name" : "Bursa",
               "types" : [ "administrative_area_level_1", "political" ]
            },
            {
               "long_name" : "Turkey",
               "short_name" : "TR",
               "types" : [ "country", "political" ]
            },
            {
               "long_name" : "16060",
               "short_name" : "16060",
               "types" : [ "postal_code" ]
            }
         ],
         "formatted_address" : "Kocanaip, Kaplıca Cd. 7-1, 16060 Osmangazi/Bursa, Turkey",
         "geometry" : {
            "bounds" : {
               "northeast" : {
                  "lat" : 40.1875761,
                  "lng" : 29.0482058
               },
               "southwest" : {
                  "lat" : 40.1869125,
                  "lng" : 29.0473107
               }
            },
            "location" : {
               "lat" : 40.18719979999999,
               "lng" : 29.0477003
            },
            "location_type" : "GEOMETRIC_CENTER",
            "viewport" : {
               "northeast" : {
                  "lat" : 40.1885932802915,
                  "lng" : 29.0491072302915
               },
               "southwest" : {
                  "lat" : 40.1858953197085,
                  "lng" : 29.0464092697085
               }
            }
         },
         "place_id" : "ChIJmflaN_89yhQRXgh74Vfb91U",
         "types" : [ "route" ]
      },
      {
         "address_components" : [
            {
               "long_name" : "Yahşibey",
               "short_name" : "Yahşibey",
               "types" : [ "administrative_area_level_4", "political" ]
            },
            {
               "long_name" : "Osmangazi",
               "short_name" : "Osmangazi",
               "types" : [ "administrative_area_level_2", "political" ]
            },
            {
               "long_name" : "Bursa",
               "short_name" : "Bursa",
               "types" : [ "administrative_area_level_1", "political" ]
            },
            {
               "long_name" : "Turkey",
               "short_name" : "TR",
               "types" : [ "country", "political" ]
            },
            {
               "long_name" : "16050",
               "short_name" : "16050",
               "types" : [ "postal_code" ]
            }
         ],
         "formatted_address" : "Yahşibey, 16050 Osmangazi/Bursa, Turkey",
         "geometry" : {
            "bounds" : {
               "northeast" : {
                  "lat" : 40.190829,
                  "lng" : 29.052076
               },
               "southwest" : {
                  "lat" : 40.1867809,
                  "lng" : 29.0460921
               }
            },
            "location" : {
               "lat" : 40.1894934,
               "lng" : 29.0481747
            },
            "location_type" : "APPROXIMATE",
            "viewport" : {
               "northeast" : {
                  "lat" : 40.190829,
                  "lng" : 29.052076
               },
               "southwest" : {
                  "lat" : 40.1867809,
                  "lng" : 29.0460921
               }
            }
         },
         "place_id" : "ChIJ81VVVP49yhQRPKT_J5Z3OH8",
         "types" : [ "administrative_area_level_4", "political" ]
      },
      {
         "address_components" : [
            {
               "long_name" : "16050",
               "short_name" : "16050",
               "types" : [ "postal_code" ]
            },
            {
               "long_name" : "Yahşibey",
               "short_name" : "Yahşibey",
               "types" : [ "administrative_area_level_4", "political" ]
            },
            {
               "long_name" : "Osmangazi",
               "short_name" : "Osmangazi",
               "types" : [ "administrative_area_level_2", "political" ]
            },
            {
               "long_name" : "Bursa",
               "short_name" : "Bursa",
               "types" : [ "administrative_area_level_1", "political" ]
            },
            {
               "long_name" : "Turkey",
               "short_name" : "TR",
               "types" : [ "country", "political" ]
            }
         ],
         "formatted_address" : "Yahşibey, 16050 Osmangazi/Bursa, Turkey",
         "geometry" : {
            "bounds" : {
               "northeast" : {
                  "lat" : 40.190829,
                  "lng" : 29.052076
               },
               "southwest" : {
                  "lat" : 40.1867809,
                  "lng" : 29.0460921
               }
            },
            "location" : {
               "lat" : 40.1894934,
               "lng" : 29.0481747
            },
            "location_type" : "APPROXIMATE",
            "viewport" : {
               "northeast" : {
                  "lat" : 40.190829,
                  "lng" : 29.052076
               },
               "southwest" : {
                  "lat" : 40.1867809,
                  "lng" : 29.0460921
               }
            }
         },
         "place_id" : "ChIJ81VVVP49yhQRZXyfB10HWog",
         "types" : [ "postal_code" ]
      },
      {
         "address_components" : [
            {
               "long_name" : "Bursa",
               "short_name" : "Bursa",
               "types" : [ "locality", "political" ]
            },
            {
               "long_name" : "Bursa",
               "short_name" : "Bursa",
               "types" : [ "administrative_area_level_1", "political" ]
            },
            {
               "long_name" : "Turkey",
               "short_name" : "TR",
               "types" : [ "country", "political" ]
            }
         ],
         "formatted_address" : "Bursa, Turkey",
         "geometry" : {
            "bounds" : {
               "northeast" : {
                  "lat" : 40.276336,
                  "lng" : 29.202363
               },
               "southwest" : {
                  "lat" : 40.16702,
                  "lng" : 28.862216
               }
            },
            "location" : {
               "lat" : 40.1885281,
               "lng" : 29.0609636
            },
            "location_type" : "APPROXIMATE",
            "viewport" : {
               "northeast" : {
                  "lat" : 40.276336,
                  "lng" : 29.202363
               },
               "southwest" : {
                  "lat" : 40.16702,
                  "lng" : 28.862216
               }
            }
         },
         "place_id" : "ChIJlVbU2IIVyhQRkjOX_FUFoGE",
         "types" : [ "locality", "political" ]
      },
      {
         "address_components" : [
            {
               "long_name" : "Osmangazi",
               "short_name" : "Osmangazi",
               "types" : [ "administrative_area_level_2", "political" ]
            },
            {
               "long_name" : "Bursa",
               "short_name" : "Bursa",
               "types" : [ "administrative_area_level_1", "political" ]
            },
            {
               "long_name" : "Turkey",
               "short_name" : "TR",
               "types" : [ "country", "political" ]
            }
         ],
         "formatted_address" : "Osmangazi/Bursa, Turkey",
         "geometry" : {
            "bounds" : {
               "northeast" : {
                  "lat" : 40.3447159,
                  "lng" : 29.26984
               },
               "southwest" : {
                  "lat" : 39.98636399999999,
                  "lng" : 28.919984
               }
            },
            "location" : {
               "lat" : 40.1794498,
               "lng" : 29.0227201
            },
            "location_type" : "APPROXIMATE",
            "viewport" : {
               "northeast" : {
                  "lat" : 40.3447159,
                  "lng" : 29.26984
               },
               "southwest" : {
                  "lat" : 39.98636399999999,
                  "lng" : 28.919984
               }
            }
         },
         "place_id" : "ChIJO1HUDDM8yhQROsoHltWpfgY",
         "types" : [ "administrative_area_level_2", "political" ]
      },
      {
         "address_components" : [
            {
               "long_name" : "Bursa",
               "short_name" : "Bursa",
               "types" : [ "administrative_area_level_1", "political" ]
            },
            {
               "long_name" : "Turkey",
               "short_name" : "TR",
               "types" : [ "country", "political" ]
            }
         ],
         "formatted_address" : "Bursa, Turkey",
         "geometry" : {
            "bounds" : {
               "northeast" : {
                  "lat" : 40.6212121,
                  "lng" : 29.9561661
               },
               "southwest" : {
                  "lat" : 39.5937439,
                  "lng" : 28.0876659
               }
            },
            "location" : {
               "lat" : 40.0655459,
               "lng" : 29.2320784
            },
            "location_type" : "APPROXIMATE",
            "viewport" : {
               "northeast" : {
                  "lat" : 40.6212121,
                  "lng" : 29.9561661
               },
               "southwest" : {
                  "lat" : 39.5937439,
                  "lng" : 28.0876659
               }
            }
         },
         "place_id" : "ChIJqSK43XuPtRQRzUZGtXCmLJI",
         "types" : [ "administrative_area_level_1", "political" ]
      },
      {
         "address_components" : [
            {
               "long_name" : "Turkey",
               "short_name" : "TR",
               "types" : [ "country", "political" ]
            }
         ],
         "formatted_address" : "Turkey",
         "geometry" : {
            "bounds" : {
               "northeast" : {
                  "lat" : 42.3666999,
                  "lng" : 44.8178449
               },
               "southwest" : {
                  "lat" : 35.808592,
                  "lng" : 25.5377
               }
            },
            "location" : {
               "lat" : 38.963745,
               "lng" : 35.243322
            },
            "location_type" : "APPROXIMATE",
            "viewport" : {
               "northeast" : {
                  "lat" : 42.3666999,
                  "lng" : 44.8178449
               },
               "southwest" : {
                  "lat" : 35.808592,
                  "lng" : 25.5377
               }
            }
         },
         "place_id" : "ChIJcSZPllwVsBQRKl9iKtTb2UA",
         "types" : [ "country", "political" ]
      }
   ],
   "status" : "OK"
}
