{
   "plus_code" : {
      "compound_code" : "2222+22 Loufadou, Chad",
      "global_code" : "7F6Q2222+22"
   },
   "results" : [
      {
         "address_components" : [
            {
               "long_name" : "2222+22",
               "short_name" : "2222+22",
               "types" : [ "plus_code" ]
            },
            {
               "long_name" : "Loufadou",
               "short_name" : "Loufadou",
               "types" : [ "locality", "political" ]
            },
            {
               "long_name" : "Kanem",
               "short_name" : "Kanem",
               "types" : [ "administrative_area_level_2", "political" ]
            },
            {
               "long_name" : "Kanem",
               "short_name" : "Kanem",
               "types" : [ "administrative_area_level_1", "political" ]
            },
            {
               "long_name" : "Chad",
               "short_name" : "TD",
               "types" : [ "country", "political" ]
            }
         ],
         "formatted_address" : "2222+22 Loufadou, Chad",
         "geometry" : {
            "bounds" : {
               "northeast" : {
                  "lat" : 14.000125,
                  "lng" : 15.000125
               },
               "southwest" : {
                  "lat" : 14,
                  "lng" : 15
               }
            },
            "location" : {
               "lat" : 14,
               "lng" : 15
            },
            "location_type" : "ROOFTOP",
            "viewport" : {
               "northeast" : {
                  "lat" : 14.0014114802915,
                  "lng" : 15.0014114802915
               },
               "southwest" : {
                  "lat" : 13.9987135197085,
                  "lng" : 14.9987135197085
               }
            }
         },
         "place_id" : "GhIJAAAAAAAALEAR________LUA",
         "plus_code" : {
            "compound_code" : "2222+22 Loufadou, Chad",
            "global_code" : "7F6Q2222+22"
         },
         "types" : [ "plus_code" ]
      },
      {
         "address_components" : [
            {
               "long_name" : "Kanem",
               "short_name" : "Kanem",
               "types" : [ "administrative_area_level_2", "political" ]
            },
            {
               "long_name" : "Kanem",
               "short_name" : "Kanem",
               "types" : [ "administrative_area_level_1", "political" ]
            },
            {
               "long_name" : "Chad",
               "short_name" : "TD",
               "types" : [ "country", "political" ]
            }
         ],
         "formatted_address" : "Kanem, Chad",
         "geometry" : {
            "bounds" : {
               "northeast" : {
                  "lat" : 14.611,
                  "lng" : 16.094018
               },
               "southwest" : {
                  "lat" : 13.6510421,
                  "lng" : 14.5451129
               }
            },
            "location" : {
               "lat" : 13.9850065,
               "lng" : 15.2194808
            },
            "location_type" : "APPROXIMATE",
            "viewport" : {
               "northeast" : {
                  "lat" : 14.611,
                  "lng" : 16.094018
               },
               "southwest" : {
                  "lat" : 13.6510421,
                  "lng" : 14.5451129
               }
            }
         },
         "place_id" : "ChIJf7DC8fxnFBERtoNDlC-8gUI",
         "types" : [ "administrative_area_level_2", "political" ]
      },
      {
         "address_components" : [
            {
               "long_name" : "Kanem",
               "short_name" : "Kanem",
               "types" : [ "administrative_area_level_1", "political" ]
            },
            {
               "long_name" : "Chad",
               "short_name" : "TD",
               "types" : [ "country", "political" ]
            }
         ],
         "formatted_address" : "Kanem, Chad",
         "geometry" : {
            "bounds" : {
               "northeast" : {
                  "lat" : 16.8056734,
                  "lng" : 17.1702349
               },
               "southwest" : {
                  "lat" : 13.1540001,
                  "lng" : 13.6519045
               }
            },
            "location" : {
               "lat" : 14.8781262,
               "lng" : 15.4068079
            },
            "location_type" : "APPROXIMATE",
            "viewport" : {
               "northeast" : {
                  "lat" : 16.8056734,
                  "lng" : 17.1702349
               },
               "southwest" : {
                  "lat" : 13.1540001,
                  "lng" : 13.6519045
               }
            }
         },
         "place_id" : "ChIJiXd_T2niExERLDJqrz_0AiU",
         "types" : [ "administrative_area_level_1", "political" ]
      },
      {
         "address_components" : [
            {
               "long_name" : "Chad",
               "short_name" : "TD",
               "types" : [ "country", "political" ]
            }
         ],
         "formatted_address" : "Chad",
         "geometry" : {
            "bounds" : {
               "northeast" : {
                  "lat" : 23.449228,
                  "lng" : 24.0000011
               },
               "southwest" : {
                  "lat" : 7.442975,
                  "lng" : 13.4699999
               }
            },
            "location" : {
               "lat" : 15.454166,
               "lng" : 18.732207
            },
            "location_type" : "APPROXIMATE",
            "viewport" : {
               "northeast" : {
                  "lat" : 23.449228,
                  "lng" : 24.0000011
               },
               "southwest" : {
                  "lat" : 7.442975,
                  "lng" : 13.4699999
               }
            }
         },
         "place_id" : "ChIJYXNnvXg55xARnIDAzluDYDs",
         "types" : [ "country", "political" ]
      }
   ],
   "status" : "OK"
}
