{
   "plus_code" : {
      "compound_code" : "QFFX+W63 Odunpazarı/Eskişehir, Turkey",
      "global_code" : "8GFGQFFX+W63"
   },
   "results" : [
      {
         "address_components" : [
            {
               "long_name" : "114",
               "short_name" : "114",
               "types" : [ "street_number" ]
            },
            {
               "long_name" : "Basın Şehitleri Caddesi",
               "short_name" : "Basın Şehitleri Cd.",
               "types" : [ "route" ]
            },
            {
               "long_name" : "Osmangazi",
               "short_name" : "Osmangazi",
               "types" : [ "administrative_area_level_4", "political" ]
            },
            {
               "long_name" : "Odunpazarı",
               "short_name" : "Odunpazarı",
               "types" : [ "administrative_area_level_2", "political" ]
            },
            {
               "long_name" : "Eskişehir",
               "short_name" : "Eskişehir",
               "types" : [ "administrative_area_level_1", "political" ]
            },
            {
               "long_name" : "Turkey",
               "short_name" : "TR",
               "types" : [ "country", "political" ]
            },
            {
               "long_name" : "26140",
               "short_name" : "26140",
               "types" : [ "postal_code" ]
            }
         ],
         "formatted_address" : "Osmangazi, Basın Şehitleri Cd. No:114, 26140 Odunpazarı/Eskişehir, Turkey",
         "geometry" : {
            "bounds" : {
               "northeast" : {
                  "lat" : 39.773949,
                  "lng" : 30.4989333
               },
               "southwest" : {
                  "lat" : 39.77379579999999,
                  "lng" : 30.4984604
               }
            },
            "location" : {
               "lat" : 39.7738856,
               "lng" : 30.4986935
            },
            "location_type" : "ROOFTOP",
            "viewport" : {
               "northeast" : {
                  "lat" : 39.77522138029151,
                  "lng" : 30.5000458302915
               },
               "southwest" : {
                  "lat" : 39.77252341970851,
                  "lng" : 30.4973478697085
               }
            }
         },
         "place_id" : "ChIJTzqn8HEWzBQR5fvovH49Byk",
         "types" : [ "premise" ]
      },
      {
         "address_components" : [
            {
               "long_name" : "169",
               "short_name" : "169",
               "types" : [ "street_number" ]
            },
            {
               "long_name" : "Basın Şehitleri Caddesi",
               "short_name" : "Basın Şehitleri Cd.",
               "types" : [ "route" ]
            },
            {
               "long_name" : "Osmangazi",
               "short_name" : "Osmangazi",
               "types" : [ "administrative_area_level_4", "political" ]
            },
            {
               "long_name" : "Odunpazarı",
               "short_name" : "Odunpazarı",
               "types" : [ "administrative_area_level_2", "political" ]
            },
            {
               "long_name" : "Eskişehir",
               "short_name" : "Eskişehir",
               "types" : [ "administrative_area_level_1", "political" ]
            },
            {
               "long_name" : "Turkey",
               "short_name" : "TR",
               "types" : [ "country", "political" ]
            },
            {
               "long_name" : "26140",
               "short_name" : "26140",
               "types" : [ "postal_code" ]
            }
         ],
         "formatted_address" : "Osmangazi, Basın Şehitleri Cd. No:169, 26140 Odunpazarı/Eskişehir, Turkey",
         "geometry" : {
            "location" : {
               "lat" : 39.7735434,
               "lng" : 30.4986493
            },
            "location_type" : "ROOFTOP",
            "viewport" : {
               "northeast" : {
                  "lat" : 39.7748923802915,
                  "lng" : 30.4999982802915
               },
               "southwest" : {
                  "lat" : 39.7721944197085,
                  "lng" : 30.4973003197085
               }
            }
         },
         "place_id" : "ChIJy9Jt_HEWzBQRojCGp74oxJs",
         "plus_code" : {
            "compound_code" : "QFFX+CF Odunpazarı/Eskişehir, Turkey",
            "global_code" : "8GFGQFFX+CF"
         },
         "types" : [ "street_address" ]
      },
      {
         "address_components" : [
            {
               "long_name" : "QFFX+W6",
               "short_name" : "QFFX+W6",
               "types" : [ "plus_code" ]
            },
            {
               "long_name" : "Odunpazarı",
               "short_name" : "Odunpazarı",
               "types" : [ "administrative_area_level_2", "political" ]
            },
            {
               "long_name" : "Eskişehir",
               "short_name" : "Eskişehir",
               "types" : [ "administrative_area_level_1", "political" ]
            },
            {
               "long_name" : "Turkey",
               "short_name" : "TR",
               "types" : [ "country", "political" ]
            }
         ],
         "formatted_address" : "QFFX+W6 Odunpazarı/Eskişehir, Turkey",
         "geometry" : {
            "bounds" : {
               "northeast" : {
                  "lat" : 39.774875,
                  "lng" : 30.498125
               },
               "southwest" : {
                  "lat" : 39.77475,
                  "lng" : 30.498
               }
            },
            "location" : {
               "lat" : 39.7747695,
               "lng" : 30.4980469
            },
            "location_type" : "GEOMETRIC_CENTER",
            "viewport" : {
               "northeast" : {
                  "lat" : 39.7761614802915,
                  "lng" : 30.4994114802915
               },
               "southwest" : {
                  "lat" : 39.77346351970851,
                  "lng" : 30.4967135197085
               }
            }
         },
         "place_id" : "GhIJGTigpSvjQ0ARy19rAIB_PkA",
         "plus_code" : {
            "compound_code" : "QFFX+W6 Odunpazarı/Eskişehir, Turkey",
            "global_code" : "8GFGQFFX+W6"
         },
         "types" : [ "plus_code" ]
      },
      {
         "address_components" : [
            {
               "long_name" : "173",
               "short_name" : "173",
               "types" : [ "street_number" ]
            },
            {
               "long_name" : "Basın Şehitleri Caddesi",
               "short_name" : "Basın Şehitleri Cd.",
               "types" : [ "route" ]
            },
            {
               "long_name" : "Osmangazi",
               "short_name" : "Osmangazi",
               "types" : [ "administrative_area_level_4", "political" ]
            },
            {
               "long_name" : "Odunpazarı",
               "short_name" : "Odunpazarı",
               "types" : [ "administrative_area_level_2", "political" ]
            },
            {
               "long_name" : "Eskişehir",
               "short_name" : "Eskişehir",
               "types" : [ "administrative_area_level_1", "political" ]
            },
            {
               "long_name" : "Turkey",
               "short_name" : "TR",
               "types" : [ "country", "political" ]
            },
            {
               "long_name" : "26140",
               "short_name" : "26140",
               "types" : [ "postal_code" ]
            }
         ],
         "formatted_address" : "Osmangazi, Basın Şehitleri Cd. No:173, 26140 Odunpazarı/Eskişehir, Turkey",
         "geometry" : {
            "location" : {
               "lat" : 39.7735896,
               "lng" : 30.498528
            },
            "location_type" : "RANGE_INTERPOLATED",
            "viewport" : {
               "northeast" : {
                  "lat" : 39.7749385802915,
                  "lng" : 30.4998769802915
               },
               "southwest" : {
                  "lat" : 39.7722406197085,
                  "lng" : 30.4971790197085
               }
            }
         },
         "place_id" : "Ek1Pc21hbmdhemksIEJhc8SxbiDFnmVoaXRsZXJpIENkLiBObzoxNzMsIDI2MTQwIE9kdW5wYXphcsSxL0Vza2nFn2VoaXIsIFR1cmtleSIbEhkKFAoSCR8L-OFxFswUEVi8avYLs5RmEK0B",
         "types" : [ "street_address" ]
      },
      {
         "address_components" : [
            {
               "long_name" : "199-161",
               "short_name" : "199-161",
               "types" : [ "street_number" ]
            },
            {
               "long_name" : "Basın Şehitleri Caddesi",
               "short_name" : "Basın Şehitleri Cd.",
               "types" : [ "route" ]
            },
            {
               "long_name" : "Osmangazi",
               "short_name" : "Osmangazi",
               "types" : [ "administrative_area_level_4", "political" ]
            },
            {
               "long_name" : "Odunpazarı",
               "short_name" : "Odunpazarı",
               "types" : [ "administrative_area_level_2", "political" ]
            },
            {
               "long_name" : "Eskişehir",
               "short_name" : "Eskişehir",
               "types" : [ "administrative_area_level_1", "political" ]
            },
            {
               "long_name" : "Turkey",
               "short_name" : "TR",
               "types" : [ "country", "political" ]
            },
            {
               "long_name" : "26140",
               "short_name" : "26140",
               "types" : [ "postal_code" ]
            }
         ],
         "formatted_address" : "Osmangazi, Basın Şehitleri Cd. 199-161, 26140 Odunpazarı/Eskişehir, Turkey",
         "geometry" : {
            "bounds" : {
               "northeast" : {
                  "lat" : 39.7736739,
                  "lng" : 30.4991845
               },
               "southwest" : {
                  "lat" : 39.7733659,
                  "lng" : 30.4968965
               }
            },
            "location" : {
               "lat" : 39.7735268,
               "lng" : 30.4980389
            },
            "location_type" : "GEOMETRIC_CENTER",
            "viewport" : {
               "northeast" : {
                  "lat" : 39.7748688802915,
                  "lng" : 30.4993894802915
               },
               "southwest" : {
                  "lat" : 39.7721709197085,
                  "lng" : 30.4966915197085
               }
            }
         },
         "place_id" : "ChIJHwv44XEWzBQRWLxq9guzlGY",
         "types" : [ "route" ]
      },
      {
         "address_components" : [
            {
               "long_name" : "26140",
               "short_name" : "26140",
               "types" : [ "postal_code" ]
            },
            {
               "long_name" : "Osmangazi",
               "short_name" : "Osmangazi",
               "types" : [ "administrative_area_level_4", "political" ]
            },
            {
               "long_name" : "Odunpazarı",
               "short_name" : "Odunpazarı",
               "types" : [ "administrative_area_level_2", "political" ]
            },
            {
               "long_name" : "Eskişehir",
               "short_name" : "Eskişehir",
               "types" : [ "administrative_area_level_1", "political" ]
            },
            {
               "long_name" : "Turkey",
               "short_name" : "TR",
               "types" : [ "country", "political" ]
            }
         ],
         "formatted_address" : "Osmangazi, 26140 Odunpazarı/Eskişehir, Turkey",
         "geometry" : {
            "bounds" : {
               "northeast" : {
                  "lat" : 39.77764,
                  "lng" : 30.5011611
               },
               "southwest" : {
                  "lat" : 39.767992,
                  "lng" : 30.4831999
               }
            },
            "location" : {
               "lat" : 39.7732371,
               "lng" : 30.4948021
            },
            "location_type" : "APPROXIMATE",
            "viewport" : {
               "northeast" : {
                  "lat" : 39.77764,
                  "lng" : 30.5011611
               },
               "southwest" : {
                  "lat" : 39.767992,
                  "lng" : 30.4831999
               }
            }
         },
         "place_id" : "ChIJW_4gnmUWzBQR3-9UCrCxBII",
         "types" : [ "postal_code" ]
      },
      {
         "address_components" : [
            {
               "long_name" : "Osmangazi",
               "short_name" : "Osmangazi",
               "types" : [ "administrative_area_level_4", "political" ]
            },
            {
               "long_name" : "Odunpazarı",
               "short_name" : "Odunpazarı",
               "types" : [ "administrative_area_level_2", "political" ]
            },
            {
               "long_name" : "Eskişehir",
               "short_name" : "Eskişehir",
               "types" : [ "administrative_area_level_1", "political" ]
            },
            {
               "long_name" : "Turkey",
               "short_name" : "TR",
               "types" : [ "country", "political" ]
            },
            {
               "long_name" : "26140",
               "short_name" : "26140",
               "types" : [ "postal_code" ]
            }
         ],
         "formatted_address" : "Osmangazi, 26140 Odunpazarı/Eskişehir, Turkey",
         "geometry" : {
            "bounds" : {
               "northeast" : {
                  "lat" : 39.77764,
                  "lng" : 30.5011611
               },
               "southwest" : {
                  "lat" : 39.767992,
                  "lng" : 30.4831999
               }
            },
            "location" : {
               "lat" : 39.7732371,
               "lng" : 30.4948021
            },
            "location_type" : "APPROXIMATE",
            "viewport" : {
               "northeast" : {
                  "lat" : 39.77764,
                  "lng" : 30.5011611
               },
               "southwest" : {
                  "lat" : 39.767992,
                  "lng" : 30.4831999
               }
            }
         },
         "place_id" : "ChIJd7CTgmUWzBQRwHH_xre-yPo",
         "types" : [ "administrative_area_level_4", "political" ]
      },
      {
         "address_components" : [
            {
               "long_name" : "Eskişehir",
               "short_name" : "Eskişehir",
               "types" : [ "locality", "political" ]
            },
            {
               "long_name" : "Eskişehir",
               "short_name" : "Eskişehir",
               "types" : [ "administrative_area_level_1", "political" ]
            },
            {
               "long_name" : "Turkey",
               "short_name" : "TR",
               "types" : [ "country", "political" ]
            }
         ],
         "formatted_address" : "Eskişehir, Turkey",
         "geometry" : {
            "bounds" : {
               "northeast" : {
                  "lat" : 39.828122,
                  "lng" : 30.680574
               },
               "southwest" : {
                  "lat" : 39.702564,
                  "lng" : 30.409055
               }
            },
            "location" : {
               "lat" : 39.7667061,
               "lng" : 30.52563109999999
            },
            "location_type" : "APPROXIMATE",
            "viewport" : {
               "northeast" : {
                  "lat" : 39.828122,
                  "lng" : 30.680574
               },
               "southwest" : {
                  "lat" : 39.702564,
                  "lng" : 30.409055
               }
            }
         },
         "place_id" : "ChIJXw4MIgg-zBQRCJoEOFk5ibw",
         "types" : [ "locality", "political" ]
      },
      {
         "address_components" : [
            {
               "long_name" : "Odunpazarı",
               "short_name" : "Odunpazarı",
               "types" : [ "administrative_area_level_2", "political" ]
            },
            {
               "long_name" : "Eskişehir",
               "short_name" : "Eskişehir",
               "types" : [ "administrative_area_level_1", "political" ]
            },
            {
               "long_name" : "Turkey",
               "short_name" : "TR",
               "types" : [ "country", "political" ]
            }
         ],
         "formatted_address" : "Odunpazarı/Eskişehir, Turkey",
         "geometry" : {
            "bounds" : {
               "northeast" : {
                  "lat" : 39.8579331,
                  "lng" : 30.8872509
               },
               "southwest" : {
                  "lat" : 39.4395509,
                  "lng" : 30.2223909
               }
            },
            "location" : {
               "lat" : 39.64829719999999,
               "lng" : 30.5739579
            },
            "location_type" : "APPROXIMATE",
            "viewport" : {
               "northeast" : {
                  "lat" : 39.8579331,
                  "lng" : 30.8872509
               },
               "southwest" : {
                  "lat" : 39.4395509,
                  "lng" : 30.2223909
               }
            }
         },
         "place_id" : "ChIJo0vBmz4izBQRPJU1OOJuX_Q",
         "types" : [ "administrative_area_level_2", "political" ]
      },
      {
         "address_components" : [
            {
               "long_name" : "Eskişehir",
               "short_name" : "Eskişehir",
               "types" : [ "administrative_area_level_1", "political" ]
            },
            {
               "long_name" : "Turkey",
               "short_name" : "TR",
               "types" : [ "country", "political" ]
            }
         ],
         "formatted_address" : "Eskişehir, Turkey",
         "geometry" : {
            "bounds" : {
               "northeast" : {
                  "lat" : 40.158349,
                  "lng" : 32.009396
               },
               "southwest" : {
                  "lat" : 39.029024,
                  "lng" : 29.97498299999999
               }
            },
            "location" : {
               "lat" : 39.6329657,
               "lng" : 31.2626366
            },
            "location_type" : "APPROXIMATE",
            "viewport" : {
               "northeast" : {
                  "lat" : 40.158349,
                  "lng" : 32.009396
               },
               "southwest" : {
                  "lat" : 39.029024,
                  "lng" : 29.97498299999999
               }
            }
         },
         "place_id" : "ChIJF44c-PoVzBQRTydTJ7V7mtg",
         "types" : [ "administrative_area_level_1", "political" ]
      },
      {
         "address_components" : [
            {
               "long_name" : "Turkey",
               "short_name" : "TR",
               "types" : [ "country", "political" ]
            }
         ],
         "formatted_address" : "Turkey",
         "geometry" : {
            "bounds" : {
               "northeast" : {
                  "lat" : 42.3666999,
                  "lng" : 44.8178449
               },
               "southwest" : {
                  "lat" : 35.808592,
                  "lng" : 25.5377
               }
            },
            "location" : {
               "lat" : 38.963745,
               "lng" : 35.243322
            },
            "location_type" : "APPROXIMATE",
            "viewport" : {
               "northeast" : {
                  "lat" : 42.3666999,
                  "lng" : 44.8178449
               },
               "southwest" : {
                  "lat" : 35.808592,
                  "lng" : 25.5377
               }
            }
         },
         "place_id" : "ChIJcSZPllwVsBQRKl9iKtTb2UA",
         "types" : [ "country", "political" ]
      }
   ],
   "status" : "OK"
}
