{
   "plus_code" : {
      "compound_code" : "RGGJ+5C Odunpazarı/Eskişehir, Turkey",
      "global_code" : "8GFGRGGJ+5C"
   },
   "results" : [
      {
         "address_components" : [
            {
               "long_name" : "RGGJ+5C",
               "short_name" : "RGGJ+5C",
               "types" : [ "plus_code" ]
            },
            {
               "long_name" : "Odunpazarı",
               "short_name" : "Odunpazarı",
               "types" : [ "administrative_area_level_2", "political" ]
            },
            {
               "long_name" : "Eskişehir",
               "short_name" : "Eskişehir",
               "types" : [ "administrative_area_level_1", "political" ]
            },
            {
               "long_name" : "Turkey",
               "short_name" : "TR",
               "types" : [ "country", "political" ]
            }
         ],
         "formatted_address" : "RGGJ+5C Odunpazarı/Eskişehir, Turkey",
         "geometry" : {
            "bounds" : {
               "northeast" : {
                  "lat" : 39.8255,
                  "lng" : 30.531125
               },
               "southwest" : {
                  "lat" : 39.825375,
                  "lng" : 30.531
               }
            },
            "location" : {
               "lat" : 39.8254131,
               "lng" : 30.5310059
            },
            "location_type" : "GEOMETRIC_CENTER",
            "viewport" : {
               "northeast" : {
                  "lat" : 39.8267864802915,
                  "lng" : 30.5324114802915
               },
               "southwest" : {
                  "lat" : 39.8240885197085,
                  "lng" : 30.5297135197085
               }
            }
         },
         "place_id" : "GhIJURjvIqfpQ0ARqXuuAPCHPkA",
         "plus_code" : {
            "compound_code" : "RGGJ+5C Odunpazarı/Eskişehir, Turkey",
            "global_code" : "8GFGRGGJ+5C"
         },
         "types" : [ "plus_code" ]
      },
      {
         "address_components" : [
            {
               "long_name" : "No:34",
               "short_name" : "No:34",
               "types" : [ "street_number" ]
            },
            {
               "long_name" : "22. Sokak",
               "short_name" : "22. Sk.",
               "types" : [ "route" ]
            },
            {
               "long_name" : "Koyunlar",
               "short_name" : "Koyunlar",
               "types" : [ "administrative_area_level_4", "political" ]
            },
            {
               "long_name" : "Tepebaşı",
               "short_name" : "Tepebaşı",
               "types" : [ "administrative_area_level_2", "political" ]
            },
            {
               "long_name" : "Eskişehir",
               "short_name" : "Eskişehir",
               "types" : [ "administrative_area_level_1", "political" ]
            },
            {
               "long_name" : "Turkey",
               "short_name" : "TR",
               "types" : [ "country", "political" ]
            },
            {
               "long_name" : "26555",
               "short_name" : "26555",
               "types" : [ "postal_code" ]
            }
         ],
         "formatted_address" : "Koyunlar, 22. Sk. No:34, 26555 Tepebaşı/Eskişehir, Turkey",
         "geometry" : {
            "location" : {
               "lat" : 39.8261158,
               "lng" : 30.5331556
            },
            "location_type" : "ROOFTOP",
            "viewport" : {
               "northeast" : {
                  "lat" : 39.8274647802915,
                  "lng" : 30.5345045802915
               },
               "southwest" : {
                  "lat" : 39.8247668197085,
                  "lng" : 30.5318066197085
               }
            }
         },
         "place_id" : "ChIJK6ZJdqw_zBQRi8oig_WpPnY",
         "plus_code" : {
            "compound_code" : "RGGM+C7 Odunpazarı/Eskişehir, Turkey",
            "global_code" : "8GFGRGGM+C7"
         },
         "types" : [ "street_address" ]
      },
      {
         "address_components" : [
            {
               "long_name" : "34",
               "short_name" : "34",
               "types" : [ "street_number" ]
            },
            {
               "long_name" : "22. Sokak",
               "short_name" : "22. Sk.",
               "types" : [ "route" ]
            },
            {
               "long_name" : "Koyunlar",
               "short_name" : "Koyunlar",
               "types" : [ "administrative_area_level_4", "political" ]
            },
            {
               "long_name" : "Tepebaşı",
               "short_name" : "Tepebaşı",
               "types" : [ "administrative_area_level_2", "political" ]
            },
            {
               "long_name" : "Eskişehir",
               "short_name" : "Eskişehir",
               "types" : [ "administrative_area_level_1", "political" ]
            },
            {
               "long_name" : "Turkey",
               "short_name" : "TR",
               "types" : [ "country", "political" ]
            },
            {
               "long_name" : "26555",
               "short_name" : "26555",
               "types" : [ "postal_code" ]
            }
         ],
         "formatted_address" : "Koyunlar, 22. Sk. No:34, 26555 Tepebaşı/Eskişehir, Turkey",
         "geometry" : {
            "bounds" : {
               "northeast" : {
                  "lat" : 39.8264836,
                  "lng" : 30.5341568
               },
               "southwest" : {
                  "lat" : 39.8252404,
                  "lng" : 30.5317103
               }
            },
            "location" : {
               "lat" : 39.825867,
               "lng" : 30.532938
            },
            "location_type" : "GEOMETRIC_CENTER",
            "viewport" : {
               "northeast" : {
                  "lat" : 39.8272109802915,
                  "lng" : 30.5342825302915
               },
               "southwest" : {
                  "lat" : 39.8245130197085,
                  "lng" : 30.53158456970851
               }
            }
         },
         "place_id" : "ChIJpUqHmt4_zBQROCwFSNZZ8M8",
         "types" : [ "route" ]
      },
      {
         "address_components" : [
            {
               "long_name" : "26555",
               "short_name" : "26555",
               "types" : [ "postal_code" ]
            },
            {
               "long_name" : "Koyunlar",
               "short_name" : "Koyunlar",
               "types" : [ "administrative_area_level_4", "political" ]
            },
            {
               "long_name" : "Tepebaşı",
               "short_name" : "Tepebaşı",
               "types" : [ "administrative_area_level_2", "political" ]
            },
            {
               "long_name" : "Eskişehir",
               "short_name" : "Eskişehir",
               "types" : [ "administrative_area_level_1", "political" ]
            },
            {
               "long_name" : "Turkey",
               "short_name" : "TR",
               "types" : [ "country", "political" ]
            }
         ],
         "formatted_address" : "Koyunlar, 26555 Tepebaşı/Eskişehir, Turkey",
         "geometry" : {
            "bounds" : {
               "northeast" : {
                  "lat" : 39.888514,
                  "lng" : 30.5530811
               },
               "southwest" : {
                  "lat" : 39.815289,
                  "lng" : 30.493959
               }
            },
            "location" : {
               "lat" : 39.85544609999999,
               "lng" : 30.5221524
            },
            "location_type" : "APPROXIMATE",
            "viewport" : {
               "northeast" : {
                  "lat" : 39.888514,
                  "lng" : 30.5530811
               },
               "southwest" : {
                  "lat" : 39.815289,
                  "lng" : 30.493959
               }
            }
         },
         "place_id" : "ChIJy0C_bKtqzBQRA-DeqszPy6M",
         "types" : [ "postal_code" ]
      },
      {
         "address_components" : [
            {
               "long_name" : "Koyunlar",
               "short_name" : "Koyunlar",
               "types" : [ "administrative_area_level_4", "political" ]
            },
            {
               "long_name" : "Tepebaşı",
               "short_name" : "Tepebaşı",
               "types" : [ "administrative_area_level_2", "political" ]
            },
            {
               "long_name" : "Eskişehir",
               "short_name" : "Eskişehir",
               "types" : [ "administrative_area_level_1", "political" ]
            },
            {
               "long_name" : "Turkey",
               "short_name" : "TR",
               "types" : [ "country", "political" ]
            },
            {
               "long_name" : "26555",
               "short_name" : "26555",
               "types" : [ "postal_code" ]
            }
         ],
         "formatted_address" : "Koyunlar, 26555 Tepebaşı/Eskişehir, Turkey",
         "geometry" : {
            "bounds" : {
               "northeast" : {
                  "lat" : 39.888514,
                  "lng" : 30.5530811
               },
               "southwest" : {
                  "lat" : 39.815289,
                  "lng" : 30.4935161
               }
            },
            "location" : {
               "lat" : 39.85544609999999,
               "lng" : 30.5221524
            },
            "location_type" : "APPROXIMATE",
            "viewport" : {
               "northeast" : {
                  "lat" : 39.888514,
                  "lng" : 30.5530811
               },
               "southwest" : {
                  "lat" : 39.815289,
                  "lng" : 30.4935161
               }
            }
         },
         "place_id" : "ChIJLYsJbKtqzBQR9JE6Y3zy1gc",
         "types" : [ "administrative_area_level_4", "political" ]
      },
      {
         "address_components" : [
            {
               "long_name" : "Tepebaşı",
               "short_name" : "Tepebaşı",
               "types" : [ "administrative_area_level_2", "political" ]
            },
            {
               "long_name" : "Eskişehir",
               "short_name" : "Eskişehir",
               "types" : [ "administrative_area_level_1", "political" ]
            },
            {
               "long_name" : "Turkey",
               "short_name" : "TR",
               "types" : [ "country", "political" ]
            }
         ],
         "formatted_address" : "Tepebaşı/Eskişehir, Turkey",
         "geometry" : {
            "bounds" : {
               "northeast" : {
                  "lat" : 40.016533,
                  "lng" : 30.972644
               },
               "southwest" : {
                  "lat" : 39.6223259,
                  "lng" : 30.1834609
               }
            },
            "location" : {
               "lat" : 39.8998742,
               "lng" : 30.4818446
            },
            "location_type" : "APPROXIMATE",
            "viewport" : {
               "northeast" : {
                  "lat" : 40.016533,
                  "lng" : 30.972644
               },
               "southwest" : {
                  "lat" : 39.6223259,
                  "lng" : 30.1834609
               }
            }
         },
         "place_id" : "ChIJyTIOP3Q_zBQRPhu6f8xRdbE",
         "types" : [ "administrative_area_level_2", "political" ]
      },
      {
         "address_components" : [
            {
               "long_name" : "Eskişehir",
               "short_name" : "Eskişehir",
               "types" : [ "administrative_area_level_1", "political" ]
            },
            {
               "long_name" : "Turkey",
               "short_name" : "TR",
               "types" : [ "country", "political" ]
            }
         ],
         "formatted_address" : "Eskişehir, Turkey",
         "geometry" : {
            "bounds" : {
               "northeast" : {
                  "lat" : 40.158349,
                  "lng" : 32.009396
               },
               "southwest" : {
                  "lat" : 39.029024,
                  "lng" : 29.97498299999999
               }
            },
            "location" : {
               "lat" : 39.6329657,
               "lng" : 31.2626366
            },
            "location_type" : "APPROXIMATE",
            "viewport" : {
               "northeast" : {
                  "lat" : 40.158349,
                  "lng" : 32.009396
               },
               "southwest" : {
                  "lat" : 39.029024,
                  "lng" : 29.97498299999999
               }
            }
         },
         "place_id" : "ChIJF44c-PoVzBQRTydTJ7V7mtg",
         "types" : [ "administrative_area_level_1", "political" ]
      },
      {
         "address_components" : [
            {
               "long_name" : "Turkey",
               "short_name" : "TR",
               "types" : [ "country", "political" ]
            }
         ],
         "formatted_address" : "Turkey",
         "geometry" : {
            "bounds" : {
               "northeast" : {
                  "lat" : 42.3666999,
                  "lng" : 44.8178449
               },
               "southwest" : {
                  "lat" : 35.808592,
                  "lng" : 25.5377
               }
            },
            "location" : {
               "lat" : 38.963745,
               "lng" : 35.243322
            },
            "location_type" : "APPROXIMATE",
            "viewport" : {
               "northeast" : {
                  "lat" : 42.3666999,
                  "lng" : 44.8178449
               },
               "southwest" : {
                  "lat" : 35.808592,
                  "lng" : 25.5377
               }
            }
         },
         "place_id" : "ChIJcSZPllwVsBQRKl9iKtTb2UA",
         "types" : [ "country", "political" ]
      }
   ],
   "status" : "OK"
}
