{
   "plus_code" : {
      "compound_code" : "2X8X+V9M Üsküdar/İstanbul, Turkey",
      "global_code" : "8GHC2X8X+V9M"
   },
   "results" : [
      {
         "address_components" : [
            {
               "long_name" : "2X8X+V9",
               "short_name" : "2X8X+V9",
               "types" : [ "plus_code" ]
            },
            {
               "long_name" : "Üsküdar",
               "short_name" : "Üsküdar",
               "types" : [ "administrative_area_level_2", "political" ]
            },
            {
               "long_name" : "İstanbul",
               "short_name" : "İstanbul",
               "types" : [ "administrative_area_level_1", "political" ]
            },
            {
               "long_name" : "Turkey",
               "short_name" : "TR",
               "types" : [ "country", "political" ]
            }
         ],
         "formatted_address" : "2X8X+V9 Üsküdar/İstanbul, Turkey",
         "geometry" : {
            "bounds" : {
               "northeast" : {
                  "lat" : 41.01725,
                  "lng" : 28.9985
               },
               "southwest" : {
                  "lat" : 41.017125,
                  "lng" : 28.998375
               }
            },
            "location" : {
               "lat" : 41.0172106,
               "lng" : 28.9984131
            },
            "location_type" : "GEOMETRIC_CENTER",
            "viewport" : {
               "northeast" : {
                  "lat" : 41.01853648029149,
                  "lng" : 28.9997864802915
               },
               "southwest" : {
                  "lat" : 41.0158385197085,
                  "lng" : 28.9970885197085
               }
            }
         },
         "place_id" : "GhIJgBL69DOCREAR4WU8AJj_PEA",
         "plus_code" : {
            "compound_code" : "2X8X+V9 Üsküdar/İstanbul, Turkey",
            "global_code" : "8GHC2X8X+V9"
         },
         "types" : [ "plus_code" ]
      },
      {
         "address_components" : [
            {
               "long_name" : "3",
               "short_name" : "3",
               "types" : [ "street_number" ]
            },
            {
               "long_name" : "Üsküdar Harem Sahil Yolu",
               "short_name" : "Üsküdar Harem Sahil Yolu",
               "types" : [ "route" ]
            },
            {
               "long_name" : "Salacak",
               "short_name" : "Salacak",
               "types" : [ "administrative_area_level_4", "political" ]
            },
            {
               "long_name" : "Üsküdar",
               "short_name" : "Üsküdar",
               "types" : [ "administrative_area_level_2", "political" ]
            },
            {
               "long_name" : "İstanbul",
               "short_name" : "İstanbul",
               "types" : [ "administrative_area_level_1", "political" ]
            },
            {
               "long_name" : "Turkey",
               "short_name" : "TR",
               "types" : [ "country", "political" ]
            },
            {
               "long_name" : "34668",
               "short_name" : "34668",
               "types" : [ "postal_code" ]
            }
         ],
         "formatted_address" : "Salacak, Üsküdar Harem Sahil Yolu No:3, 34668 Üsküdar/İstanbul, Turkey",
         "geometry" : {
            "location" : {
               "lat" : 41.02075130000001,
               "lng" : 29.0072456
            },
            "location_type" : "RANGE_INTERPOLATED",
            "viewport" : {
               "northeast" : {
                  "lat" : 41.02210028029151,
                  "lng" : 29.0085945802915
               },
               "southwest" : {
                  "lat" : 41.01940231970851,
                  "lng" : 29.0058966197085
               }
            }
         },
         "place_id" : "EktTYWxhY2FrLCDDnHNrw7xkYXIgSGFyZW0gU2FoaWwgWW9sdSBObzozLCAzNDY2OCDDnHNrw7xkYXIvxLBzdGFuYnVsLCBUdXJrZXkiGhIYChQKEglPkfQPKbjKFBE619KMvfVi5hAD",
         "types" : [ "street_address" ]
      },
      {
         "address_components" : [
            {
               "long_name" : "Üsküdar Harem Sahil Yolu",
               "short_name" : "Üsküdar Harem Sahil Yolu",
               "types" : [ "route" ]
            },
            {
               "long_name" : "Salacak",
               "short_name" : "Salacak",
               "types" : [ "administrative_area_level_4", "political" ]
            },
            {
               "long_name" : "Üsküdar",
               "short_name" : "Üsküdar",
               "types" : [ "administrative_area_level_2", "political" ]
            },
            {
               "long_name" : "İstanbul",
               "short_name" : "İstanbul",
               "types" : [ "administrative_area_level_1", "political" ]
            },
            {
               "long_name" : "Turkey",
               "short_name" : "TR",
               "types" : [ "country", "political" ]
            },
            {
               "long_name" : "34668",
               "short_name" : "34668",
               "types" : [ "postal_code" ]
            }
         ],
         "formatted_address" : "Salacak, Üsküdar Harem Sahil Yolu, 34668 Üsküdar/İstanbul, Turkey",
         "geometry" : {
            "bounds" : {
               "northeast" : {
                  "lat" : 41.0220092,
                  "lng" : 29.0077292
               },
               "southwest" : {
                  "lat" : 41.0201012,
                  "lng" : 29.0065417
               }
            },
            "location" : {
               "lat" : 41.0210035,
               "lng" : 29.0069881
            },
            "location_type" : "GEOMETRIC_CENTER",
            "viewport" : {
               "northeast" : {
                  "lat" : 41.0224041802915,
                  "lng" : 29.0084844302915
               },
               "southwest" : {
                  "lat" : 41.0197062197085,
                  "lng" : 29.0057864697085
               }
            }
         },
         "place_id" : "ChIJB71xCSm4yhQRhHlnik8YpQU",
         "types" : [ "route" ]
      },
      {
         "address_components" : [
            {
               "long_name" : "Turkey",
               "short_name" : "TR",
               "types" : [ "country", "political" ]
            }
         ],
         "formatted_address" : "Turkey",
         "geometry" : {
            "bounds" : {
               "northeast" : {
                  "lat" : 42.3666999,
                  "lng" : 44.8178449
               },
               "southwest" : {
                  "lat" : 35.808592,
                  "lng" : 25.5377
               }
            },
            "location" : {
               "lat" : 38.963745,
               "lng" : 35.243322
            },
            "location_type" : "APPROXIMATE",
            "viewport" : {
               "northeast" : {
                  "lat" : 42.3666999,
                  "lng" : 44.8178449
               },
               "southwest" : {
                  "lat" : 35.808592,
                  "lng" : 25.5377
               }
            }
         },
         "place_id" : "ChIJcSZPllwVsBQRKl9iKtTb2UA",
         "types" : [ "country", "political" ]
      }
   ],
   "status" : "OK"
}
