{
   "plus_code" : {
      "compound_code" : "R3M3+RQ İzmit/Kocaeli, Turkey",
      "global_code" : "8GGGR3M3+RQ"
   },
   "results" : [
      {
         "address_components" : [
            {
               "long_name" : "R3M3+RQ",
               "short_name" : "R3M3+RQ",
               "types" : [ "plus_code" ]
            },
            {
               "long_name" : "İzmit",
               "short_name" : "İzmit",
               "types" : [ "administrative_area_level_2", "political" ]
            },
            {
               "long_name" : "Kocaeli",
               "short_name" : "Kocaeli",
               "types" : [ "administrative_area_level_1", "political" ]
            },
            {
               "long_name" : "Turkey",
               "short_name" : "TR",
               "types" : [ "country", "political" ]
            }
         ],
         "formatted_address" : "R3M3+RQ İzmit/Kocaeli, Turkey",
         "geometry" : {
            "bounds" : {
               "northeast" : {
                  "lat" : 40.834625,
                  "lng" : 30.0545
               },
               "southwest" : {
                  "lat" : 40.8345,
                  "lng" : 30.054375
               }
            },
            "location" : {
               "lat" : 40.8345931,
               "lng" : 30.0544739
            },
            "location_type" : "GEOMETRIC_CENTER",
            "viewport" : {
               "northeast" : {
                  "lat" : 40.8359114802915,
                  "lng" : 30.0557864802915
               },
               "southwest" : {
                  "lat" : 40.8332135197085,
                  "lng" : 30.0530885197085
               }
            }
         },
         "place_id" : "GhIJz_ta8tNqREARTvxiAPINPkA",
         "plus_code" : {
            "compound_code" : "R3M3+RQ İzmit/Kocaeli, Turkey",
            "global_code" : "8GGGR3M3+RQ"
         },
         "types" : [ "plus_code" ]
      },
      {
         "address_components" : [
            {
               "long_name" : "Unnamed Road",
               "short_name" : "Unnamed Road",
               "types" : [ "route" ]
            },
            {
               "long_name" : "İzmit",
               "short_name" : "İzmit",
               "types" : [ "administrative_area_level_2", "political" ]
            },
            {
               "long_name" : "Kocaeli",
               "short_name" : "Kocaeli",
               "types" : [ "administrative_area_level_1", "political" ]
            },
            {
               "long_name" : "Turkey",
               "short_name" : "TR",
               "types" : [ "country", "political" ]
            }
         ],
         "formatted_address" : "Unnamed Road, İzmit/Kocaeli, Turkey",
         "geometry" : {
            "bounds" : {
               "northeast" : {
                  "lat" : 40.8333424,
                  "lng" : 30.0534645
               },
               "southwest" : {
                  "lat" : 40.83111419999999,
                  "lng" : 30.0498322
               }
            },
            "location" : {
               "lat" : 40.832901,
               "lng" : 30.0511704
            },
            "location_type" : "GEOMETRIC_CENTER",
            "viewport" : {
               "northeast" : {
                  "lat" : 40.8335772802915,
                  "lng" : 30.0534645
               },
               "southwest" : {
                  "lat" : 40.8308793197085,
                  "lng" : 30.0498322
               }
            }
         },
         "place_id" : "ChIJ7ySsxZBTyxQRQOXnRnozDto",
         "types" : [ "route" ]
      },
      {
         "address_components" : [
            {
               "long_name" : "Orhaniye",
               "short_name" : "Orhaniye",
               "types" : [ "administrative_area_level_4", "political" ]
            },
            {
               "long_name" : "İzmit",
               "short_name" : "İzmit",
               "types" : [ "administrative_area_level_2", "political" ]
            },
            {
               "long_name" : "Kocaeli",
               "short_name" : "Kocaeli",
               "types" : [ "administrative_area_level_1", "political" ]
            },
            {
               "long_name" : "Turkey",
               "short_name" : "TR",
               "types" : [ "country", "political" ]
            },
            {
               "long_name" : "41001",
               "short_name" : "41001",
               "types" : [ "postal_code" ]
            }
         ],
         "formatted_address" : "Orhaniye, 41001 İzmit/Kocaeli, Turkey",
         "geometry" : {
            "bounds" : {
               "northeast" : {
                  "lat" : 40.863942,
                  "lng" : 30.098753
               },
               "southwest" : {
                  "lat" : 40.83088499999999,
                  "lng" : 30.0487261
               }
            },
            "location" : {
               "lat" : 40.8496315,
               "lng" : 30.0723009
            },
            "location_type" : "APPROXIMATE",
            "viewport" : {
               "northeast" : {
                  "lat" : 40.863942,
                  "lng" : 30.098753
               },
               "southwest" : {
                  "lat" : 40.83088499999999,
                  "lng" : 30.0487261
               }
            }
         },
         "place_id" : "ChIJccInJ6BUyxQRrI9H6OZP0Gs",
         "types" : [ "administrative_area_level_4", "political" ]
      },
      {
         "address_components" : [
            {
               "long_name" : "41001",
               "short_name" : "41001",
               "types" : [ "postal_code" ]
            },
            {
               "long_name" : "Orhaniye",
               "short_name" : "Orhaniye",
               "types" : [ "administrative_area_level_4", "political" ]
            },
            {
               "long_name" : "İzmit",
               "short_name" : "İzmit",
               "types" : [ "administrative_area_level_2", "political" ]
            },
            {
               "long_name" : "Kocaeli",
               "short_name" : "Kocaeli",
               "types" : [ "administrative_area_level_1", "political" ]
            },
            {
               "long_name" : "Turkey",
               "short_name" : "TR",
               "types" : [ "country", "political" ]
            }
         ],
         "formatted_address" : "Orhaniye, 41001 İzmit/Kocaeli, Turkey",
         "geometry" : {
            "bounds" : {
               "northeast" : {
                  "lat" : 40.863942,
                  "lng" : 30.098753
               },
               "southwest" : {
                  "lat" : 40.83088499999999,
                  "lng" : 30.0487261
               }
            },
            "location" : {
               "lat" : 40.8496315,
               "lng" : 30.0723009
            },
            "location_type" : "APPROXIMATE",
            "viewport" : {
               "northeast" : {
                  "lat" : 40.863942,
                  "lng" : 30.098753
               },
               "southwest" : {
                  "lat" : 40.83088499999999,
                  "lng" : 30.0487261
               }
            }
         },
         "place_id" : "ChIJdzh1mJtUyxQROpdxdd8Dp3w",
         "types" : [ "postal_code" ]
      },
      {
         "address_components" : [
            {
               "long_name" : "İzmit",
               "short_name" : "İzmit",
               "types" : [ "administrative_area_level_2", "political" ]
            },
            {
               "long_name" : "Kocaeli",
               "short_name" : "Kocaeli",
               "types" : [ "administrative_area_level_1", "political" ]
            },
            {
               "long_name" : "Turkey",
               "short_name" : "TR",
               "types" : [ "country", "political" ]
            }
         ],
         "formatted_address" : "İzmit/Kocaeli, Turkey",
         "geometry" : {
            "bounds" : {
               "northeast" : {
                  "lat" : 40.971557,
                  "lng" : 30.2639339
               },
               "southwest" : {
                  "lat" : 40.720553,
                  "lng" : 29.8541681
               }
            },
            "location" : {
               "lat" : 40.8506635,
               "lng" : 30.0202964
            },
            "location_type" : "APPROXIMATE",
            "viewport" : {
               "northeast" : {
                  "lat" : 40.971557,
                  "lng" : 30.2639339
               },
               "southwest" : {
                  "lat" : 40.720553,
                  "lng" : 29.8541681
               }
            }
         },
         "place_id" : "ChIJL2DfPLZQyxQRitx6sY9PIGU",
         "types" : [ "administrative_area_level_2", "political" ]
      },
      {
         "address_components" : [
            {
               "long_name" : "Kocaeli",
               "short_name" : "Kocaeli",
               "types" : [ "administrative_area_level_1", "political" ]
            },
            {
               "long_name" : "Turkey",
               "short_name" : "TR",
               "types" : [ "country", "political" ]
            }
         ],
         "formatted_address" : "Kocaeli, Turkey",
         "geometry" : {
            "bounds" : {
               "northeast" : {
                  "lat" : 41.20976,
                  "lng" : 30.367743
               },
               "southwest" : {
                  "lat" : 40.524151,
                  "lng" : 29.3331261
               }
            },
            "location" : {
               "lat" : 40.8532704,
               "lng" : 29.8815203
            },
            "location_type" : "APPROXIMATE",
            "viewport" : {
               "northeast" : {
                  "lat" : 41.20976,
                  "lng" : 30.367743
               },
               "southwest" : {
                  "lat" : 40.524151,
                  "lng" : 29.3331261
               }
            }
         },
         "place_id" : "ChIJQ8zKb5QgyxQRWdhW642zLKg",
         "types" : [ "administrative_area_level_1", "political" ]
      },
      {
         "address_components" : [
            {
               "long_name" : "Turkey",
               "short_name" : "TR",
               "types" : [ "country", "political" ]
            }
         ],
         "formatted_address" : "Turkey",
         "geometry" : {
            "bounds" : {
               "northeast" : {
                  "lat" : 42.3666999,
                  "lng" : 44.8178449
               },
               "southwest" : {
                  "lat" : 35.808592,
                  "lng" : 25.5377
               }
            },
            "location" : {
               "lat" : 38.963745,
               "lng" : 35.243322
            },
            "location_type" : "APPROXIMATE",
            "viewport" : {
               "northeast" : {
                  "lat" : 42.3666999,
                  "lng" : 44.8178449
               },
               "southwest" : {
                  "lat" : 35.808592,
                  "lng" : 25.5377
               }
            }
         },
         "place_id" : "ChIJcSZPllwVsBQRKl9iKtTb2UA",
         "types" : [ "country", "political" ]
      }
   ],
   "status" : "OK"
}
