{
   "plus_code" : {
      "compound_code" : "QX9X+98P İzmit/Kocaeli, Turkey",
      "global_code" : "8GGFQX9X+98P"
   },
   "results" : [
      {
         "address_components" : [
            {
               "long_name" : "QX9X+98",
               "short_name" : "QX9X+98",
               "types" : [ "plus_code" ]
            },
            {
               "long_name" : "İzmit",
               "short_name" : "İzmit",
               "types" : [ "administrative_area_level_2", "political" ]
            },
            {
               "long_name" : "Kocaeli",
               "short_name" : "Kocaeli",
               "types" : [ "administrative_area_level_1", "political" ]
            },
            {
               "long_name" : "Turkey",
               "short_name" : "TR",
               "types" : [ "country", "political" ]
            }
         ],
         "formatted_address" : "QX9X+98 İzmit/Kocaeli, Turkey",
         "geometry" : {
            "bounds" : {
               "northeast" : {
                  "lat" : 40.7685,
                  "lng" : 29.998375
               },
               "southwest" : {
                  "lat" : 40.768375,
                  "lng" : 29.99825
               }
            },
            "location" : {
               "lat" : 40.7684517,
               "lng" : 29.9983406
            },
            "location_type" : "GEOMETRIC_CENTER",
            "viewport" : {
               "northeast" : {
                  "lat" : 40.7697864802915,
                  "lng" : 29.9996614802915
               },
               "southwest" : {
                  "lat" : 40.7670885197085,
                  "lng" : 29.9969635197085
               }
            }
         },
         "place_id" : "GhIJHgcUoFxiREAR3kTjP5P_PUA",
         "plus_code" : {
            "compound_code" : "QX9X+98 İzmit/Kocaeli, Turkey",
            "global_code" : "8GGFQX9X+98"
         },
         "types" : [ "plus_code" ]
      },
      {
         "address_components" : [
            {
               "long_name" : "9",
               "short_name" : "9",
               "types" : [ "street_number" ]
            },
            {
               "long_name" : "Emirgan Caddesi",
               "short_name" : "Emirgan Cd",
               "types" : [ "route" ]
            },
            {
               "long_name" : "Alikahya Fatih Mh.",
               "short_name" : "Alikahya Fatih Mh.",
               "types" : [ "administrative_area_level_4", "political" ]
            },
            {
               "long_name" : "İzmit",
               "short_name" : "İzmit",
               "types" : [ "administrative_area_level_3", "political" ]
            },
            {
               "long_name" : "İzmit",
               "short_name" : "İzmit",
               "types" : [ "administrative_area_level_2", "political" ]
            },
            {
               "long_name" : "Kocaeli",
               "short_name" : "Kocaeli",
               "types" : [ "administrative_area_level_1", "political" ]
            },
            {
               "long_name" : "Turkey",
               "short_name" : "TR",
               "types" : [ "country", "political" ]
            },
            {
               "long_name" : "41310",
               "short_name" : "41310",
               "types" : [ "postal_code" ]
            }
         ],
         "formatted_address" : "Alikahya Fatih Mh., Emirgan Cd No:9, 41310 İzmit/Kocaeli, Turkey",
         "geometry" : {
            "location" : {
               "lat" : 40.77085,
               "lng" : 29.998076
            },
            "location_type" : "ROOFTOP",
            "viewport" : {
               "northeast" : {
                  "lat" : 40.7721989802915,
                  "lng" : 29.9994249802915
               },
               "southwest" : {
                  "lat" : 40.7695010197085,
                  "lng" : 29.9967270197085
               }
            }
         },
         "place_id" : "ChIJBUSzb0dQyxQRh72hUGnX9sE",
         "plus_code" : {
            "compound_code" : "QXCX+86 İzmit/Kocaeli, Turkey",
            "global_code" : "8GGFQXCX+86"
         },
         "types" : [ "street_address" ]
      },
      {
         "address_components" : [
            {
               "long_name" : "Anadolu Otoyolu",
               "short_name" : "O-4",
               "types" : [ "route" ]
            },
            {
               "long_name" : "Alikahya Fatih",
               "short_name" : "Alikahya Fatih",
               "types" : [ "administrative_area_level_4", "political" ]
            },
            {
               "long_name" : "İzmit",
               "short_name" : "İzmit",
               "types" : [ "administrative_area_level_2", "political" ]
            },
            {
               "long_name" : "Kocaeli",
               "short_name" : "Kocaeli",
               "types" : [ "administrative_area_level_1", "political" ]
            },
            {
               "long_name" : "Turkey",
               "short_name" : "TR",
               "types" : [ "country", "political" ]
            },
            {
               "long_name" : "41310",
               "short_name" : "41310",
               "types" : [ "postal_code" ]
            }
         ],
         "formatted_address" : "Alikahya Fatih, O-4, 41310 İzmit/Kocaeli, Turkey",
         "geometry" : {
            "bounds" : {
               "northeast" : {
                  "lat" : 40.7706408,
                  "lng" : 30.0042454
               },
               "southwest" : {
                  "lat" : 40.7702411,
                  "lng" : 29.9974875
               }
            },
            "location" : {
               "lat" : 40.7706214,
               "lng" : 30.0008835
            },
            "location_type" : "GEOMETRIC_CENTER",
            "viewport" : {
               "northeast" : {
                  "lat" : 40.7717899302915,
                  "lng" : 30.0042454
               },
               "southwest" : {
                  "lat" : 40.7690919697085,
                  "lng" : 29.9974875
               }
            }
         },
         "place_id" : "ChIJERay8EZQyxQRQIxM_C73fqQ",
         "types" : [ "route" ]
      },
      {
         "address_components" : [
            {
               "long_name" : "39",
               "short_name" : "39",
               "types" : [ "street_number" ]
            },
            {
               "long_name" : "Meltem Caddesi",
               "short_name" : "Meltem Cd.",
               "types" : [ "route" ]
            },
            {
               "long_name" : "Alikahya Fatih",
               "short_name" : "Alikahya Fatih",
               "types" : [ "administrative_area_level_4", "political" ]
            },
            {
               "long_name" : "İzmit",
               "short_name" : "İzmit",
               "types" : [ "administrative_area_level_2", "political" ]
            },
            {
               "long_name" : "Kocaeli",
               "short_name" : "Kocaeli",
               "types" : [ "administrative_area_level_1", "political" ]
            },
            {
               "long_name" : "Turkey",
               "short_name" : "TR",
               "types" : [ "country", "political" ]
            },
            {
               "long_name" : "41310",
               "short_name" : "41310",
               "types" : [ "postal_code" ]
            }
         ],
         "formatted_address" : "Alikahya Fatih, Meltem Cd. No:39, 41310 İzmit/Kocaeli, Turkey",
         "geometry" : {
            "location" : {
               "lat" : 40.7710561,
               "lng" : 29.9985853
            },
            "location_type" : "RANGE_INTERPOLATED",
            "viewport" : {
               "northeast" : {
                  "lat" : 40.77240508029149,
                  "lng" : 29.9999342802915
               },
               "southwest" : {
                  "lat" : 40.7697071197085,
                  "lng" : 29.9972363197085
               }
            }
         },
         "place_id" : "Ej5BbGlrYWh5YSBGYXRpaCwgTWVsdGVtIENkLiBObzozOSwgNDEzMTAgxLB6bWl0L0tvY2FlbGksIFR1cmtleSIaEhgKFAoSCedIj3ZHUMsUEVpfFny6GfwJECc",
         "types" : [ "street_address" ]
      },
      {
         "address_components" : [
            {
               "long_name" : "Alikahya Fatih",
               "short_name" : "Alikahya Fatih",
               "types" : [ "administrative_area_level_4", "political" ]
            },
            {
               "long_name" : "İzmit",
               "short_name" : "İzmit",
               "types" : [ "administrative_area_level_2", "political" ]
            },
            {
               "long_name" : "Kocaeli",
               "short_name" : "Kocaeli",
               "types" : [ "administrative_area_level_1", "political" ]
            },
            {
               "long_name" : "Turkey",
               "short_name" : "TR",
               "types" : [ "country", "political" ]
            },
            {
               "long_name" : "41310",
               "short_name" : "41310",
               "types" : [ "postal_code" ]
            }
         ],
         "formatted_address" : "Alikahya Fatih, 41310 İzmit/Kocaeli, Turkey",
         "geometry" : {
            "bounds" : {
               "northeast" : {
                  "lat" : 40.782789,
                  "lng" : 30.005135
               },
               "southwest" : {
                  "lat" : 40.757675,
                  "lng" : 29.9753919
               }
            },
            "location" : {
               "lat" : 40.7679787,
               "lng" : 29.9942867
            },
            "location_type" : "APPROXIMATE",
            "viewport" : {
               "northeast" : {
                  "lat" : 40.782789,
                  "lng" : 30.005135
               },
               "southwest" : {
                  "lat" : 40.757675,
                  "lng" : 29.9753919
               }
            }
         },
         "place_id" : "ChIJ13IzPjxQyxQRlq5EDNIalPE",
         "types" : [ "administrative_area_level_4", "political" ]
      },
      {
         "address_components" : [
            {
               "long_name" : "41310",
               "short_name" : "41310",
               "types" : [ "postal_code" ]
            },
            {
               "long_name" : "İzmit",
               "short_name" : "İzmit",
               "types" : [ "administrative_area_level_2", "political" ]
            },
            {
               "long_name" : "Kocaeli",
               "short_name" : "Kocaeli",
               "types" : [ "administrative_area_level_1", "political" ]
            },
            {
               "long_name" : "Turkey",
               "short_name" : "TR",
               "types" : [ "country", "political" ]
            }
         ],
         "formatted_address" : "41310 İzmit/Kocaeli, Turkey",
         "geometry" : {
            "bounds" : {
               "northeast" : {
                  "lat" : 40.782789,
                  "lng" : 30.005135
               },
               "southwest" : {
                  "lat" : 40.75758099999999,
                  "lng" : 29.9753919
               }
            },
            "location" : {
               "lat" : 40.7679787,
               "lng" : 29.9942867
            },
            "location_type" : "APPROXIMATE",
            "viewport" : {
               "northeast" : {
                  "lat" : 40.782789,
                  "lng" : 30.005135
               },
               "southwest" : {
                  "lat" : 40.75758099999999,
                  "lng" : 29.9753919
               }
            }
         },
         "place_id" : "ChIJ3TNuPjxQyxQR_0ni0NtzCPQ",
         "types" : [ "postal_code" ]
      },
      {
         "address_components" : [
            {
               "long_name" : "İzmit",
               "short_name" : "İzmit",
               "types" : [ "administrative_area_level_2", "political" ]
            },
            {
               "long_name" : "Kocaeli",
               "short_name" : "Kocaeli",
               "types" : [ "administrative_area_level_1", "political" ]
            },
            {
               "long_name" : "Turkey",
               "short_name" : "TR",
               "types" : [ "country", "political" ]
            }
         ],
         "formatted_address" : "İzmit/Kocaeli, Turkey",
         "geometry" : {
            "bounds" : {
               "northeast" : {
                  "lat" : 40.971557,
                  "lng" : 30.2639339
               },
               "southwest" : {
                  "lat" : 40.720553,
                  "lng" : 29.8541681
               }
            },
            "location" : {
               "lat" : 40.8506635,
               "lng" : 30.0202964
            },
            "location_type" : "APPROXIMATE",
            "viewport" : {
               "northeast" : {
                  "lat" : 40.971557,
                  "lng" : 30.2639339
               },
               "southwest" : {
                  "lat" : 40.720553,
                  "lng" : 29.8541681
               }
            }
         },
         "place_id" : "ChIJL2DfPLZQyxQRitx6sY9PIGU",
         "types" : [ "administrative_area_level_2", "political" ]
      },
      {
         "address_components" : [
            {
               "long_name" : "Kocaeli",
               "short_name" : "Kocaeli",
               "types" : [ "administrative_area_level_1", "political" ]
            },
            {
               "long_name" : "Turkey",
               "short_name" : "TR",
               "types" : [ "country", "political" ]
            }
         ],
         "formatted_address" : "Kocaeli, Turkey",
         "geometry" : {
            "bounds" : {
               "northeast" : {
                  "lat" : 41.20976,
                  "lng" : 30.367743
               },
               "southwest" : {
                  "lat" : 40.524151,
                  "lng" : 29.3331261
               }
            },
            "location" : {
               "lat" : 40.8532704,
               "lng" : 29.8815203
            },
            "location_type" : "APPROXIMATE",
            "viewport" : {
               "northeast" : {
                  "lat" : 41.20976,
                  "lng" : 30.367743
               },
               "southwest" : {
                  "lat" : 40.524151,
                  "lng" : 29.3331261
               }
            }
         },
         "place_id" : "ChIJQ8zKb5QgyxQRWdhW642zLKg",
         "types" : [ "administrative_area_level_1", "political" ]
      },
      {
         "address_components" : [
            {
               "long_name" : "Turkey",
               "short_name" : "TR",
               "types" : [ "country", "political" ]
            }
         ],
         "formatted_address" : "Turkey",
         "geometry" : {
            "bounds" : {
               "northeast" : {
                  "lat" : 42.3666999,
                  "lng" : 44.8178449
               },
               "southwest" : {
                  "lat" : 35.808592,
                  "lng" : 25.5377
               }
            },
            "location" : {
               "lat" : 38.963745,
               "lng" : 35.243322
            },
            "location_type" : "APPROXIMATE",
            "viewport" : {
               "northeast" : {
                  "lat" : 42.3666999,
                  "lng" : 44.8178449
               },
               "southwest" : {
                  "lat" : 35.808592,
                  "lng" : 25.5377
               }
            }
         },
         "place_id" : "ChIJcSZPllwVsBQRKl9iKtTb2UA",
         "types" : [ "country", "political" ]
      }
   ],
   "status" : "OK"
}
