{
   "plus_code" : {
      "compound_code" : "QW4W+XJ İzmit/Kocaeli, Turkey",
      "global_code" : "8GGFQW4W+XJ"
   },
   "results" : [
      {
         "address_components" : [
            {
               "long_name" : "9",
               "short_name" : "9",
               "types" : [ "street_number" ]
            },
            {
               "long_name" : "Ömer Türkçakal Bulvarı",
               "short_name" : "Ömer Türkçakal Blv.",
               "types" : [ "route" ]
            },
            {
               "long_name" : "Sanayi",
               "short_name" : "Sanayi",
               "types" : [ "administrative_area_level_4", "political" ]
            },
            {
               "long_name" : "İzmit",
               "short_name" : "İzmit",
               "types" : [ "administrative_area_level_2", "political" ]
            },
            {
               "long_name" : "Kocaeli",
               "short_name" : "Kocaeli",
               "types" : [ "administrative_area_level_1", "political" ]
            },
            {
               "long_name" : "Turkey",
               "short_name" : "TR",
               "types" : [ "country", "political" ]
            },
            {
               "long_name" : "41040",
               "short_name" : "41040",
               "types" : [ "postal_code" ]
            }
         ],
         "formatted_address" : "Sanayi, Ömer Türkçakal Blv. No:9, 41040 İzmit/Kocaeli, Turkey",
         "geometry" : {
            "location" : {
               "lat" : 40.7571926,
               "lng" : 29.9455975
            },
            "location_type" : "ROOFTOP",
            "viewport" : {
               "northeast" : {
                  "lat" : 40.75854158029151,
                  "lng" : 29.9469464802915
               },
               "southwest" : {
                  "lat" : 40.75584361970851,
                  "lng" : 29.9442485197085
               }
            }
         },
         "place_id" : "ChIJj7N1W2FFyxQRYISLd6sCYFM",
         "plus_code" : {
            "compound_code" : "QW4W+V6 İzmit/Kocaeli, Turkey",
            "global_code" : "8GGFQW4W+V6"
         },
         "types" : [ "street_address" ]
      },
      {
         "address_components" : [
            {
               "long_name" : "QW4W+XJ",
               "short_name" : "QW4W+XJ",
               "types" : [ "plus_code" ]
            },
            {
               "long_name" : "İzmit",
               "short_name" : "İzmit",
               "types" : [ "administrative_area_level_2", "political" ]
            },
            {
               "long_name" : "Kocaeli",
               "short_name" : "Kocaeli",
               "types" : [ "administrative_area_level_1", "political" ]
            },
            {
               "long_name" : "Turkey",
               "short_name" : "TR",
               "types" : [ "country", "political" ]
            }
         ],
         "formatted_address" : "QW4W+XJ İzmit/Kocaeli, Turkey",
         "geometry" : {
            "bounds" : {
               "northeast" : {
                  "lat" : 40.7575,
                  "lng" : 29.94662499999999
               },
               "southwest" : {
                  "lat" : 40.757375,
                  "lng" : 29.9465
               }
            },
            "location" : {
               "lat" : 40.7574163,
               "lng" : 29.9465418
            },
            "location_type" : "GEOMETRIC_CENTER",
            "viewport" : {
               "northeast" : {
                  "lat" : 40.7587864802915,
                  "lng" : 29.9479114802915
               },
               "southwest" : {
                  "lat" : 40.75608851970851,
                  "lng" : 29.9452135197085
               }
            }
         },
         "place_id" : "GhIJifpuBPNgREARB0w7kFDyPUA",
         "plus_code" : {
            "compound_code" : "QW4W+XJ İzmit/Kocaeli, Turkey",
            "global_code" : "8GGFQW4W+XJ"
         },
         "types" : [ "plus_code" ]
      },
      {
         "address_components" : [
            {
               "long_name" : "Unnamed Road",
               "short_name" : "Unnamed Road",
               "types" : [ "route" ]
            },
            {
               "long_name" : "Sanayi",
               "short_name" : "Sanayi",
               "types" : [ "administrative_area_level_4", "political" ]
            },
            {
               "long_name" : "İzmit",
               "short_name" : "İzmit",
               "types" : [ "administrative_area_level_2", "political" ]
            },
            {
               "long_name" : "Kocaeli",
               "short_name" : "Kocaeli",
               "types" : [ "administrative_area_level_1", "political" ]
            },
            {
               "long_name" : "Turkey",
               "short_name" : "TR",
               "types" : [ "country", "political" ]
            },
            {
               "long_name" : "41040",
               "short_name" : "41040",
               "types" : [ "postal_code" ]
            }
         ],
         "formatted_address" : "Sanayi, Unnamed Road, 41040 İzmit/Kocaeli, Turkey",
         "geometry" : {
            "bounds" : {
               "northeast" : {
                  "lat" : 40.7576331,
                  "lng" : 29.949942
               },
               "southwest" : {
                  "lat" : 40.7572231,
                  "lng" : 29.9444632
               }
            },
            "location" : {
               "lat" : 40.7574157,
               "lng" : 29.9472067
            },
            "location_type" : "GEOMETRIC_CENTER",
            "viewport" : {
               "northeast" : {
                  "lat" : 40.7587770802915,
                  "lng" : 29.949942
               },
               "southwest" : {
                  "lat" : 40.7560791197085,
                  "lng" : 29.9444632
               }
            }
         },
         "place_id" : "ChIJdVnJEGFFyxQR1qUjB0VDSv0",
         "types" : [ "route" ]
      },
      {
         "address_components" : [
            {
               "long_name" : "Sanayi",
               "short_name" : "Sanayi",
               "types" : [ "administrative_area_level_4", "political" ]
            },
            {
               "long_name" : "İzmit",
               "short_name" : "İzmit",
               "types" : [ "administrative_area_level_2", "political" ]
            },
            {
               "long_name" : "Kocaeli",
               "short_name" : "Kocaeli",
               "types" : [ "administrative_area_level_1", "political" ]
            },
            {
               "long_name" : "Turkey",
               "short_name" : "TR",
               "types" : [ "country", "political" ]
            }
         ],
         "formatted_address" : "Sanayi, İzmit/Kocaeli, Turkey",
         "geometry" : {
            "bounds" : {
               "northeast" : {
                  "lat" : 40.761105,
                  "lng" : 29.9627841
               },
               "southwest" : {
                  "lat" : 40.720553,
                  "lng" : 29.9351709
               }
            },
            "location" : {
               "lat" : 40.7441569,
               "lng" : 29.94803479999999
            },
            "location_type" : "APPROXIMATE",
            "viewport" : {
               "northeast" : {
                  "lat" : 40.761105,
                  "lng" : 29.9627841
               },
               "southwest" : {
                  "lat" : 40.720553,
                  "lng" : 29.9351709
               }
            }
         },
         "place_id" : "ChIJSVTPq2pFyxQRpG9tnzcAPGM",
         "types" : [ "administrative_area_level_4", "political" ]
      },
      {
         "address_components" : [
            {
               "long_name" : "41040",
               "short_name" : "41040",
               "types" : [ "postal_code" ]
            },
            {
               "long_name" : "İzmit",
               "short_name" : "İzmit",
               "types" : [ "administrative_area_level_2", "political" ]
            },
            {
               "long_name" : "Kocaeli",
               "short_name" : "Kocaeli",
               "types" : [ "administrative_area_level_1", "political" ]
            },
            {
               "long_name" : "Turkey",
               "short_name" : "TR",
               "types" : [ "country", "political" ]
            }
         ],
         "formatted_address" : "41040 İzmit/Kocaeli, Turkey",
         "geometry" : {
            "bounds" : {
               "northeast" : {
                  "lat" : 40.7667271,
                  "lng" : 29.9631269
               },
               "southwest" : {
                  "lat" : 40.720553,
                  "lng" : 29.9300729
               }
            },
            "location" : {
               "lat" : 40.7487848,
               "lng" : 29.94803479999999
            },
            "location_type" : "APPROXIMATE",
            "viewport" : {
               "northeast" : {
                  "lat" : 40.7667271,
                  "lng" : 29.9631269
               },
               "southwest" : {
                  "lat" : 40.720553,
                  "lng" : 29.9300729
               }
            }
         },
         "place_id" : "ChIJTWSX4n9FyxQRwY-FlK_dteE",
         "types" : [ "postal_code" ]
      },
      {
         "address_components" : [
            {
               "long_name" : "İzmit",
               "short_name" : "İzmit",
               "types" : [ "administrative_area_level_2", "political" ]
            },
            {
               "long_name" : "Kocaeli",
               "short_name" : "Kocaeli",
               "types" : [ "administrative_area_level_1", "political" ]
            },
            {
               "long_name" : "Turkey",
               "short_name" : "TR",
               "types" : [ "country", "political" ]
            }
         ],
         "formatted_address" : "İzmit/Kocaeli, Turkey",
         "geometry" : {
            "bounds" : {
               "northeast" : {
                  "lat" : 40.971557,
                  "lng" : 30.2639339
               },
               "southwest" : {
                  "lat" : 40.720553,
                  "lng" : 29.8541681
               }
            },
            "location" : {
               "lat" : 40.8506635,
               "lng" : 30.0202964
            },
            "location_type" : "APPROXIMATE",
            "viewport" : {
               "northeast" : {
                  "lat" : 40.971557,
                  "lng" : 30.2639339
               },
               "southwest" : {
                  "lat" : 40.720553,
                  "lng" : 29.8541681
               }
            }
         },
         "place_id" : "ChIJL2DfPLZQyxQRitx6sY9PIGU",
         "types" : [ "administrative_area_level_2", "political" ]
      },
      {
         "address_components" : [
            {
               "long_name" : "Kocaeli",
               "short_name" : "Kocaeli",
               "types" : [ "administrative_area_level_1", "political" ]
            },
            {
               "long_name" : "Turkey",
               "short_name" : "TR",
               "types" : [ "country", "political" ]
            }
         ],
         "formatted_address" : "Kocaeli, Turkey",
         "geometry" : {
            "bounds" : {
               "northeast" : {
                  "lat" : 41.20976,
                  "lng" : 30.367743
               },
               "southwest" : {
                  "lat" : 40.524151,
                  "lng" : 29.3331261
               }
            },
            "location" : {
               "lat" : 40.8532704,
               "lng" : 29.8815203
            },
            "location_type" : "APPROXIMATE",
            "viewport" : {
               "northeast" : {
                  "lat" : 41.20976,
                  "lng" : 30.367743
               },
               "southwest" : {
                  "lat" : 40.524151,
                  "lng" : 29.3331261
               }
            }
         },
         "place_id" : "ChIJQ8zKb5QgyxQRWdhW642zLKg",
         "types" : [ "administrative_area_level_1", "political" ]
      },
      {
         "address_components" : [
            {
               "long_name" : "Turkey",
               "short_name" : "TR",
               "types" : [ "country", "political" ]
            }
         ],
         "formatted_address" : "Turkey",
         "geometry" : {
            "bounds" : {
               "northeast" : {
                  "lat" : 42.3666999,
                  "lng" : 44.8178449
               },
               "southwest" : {
                  "lat" : 35.808592,
                  "lng" : 25.5377
               }
            },
            "location" : {
               "lat" : 38.963745,
               "lng" : 35.243322
            },
            "location_type" : "APPROXIMATE",
            "viewport" : {
               "northeast" : {
                  "lat" : 42.3666999,
                  "lng" : 44.8178449
               },
               "southwest" : {
                  "lat" : 35.808592,
                  "lng" : 25.5377
               }
            }
         },
         "place_id" : "ChIJcSZPllwVsBQRKl9iKtTb2UA",
         "types" : [ "country", "political" ]
      }
   ],
   "status" : "OK"
}
