{
   "plus_code" : {
      "compound_code" : "QW7X+Q6 İzmit/Kocaeli, Turkey",
      "global_code" : "8GGFQW7X+Q6"
   },
   "results" : [
      {
         "address_components" : [
            {
               "long_name" : "28",
               "short_name" : "28",
               "types" : [ "street_number" ]
            },
            {
               "long_name" : "Atatürk Bulvarı",
               "short_name" : "Atatürk Blv.",
               "types" : [ "route" ]
            },
            {
               "long_name" : "Kadıköy",
               "short_name" : "Kadıköy",
               "types" : [ "administrative_area_level_4", "political" ]
            },
            {
               "long_name" : "İzmit",
               "short_name" : "İzmit",
               "types" : [ "administrative_area_level_2", "political" ]
            },
            {
               "long_name" : "Kocaeli",
               "short_name" : "Kocaeli",
               "types" : [ "administrative_area_level_1", "political" ]
            },
            {
               "long_name" : "Turkey",
               "short_name" : "TR",
               "types" : [ "country", "political" ]
            },
            {
               "long_name" : "41050",
               "short_name" : "41050",
               "types" : [ "postal_code" ]
            }
         ],
         "formatted_address" : "Kadıköy, Atatürk Blv. No:28, 41050 İzmit/Kocaeli, Turkey",
         "geometry" : {
            "location" : {
               "lat" : 40.7648426,
               "lng" : 29.9476282
            },
            "location_type" : "ROOFTOP",
            "viewport" : {
               "northeast" : {
                  "lat" : 40.7661915802915,
                  "lng" : 29.9489771802915
               },
               "southwest" : {
                  "lat" : 40.76349361970851,
                  "lng" : 29.9462792197085
               }
            }
         },
         "place_id" : "ChIJq6q6hotPyxQRzQo-qfnX_R4",
         "plus_code" : {
            "compound_code" : "QW7X+W3 İzmit/Kocaeli, Turkey",
            "global_code" : "8GGFQW7X+W3"
         },
         "types" : [ "street_address" ]
      },
      {
         "address_components" : [
            {
               "long_name" : "47",
               "short_name" : "47",
               "types" : [ "street_number" ]
            },
            {
               "long_name" : "Esendal Sokak",
               "short_name" : "Esendal Sk.",
               "types" : [ "route" ]
            },
            {
               "long_name" : "Kadıköy",
               "short_name" : "Kadıköy",
               "types" : [ "administrative_area_level_4", "political" ]
            },
            {
               "long_name" : "İzmit",
               "short_name" : "İzmit",
               "types" : [ "administrative_area_level_2", "political" ]
            },
            {
               "long_name" : "Kocaeli",
               "short_name" : "Kocaeli",
               "types" : [ "administrative_area_level_1", "political" ]
            },
            {
               "long_name" : "Turkey",
               "short_name" : "TR",
               "types" : [ "country", "political" ]
            },
            {
               "long_name" : "41050",
               "short_name" : "41050",
               "types" : [ "postal_code" ]
            }
         ],
         "formatted_address" : "Kadıköy, Esendal Sk. No:47, 41050 İzmit/Kocaeli, Turkey",
         "geometry" : {
            "location" : {
               "lat" : 40.7647969,
               "lng" : 29.9484014
            },
            "location_type" : "RANGE_INTERPOLATED",
            "viewport" : {
               "northeast" : {
                  "lat" : 40.7661458802915,
                  "lng" : 29.9497503802915
               },
               "southwest" : {
                  "lat" : 40.7634479197085,
                  "lng" : 29.9470524197085
               }
            }
         },
         "place_id" : "EjpLYWTEsWvDtnksIEVzZW5kYWwgU2suIE5vOjQ3LCA0MTA1MCDEsHptaXQvS29jYWVsaSwgVHVya2V5IhoSGAoUChIJD4EkgoxPyxQRwppBVx5QQm4QLw",
         "types" : [ "street_address" ]
      },
      {
         "address_components" : [
            {
               "long_name" : "Şehit Rafet Karacan Bulvarı",
               "short_name" : "Şht. Rafet Karacan Blv",
               "types" : [ "route" ]
            },
            {
               "long_name" : "Körfez",
               "short_name" : "Körfez",
               "types" : [ "administrative_area_level_4", "political" ]
            },
            {
               "long_name" : "İzmit",
               "short_name" : "İzmit",
               "types" : [ "administrative_area_level_2", "political" ]
            },
            {
               "long_name" : "Kocaeli",
               "short_name" : "Kocaeli",
               "types" : [ "administrative_area_level_1", "political" ]
            },
            {
               "long_name" : "Turkey",
               "short_name" : "TR",
               "types" : [ "country", "political" ]
            },
            {
               "long_name" : "41040",
               "short_name" : "41040",
               "types" : [ "postal_code" ]
            }
         ],
         "formatted_address" : "Körfez, Şht. Rafet Karacan Blv, 41040 İzmit/Kocaeli, Turkey",
         "geometry" : {
            "bounds" : {
               "northeast" : {
                  "lat" : 40.7645778,
                  "lng" : 29.9482123
               },
               "southwest" : {
                  "lat" : 40.7644578,
                  "lng" : 29.9472098
               }
            },
            "location" : {
               "lat" : 40.7645183,
               "lng" : 29.9477112
            },
            "location_type" : "GEOMETRIC_CENTER",
            "viewport" : {
               "northeast" : {
                  "lat" : 40.7658667802915,
                  "lng" : 29.9490600302915
               },
               "southwest" : {
                  "lat" : 40.7631688197085,
                  "lng" : 29.9463620697085
               }
            }
         },
         "place_id" : "ChIJFbWcg4tPyxQRbtWkj97InbE",
         "types" : [ "route" ]
      },
      {
         "address_components" : [
            {
               "long_name" : "QW7X+Q6",
               "short_name" : "QW7X+Q6",
               "types" : [ "plus_code" ]
            },
            {
               "long_name" : "İzmit",
               "short_name" : "İzmit",
               "types" : [ "administrative_area_level_2", "political" ]
            },
            {
               "long_name" : "Kocaeli",
               "short_name" : "Kocaeli",
               "types" : [ "administrative_area_level_1", "political" ]
            },
            {
               "long_name" : "Turkey",
               "short_name" : "TR",
               "types" : [ "country", "political" ]
            }
         ],
         "formatted_address" : "QW7X+Q6 İzmit/Kocaeli, Turkey",
         "geometry" : {
            "bounds" : {
               "northeast" : {
                  "lat" : 40.7645,
                  "lng" : 29.948125
               },
               "southwest" : {
                  "lat" : 40.764375,
                  "lng" : 29.948
               }
            },
            "location" : {
               "lat" : 40.7644701,
               "lng" : 29.9480009
            },
            "location_type" : "GEOMETRIC_CENTER",
            "viewport" : {
               "northeast" : {
                  "lat" : 40.7657864802915,
                  "lng" : 29.9494114802915
               },
               "southwest" : {
                  "lat" : 40.7630885197085,
                  "lng" : 29.9467135197085
               }
            }
         },
         "place_id" : "GhIJiiL_J9phREARHRTeL7DyPUA",
         "plus_code" : {
            "compound_code" : "QW7X+Q6 İzmit/Kocaeli, Turkey",
            "global_code" : "8GGFQW7X+Q6"
         },
         "types" : [ "plus_code" ]
      },
      {
         "address_components" : [
            {
               "long_name" : "41040",
               "short_name" : "41040",
               "types" : [ "postal_code" ]
            },
            {
               "long_name" : "İzmit",
               "short_name" : "İzmit",
               "types" : [ "administrative_area_level_2", "political" ]
            },
            {
               "long_name" : "Kocaeli",
               "short_name" : "Kocaeli",
               "types" : [ "administrative_area_level_1", "political" ]
            },
            {
               "long_name" : "Turkey",
               "short_name" : "TR",
               "types" : [ "country", "political" ]
            }
         ],
         "formatted_address" : "41040 İzmit/Kocaeli, Turkey",
         "geometry" : {
            "bounds" : {
               "northeast" : {
                  "lat" : 40.7653761,
                  "lng" : 29.9631269
               },
               "southwest" : {
                  "lat" : 40.757143,
                  "lng" : 29.9383831
               }
            },
            "location" : {
               "lat" : 40.7610979,
               "lng" : 29.9494804
            },
            "location_type" : "APPROXIMATE",
            "viewport" : {
               "northeast" : {
                  "lat" : 40.7653761,
                  "lng" : 29.9631269
               },
               "southwest" : {
                  "lat" : 40.757143,
                  "lng" : 29.9383831
               }
            }
         },
         "place_id" : "ChIJO3l2zYpPyxQR7-rF8BAGPHU",
         "types" : [ "postal_code" ]
      },
      {
         "address_components" : [
            {
               "long_name" : "Körfez",
               "short_name" : "Körfez",
               "types" : [ "administrative_area_level_4", "political" ]
            },
            {
               "long_name" : "İzmit",
               "short_name" : "İzmit",
               "types" : [ "administrative_area_level_2", "political" ]
            },
            {
               "long_name" : "Kocaeli",
               "short_name" : "Kocaeli",
               "types" : [ "administrative_area_level_1", "political" ]
            },
            {
               "long_name" : "Turkey",
               "short_name" : "TR",
               "types" : [ "country", "political" ]
            },
            {
               "long_name" : "41040",
               "short_name" : "41040",
               "types" : [ "postal_code" ]
            }
         ],
         "formatted_address" : "Körfez, 41040 İzmit/Kocaeli, Turkey",
         "geometry" : {
            "bounds" : {
               "northeast" : {
                  "lat" : 40.765456,
                  "lng" : 29.9631269
               },
               "southwest" : {
                  "lat" : 40.75719,
                  "lng" : 29.9383831
               }
            },
            "location" : {
               "lat" : 40.7610979,
               "lng" : 29.9494804
            },
            "location_type" : "APPROXIMATE",
            "viewport" : {
               "northeast" : {
                  "lat" : 40.765456,
                  "lng" : 29.9631269
               },
               "southwest" : {
                  "lat" : 40.75719,
                  "lng" : 29.9383831
               }
            }
         },
         "place_id" : "ChIJp3VlAbNayxQRYCN59Wi7Ukg",
         "types" : [ "administrative_area_level_4", "political" ]
      },
      {
         "address_components" : [
            {
               "long_name" : "İzmit",
               "short_name" : "İzmit",
               "types" : [ "locality", "political" ]
            },
            {
               "long_name" : "İzmit",
               "short_name" : "İzmit",
               "types" : [ "administrative_area_level_2", "political" ]
            },
            {
               "long_name" : "Kocaeli",
               "short_name" : "Kocaeli",
               "types" : [ "administrative_area_level_1", "political" ]
            },
            {
               "long_name" : "Turkey",
               "short_name" : "TR",
               "types" : [ "country", "political" ]
            }
         ],
         "formatted_address" : "İzmit, Kocaeli, Turkey",
         "geometry" : {
            "bounds" : {
               "northeast" : {
                  "lat" : 40.805401,
                  "lng" : 30.014834
               },
               "southwest" : {
                  "lat" : 40.736827,
                  "lng" : 29.8541681
               }
            },
            "location" : {
               "lat" : 40.7654408,
               "lng" : 29.9408089
            },
            "location_type" : "APPROXIMATE",
            "viewport" : {
               "northeast" : {
                  "lat" : 40.805401,
                  "lng" : 30.014834
               },
               "southwest" : {
                  "lat" : 40.736827,
                  "lng" : 29.8541681
               }
            }
         },
         "place_id" : "ChIJnftLZGZPyxQRuX5rWOcOaYI",
         "types" : [ "locality", "political" ]
      },
      {
         "address_components" : [
            {
               "long_name" : "İzmit",
               "short_name" : "İzmit",
               "types" : [ "administrative_area_level_2", "political" ]
            },
            {
               "long_name" : "Kocaeli",
               "short_name" : "Kocaeli",
               "types" : [ "administrative_area_level_1", "political" ]
            },
            {
               "long_name" : "Turkey",
               "short_name" : "TR",
               "types" : [ "country", "political" ]
            }
         ],
         "formatted_address" : "İzmit/Kocaeli, Turkey",
         "geometry" : {
            "bounds" : {
               "northeast" : {
                  "lat" : 40.971557,
                  "lng" : 30.2639339
               },
               "southwest" : {
                  "lat" : 40.720553,
                  "lng" : 29.8541681
               }
            },
            "location" : {
               "lat" : 40.8506635,
               "lng" : 30.0202964
            },
            "location_type" : "APPROXIMATE",
            "viewport" : {
               "northeast" : {
                  "lat" : 40.971557,
                  "lng" : 30.2639339
               },
               "southwest" : {
                  "lat" : 40.720553,
                  "lng" : 29.8541681
               }
            }
         },
         "place_id" : "ChIJL2DfPLZQyxQRitx6sY9PIGU",
         "types" : [ "administrative_area_level_2", "political" ]
      },
      {
         "address_components" : [
            {
               "long_name" : "Kocaeli",
               "short_name" : "Kocaeli",
               "types" : [ "administrative_area_level_1", "political" ]
            },
            {
               "long_name" : "Turkey",
               "short_name" : "TR",
               "types" : [ "country", "political" ]
            }
         ],
         "formatted_address" : "Kocaeli, Turkey",
         "geometry" : {
            "bounds" : {
               "northeast" : {
                  "lat" : 41.20976,
                  "lng" : 30.367743
               },
               "southwest" : {
                  "lat" : 40.524151,
                  "lng" : 29.3331261
               }
            },
            "location" : {
               "lat" : 40.8532704,
               "lng" : 29.8815203
            },
            "location_type" : "APPROXIMATE",
            "viewport" : {
               "northeast" : {
                  "lat" : 41.20976,
                  "lng" : 30.367743
               },
               "southwest" : {
                  "lat" : 40.524151,
                  "lng" : 29.3331261
               }
            }
         },
         "place_id" : "ChIJQ8zKb5QgyxQRWdhW642zLKg",
         "types" : [ "administrative_area_level_1", "political" ]
      },
      {
         "address_components" : [
            {
               "long_name" : "Turkey",
               "short_name" : "TR",
               "types" : [ "country", "political" ]
            }
         ],
         "formatted_address" : "Turkey",
         "geometry" : {
            "bounds" : {
               "northeast" : {
                  "lat" : 42.3666999,
                  "lng" : 44.8178449
               },
               "southwest" : {
                  "lat" : 35.808592,
                  "lng" : 25.5377
               }
            },
            "location" : {
               "lat" : 38.963745,
               "lng" : 35.243322
            },
            "location_type" : "APPROXIMATE",
            "viewport" : {
               "northeast" : {
                  "lat" : 42.3666999,
                  "lng" : 44.8178449
               },
               "southwest" : {
                  "lat" : 35.808592,
                  "lng" : 25.5377
               }
            }
         },
         "place_id" : "ChIJcSZPllwVsBQRKl9iKtTb2UA",
         "types" : [ "country", "political" ]
      }
   ],
   "status" : "OK"
}
