{
   "plus_code" : {
      "compound_code" : "RHF9+5P Demirciler Osb/Dilovası/Kocaeli, Turkey",
      "global_code" : "8GGFRHF9+5P"
   },
   "results" : [
      {
         "address_components" : [
            {
               "long_name" : "RHF9+5P",
               "short_name" : "RHF9+5P",
               "types" : [ "plus_code" ]
            },
            {
               "long_name" : "Demirciler Osb",
               "short_name" : "Demirciler Osb",
               "types" : [ "administrative_area_level_3", "political" ]
            },
            {
               "long_name" : "Dilovası",
               "short_name" : "Dilovası",
               "types" : [ "administrative_area_level_2", "political" ]
            },
            {
               "long_name" : "Kocaeli",
               "short_name" : "Kocaeli",
               "types" : [ "administrative_area_level_1", "political" ]
            },
            {
               "long_name" : "Turkey",
               "short_name" : "TR",
               "types" : [ "country", "political" ]
            }
         ],
         "formatted_address" : "RHF9+5P Demirciler Osb/Dilovası/Kocaeli, Turkey",
         "geometry" : {
            "bounds" : {
               "northeast" : {
                  "lat" : 40.823,
                  "lng" : 29.569375
               },
               "southwest" : {
                  "lat" : 40.822875,
                  "lng" : 29.56925
               }
            },
            "location" : {
               "lat" : 40.822903,
               "lng" : 29.5693588
            },
            "location_type" : "GEOMETRIC_CENTER",
            "viewport" : {
               "northeast" : {
                  "lat" : 40.82428648029151,
                  "lng" : 29.57066148029149
               },
               "southwest" : {
                  "lat" : 40.82158851970851,
                  "lng" : 29.5679635197085
               }
            }
         },
         "place_id" : "GhIJ4GOw4lRpREARl7CRf8GRPUA",
         "plus_code" : {
            "compound_code" : "RHF9+5P Demirciler Osb/Dilovası/Kocaeli, Turkey",
            "global_code" : "8GGFRHF9+5P"
         },
         "types" : [ "plus_code" ]
      },
      {
         "address_components" : [
            {
               "long_name" : "Unnamed Road",
               "short_name" : "Unnamed Road",
               "types" : [ "route" ]
            },
            {
               "long_name" : "Demirciler Osb",
               "short_name" : "Demirciler Osb",
               "types" : [ "administrative_area_level_3", "political" ]
            },
            {
               "long_name" : "Dilovası",
               "short_name" : "Dilovası",
               "types" : [ "administrative_area_level_2", "political" ]
            },
            {
               "long_name" : "Kocaeli",
               "short_name" : "Kocaeli",
               "types" : [ "administrative_area_level_1", "political" ]
            },
            {
               "long_name" : "Turkey",
               "short_name" : "TR",
               "types" : [ "country", "political" ]
            },
            {
               "long_name" : "41455",
               "short_name" : "41455",
               "types" : [ "postal_code" ]
            }
         ],
         "formatted_address" : "Unnamed Road, 41455 Demirciler Osb/Dilovası/Kocaeli, Turkey",
         "geometry" : {
            "bounds" : {
               "northeast" : {
                  "lat" : 40.8232565,
                  "lng" : 29.5699609
               },
               "southwest" : {
                  "lat" : 40.81922900000001,
                  "lng" : 29.5655981
               }
            },
            "location" : {
               "lat" : 40.8212428,
               "lng" : 29.5677795
            },
            "location_type" : "GEOMETRIC_CENTER",
            "viewport" : {
               "northeast" : {
                  "lat" : 40.8232565,
                  "lng" : 29.5699609
               },
               "southwest" : {
                  "lat" : 40.81922900000001,
                  "lng" : 29.5655981
               }
            }
         },
         "place_id" : "ChIJxdfGDvAkyxQRfPHTTVNup1w",
         "types" : [ "route" ]
      },
      {
         "address_components" : [
            {
               "long_name" : "41455",
               "short_name" : "41455",
               "types" : [ "postal_code" ]
            },
            {
               "long_name" : "Demirciler Osb",
               "short_name" : "Demirciler Osb",
               "types" : [ "administrative_area_level_3", "political" ]
            },
            {
               "long_name" : "Dilovası",
               "short_name" : "Dilovası",
               "types" : [ "administrative_area_level_2", "political" ]
            },
            {
               "long_name" : "Kocaeli",
               "short_name" : "Kocaeli",
               "types" : [ "administrative_area_level_1", "political" ]
            },
            {
               "long_name" : "Turkey",
               "short_name" : "TR",
               "types" : [ "country", "political" ]
            }
         ],
         "formatted_address" : "41455 Demirciler Osb/Dilovası/Kocaeli, Turkey",
         "geometry" : {
            "bounds" : {
               "northeast" : {
                  "lat" : 40.85180099999999,
                  "lng" : 29.5913869
               },
               "southwest" : {
                  "lat" : 40.803619,
                  "lng" : 29.5427481
               }
            },
            "location" : {
               "lat" : 40.8428412,
               "lng" : 29.5745626
            },
            "location_type" : "APPROXIMATE",
            "viewport" : {
               "northeast" : {
                  "lat" : 40.85180099999999,
                  "lng" : 29.5913869
               },
               "southwest" : {
                  "lat" : 40.803619,
                  "lng" : 29.5427481
               }
            }
         },
         "place_id" : "ChIJ73sJ6_wkyxQRW1AFXWRBmco",
         "types" : [ "postal_code" ]
      },
      {
         "address_components" : [
            {
               "long_name" : "Demirciler Osb",
               "short_name" : "Demirciler Osb",
               "types" : [ "administrative_area_level_3", "political" ]
            },
            {
               "long_name" : "Dilovası",
               "short_name" : "Dilovası",
               "types" : [ "administrative_area_level_2", "political" ]
            },
            {
               "long_name" : "Kocaeli",
               "short_name" : "Kocaeli",
               "types" : [ "administrative_area_level_1", "political" ]
            },
            {
               "long_name" : "Turkey",
               "short_name" : "TR",
               "types" : [ "country", "political" ]
            }
         ],
         "formatted_address" : "Demirciler Osb/Dilovası/Kocaeli, Turkey",
         "geometry" : {
            "bounds" : {
               "northeast" : {
                  "lat" : 40.85180099999999,
                  "lng" : 29.5913869
               },
               "southwest" : {
                  "lat" : 40.803619,
                  "lng" : 29.5427481
               }
            },
            "location" : {
               "lat" : 40.8428412,
               "lng" : 29.5745626
            },
            "location_type" : "APPROXIMATE",
            "viewport" : {
               "northeast" : {
                  "lat" : 40.85180099999999,
                  "lng" : 29.5913869
               },
               "southwest" : {
                  "lat" : 40.803619,
                  "lng" : 29.5427481
               }
            }
         },
         "place_id" : "ChIJ73sJ6_wkyxQRiZtIdpwvdCM",
         "types" : [ "administrative_area_level_3", "political" ]
      },
      {
         "address_components" : [
            {
               "long_name" : "Dilovası",
               "short_name" : "Dilovası",
               "types" : [ "administrative_area_level_2", "political" ]
            },
            {
               "long_name" : "Kocaeli",
               "short_name" : "Kocaeli",
               "types" : [ "administrative_area_level_1", "political" ]
            },
            {
               "long_name" : "Turkey",
               "short_name" : "TR",
               "types" : [ "country", "political" ]
            }
         ],
         "formatted_address" : "Dilovası/Kocaeli, Turkey",
         "geometry" : {
            "bounds" : {
               "northeast" : {
                  "lat" : 40.90581110000001,
                  "lng" : 29.6865289
               },
               "southwest" : {
                  "lat" : 40.763399,
                  "lng" : 29.492792
               }
            },
            "location" : {
               "lat" : 40.8458429,
               "lng" : 29.5803702
            },
            "location_type" : "APPROXIMATE",
            "viewport" : {
               "northeast" : {
                  "lat" : 40.90581110000001,
                  "lng" : 29.6865289
               },
               "southwest" : {
                  "lat" : 40.763399,
                  "lng" : 29.492792
               }
            }
         },
         "place_id" : "ChIJSdUhdCQlyxQREmWqrirsC5Y",
         "types" : [ "administrative_area_level_2", "political" ]
      },
      {
         "address_components" : [
            {
               "long_name" : "Kocaeli",
               "short_name" : "Kocaeli",
               "types" : [ "administrative_area_level_1", "political" ]
            },
            {
               "long_name" : "Turkey",
               "short_name" : "TR",
               "types" : [ "country", "political" ]
            }
         ],
         "formatted_address" : "Kocaeli, Turkey",
         "geometry" : {
            "bounds" : {
               "northeast" : {
                  "lat" : 41.20976,
                  "lng" : 30.367743
               },
               "southwest" : {
                  "lat" : 40.524151,
                  "lng" : 29.3331261
               }
            },
            "location" : {
               "lat" : 40.8532704,
               "lng" : 29.8815203
            },
            "location_type" : "APPROXIMATE",
            "viewport" : {
               "northeast" : {
                  "lat" : 41.20976,
                  "lng" : 30.367743
               },
               "southwest" : {
                  "lat" : 40.524151,
                  "lng" : 29.3331261
               }
            }
         },
         "place_id" : "ChIJQ8zKb5QgyxQRWdhW642zLKg",
         "types" : [ "administrative_area_level_1", "political" ]
      },
      {
         "address_components" : [
            {
               "long_name" : "Turkey",
               "short_name" : "TR",
               "types" : [ "country", "political" ]
            }
         ],
         "formatted_address" : "Turkey",
         "geometry" : {
            "bounds" : {
               "northeast" : {
                  "lat" : 42.3666999,
                  "lng" : 44.8178449
               },
               "southwest" : {
                  "lat" : 35.808592,
                  "lng" : 25.5377
               }
            },
            "location" : {
               "lat" : 38.963745,
               "lng" : 35.243322
            },
            "location_type" : "APPROXIMATE",
            "viewport" : {
               "northeast" : {
                  "lat" : 42.3666999,
                  "lng" : 44.8178449
               },
               "southwest" : {
                  "lat" : 35.808592,
                  "lng" : 25.5377
               }
            }
         },
         "place_id" : "ChIJcSZPllwVsBQRKl9iKtTb2UA",
         "types" : [ "country", "political" ]
      }
   ],
   "status" : "OK"
}
