{
   "plus_code" : {
      "compound_code" : "XP98+R4 Gebze/Kocaeli, Turkey",
      "global_code" : "8GGFXP98+R4"
   },
   "results" : [
      {
         "address_components" : [
            {
               "long_name" : "XP98+R4",
               "short_name" : "XP98+R4",
               "types" : [ "plus_code" ]
            },
            {
               "long_name" : "Gebze",
               "short_name" : "Gebze",
               "types" : [ "administrative_area_level_2", "political" ]
            },
            {
               "long_name" : "Kocaeli",
               "short_name" : "Kocaeli",
               "types" : [ "administrative_area_level_1", "political" ]
            },
            {
               "long_name" : "Turkey",
               "short_name" : "TR",
               "types" : [ "country", "political" ]
            }
         ],
         "formatted_address" : "XP98+R4 Gebze/Kocaeli, Turkey",
         "geometry" : {
            "bounds" : {
               "northeast" : {
                  "lat" : 40.969625,
                  "lng" : 29.715375
               },
               "southwest" : {
                  "lat" : 40.9695,
                  "lng" : 29.71525
               }
            },
            "location" : {
               "lat" : 40.9695297,
               "lng" : 29.715271
            },
            "location_type" : "GEOMETRIC_CENTER",
            "viewport" : {
               "northeast" : {
                  "lat" : 40.9709114802915,
                  "lng" : 29.7166614802915
               },
               "southwest" : {
                  "lat" : 40.9682135197085,
                  "lng" : 29.7139635197085
               }
            }
         },
         "place_id" : "GhIJFgCZjBl8REAR98YQABy3PUA",
         "plus_code" : {
            "compound_code" : "XP98+R4 Gebze/Kocaeli, Turkey",
            "global_code" : "8GGFXP98+R4"
         },
         "types" : [ "plus_code" ]
      },
      {
         "address_components" : [
            {
               "long_name" : "Hatipler Köyü İç Yolu",
               "short_name" : "Hatipler Köyü İç Yolu",
               "types" : [ "route" ]
            },
            {
               "long_name" : "Hatipler",
               "short_name" : "Hatipler",
               "types" : [ "administrative_area_level_4", "political" ]
            },
            {
               "long_name" : "Gebze",
               "short_name" : "Gebze",
               "types" : [ "administrative_area_level_2", "political" ]
            },
            {
               "long_name" : "Kocaeli",
               "short_name" : "Kocaeli",
               "types" : [ "administrative_area_level_1", "political" ]
            },
            {
               "long_name" : "Turkey",
               "short_name" : "TR",
               "types" : [ "country", "political" ]
            },
            {
               "long_name" : "41400",
               "short_name" : "41400",
               "types" : [ "postal_code" ]
            }
         ],
         "formatted_address" : "Hatipler, Hatipler Köyü İç Yolu, 41400 Gebze/Kocaeli, Turkey",
         "geometry" : {
            "bounds" : {
               "northeast" : {
                  "lat" : 40.96972969999999,
                  "lng" : 29.716952
               },
               "southwest" : {
                  "lat" : 40.9690562,
                  "lng" : 29.7144913
               }
            },
            "location" : {
               "lat" : 40.969527,
               "lng" : 29.7156687
            },
            "location_type" : "GEOMETRIC_CENTER",
            "viewport" : {
               "northeast" : {
                  "lat" : 40.9707419302915,
                  "lng" : 29.7170706302915
               },
               "southwest" : {
                  "lat" : 40.9680439697085,
                  "lng" : 29.7143726697085
               }
            }
         },
         "place_id" : "ChIJSwzenLY0yxQRDuu2T8TwxA0",
         "types" : [ "route" ]
      },
      {
         "address_components" : [
            {
               "long_name" : "Hatipler",
               "short_name" : "Hatipler",
               "types" : [ "locality", "political" ]
            },
            {
               "long_name" : "Hatipler",
               "short_name" : "Hatipler",
               "types" : [ "administrative_area_level_4", "political" ]
            },
            {
               "long_name" : "Gebze",
               "short_name" : "Gebze",
               "types" : [ "administrative_area_level_2", "political" ]
            },
            {
               "long_name" : "Kocaeli",
               "short_name" : "Kocaeli",
               "types" : [ "administrative_area_level_1", "political" ]
            },
            {
               "long_name" : "Turkey",
               "short_name" : "TR",
               "types" : [ "country", "political" ]
            },
            {
               "long_name" : "41400",
               "short_name" : "41400",
               "types" : [ "postal_code" ]
            }
         ],
         "formatted_address" : "Hatipler, 41400 Gebze/Kocaeli, Turkey",
         "geometry" : {
            "bounds" : {
               "northeast" : {
                  "lat" : 40.9704319,
                  "lng" : 29.721904
               },
               "southwest" : {
                  "lat" : 40.966512,
                  "lng" : 29.7121359
               }
            },
            "location" : {
               "lat" : 40.96909,
               "lng" : 29.71791799999999
            },
            "location_type" : "APPROXIMATE",
            "viewport" : {
               "northeast" : {
                  "lat" : 40.9704319,
                  "lng" : 29.721904
               },
               "southwest" : {
                  "lat" : 40.966512,
                  "lng" : 29.7121359
               }
            }
         },
         "place_id" : "ChIJpbi1lLU0yxQRdPQBUPVmDLw",
         "types" : [ "locality", "political" ]
      },
      {
         "address_components" : [
            {
               "long_name" : "Hatipler",
               "short_name" : "Hatipler",
               "types" : [ "administrative_area_level_4", "political" ]
            },
            {
               "long_name" : "Gebze",
               "short_name" : "Gebze",
               "types" : [ "administrative_area_level_2", "political" ]
            },
            {
               "long_name" : "Kocaeli",
               "short_name" : "Kocaeli",
               "types" : [ "administrative_area_level_1", "political" ]
            },
            {
               "long_name" : "Turkey",
               "short_name" : "TR",
               "types" : [ "country", "political" ]
            },
            {
               "long_name" : "41400",
               "short_name" : "41400",
               "types" : [ "postal_code" ]
            }
         ],
         "formatted_address" : "Hatipler, 41400 Gebze/Kocaeli, Turkey",
         "geometry" : {
            "bounds" : {
               "northeast" : {
                  "lat" : 41.006455,
                  "lng" : 29.751476
               },
               "southwest" : {
                  "lat" : 40.958546,
                  "lng" : 29.6995779
               }
            },
            "location" : {
               "lat" : 40.9852037,
               "lng" : 29.7256926
            },
            "location_type" : "APPROXIMATE",
            "viewport" : {
               "northeast" : {
                  "lat" : 41.006455,
                  "lng" : 29.751476
               },
               "southwest" : {
                  "lat" : 40.958546,
                  "lng" : 29.6995779
               }
            }
         },
         "place_id" : "ChIJlRM03rU0yxQR4PXvGaL36as",
         "types" : [ "administrative_area_level_4", "political" ]
      },
      {
         "address_components" : [
            {
               "long_name" : "41400",
               "short_name" : "41400",
               "types" : [ "postal_code" ]
            },
            {
               "long_name" : "Kocaeli",
               "short_name" : "Kocaeli",
               "types" : [ "administrative_area_level_1", "political" ]
            },
            {
               "long_name" : "Turkey",
               "short_name" : "TR",
               "types" : [ "country", "political" ]
            }
         ],
         "formatted_address" : "41400 Kocaeli, Turkey",
         "geometry" : {
            "bounds" : {
               "northeast" : {
                  "lat" : 41.0062241,
                  "lng" : 29.751476
               },
               "southwest" : {
                  "lat" : 40.958546,
                  "lng" : 29.6995779
               }
            },
            "location" : {
               "lat" : 40.9852037,
               "lng" : 29.7256926
            },
            "location_type" : "APPROXIMATE",
            "viewport" : {
               "northeast" : {
                  "lat" : 41.0062241,
                  "lng" : 29.751476
               },
               "southwest" : {
                  "lat" : 40.958546,
                  "lng" : 29.6995779
               }
            }
         },
         "place_id" : "ChIJhUPR-rwgnkARm3-lWYq6EWI",
         "types" : [ "postal_code" ]
      },
      {
         "address_components" : [
            {
               "long_name" : "Gebze",
               "short_name" : "Gebze",
               "types" : [ "administrative_area_level_2", "political" ]
            },
            {
               "long_name" : "Kocaeli",
               "short_name" : "Kocaeli",
               "types" : [ "administrative_area_level_1", "political" ]
            },
            {
               "long_name" : "Turkey",
               "short_name" : "TR",
               "types" : [ "country", "political" ]
            }
         ],
         "formatted_address" : "Gebze/Kocaeli, Turkey",
         "geometry" : {
            "bounds" : {
               "northeast" : {
                  "lat" : 41.0444389,
                  "lng" : 29.753319
               },
               "southwest" : {
                  "lat" : 40.76473499999999,
                  "lng" : 29.339897
               }
            },
            "location" : {
               "lat" : 40.9329106,
               "lng" : 29.5339711
            },
            "location_type" : "APPROXIMATE",
            "viewport" : {
               "northeast" : {
                  "lat" : 41.0444389,
                  "lng" : 29.753319
               },
               "southwest" : {
                  "lat" : 40.76473499999999,
                  "lng" : 29.339897
               }
            }
         },
         "place_id" : "ChIJvZNPnBEvyxQRqVaYkWB4_nI",
         "types" : [ "administrative_area_level_2", "political" ]
      },
      {
         "address_components" : [
            {
               "long_name" : "Kocaeli",
               "short_name" : "Kocaeli",
               "types" : [ "administrative_area_level_1", "political" ]
            },
            {
               "long_name" : "Turkey",
               "short_name" : "TR",
               "types" : [ "country", "political" ]
            }
         ],
         "formatted_address" : "Kocaeli, Turkey",
         "geometry" : {
            "bounds" : {
               "northeast" : {
                  "lat" : 41.20976,
                  "lng" : 30.367743
               },
               "southwest" : {
                  "lat" : 40.524151,
                  "lng" : 29.3331261
               }
            },
            "location" : {
               "lat" : 40.8532704,
               "lng" : 29.8815203
            },
            "location_type" : "APPROXIMATE",
            "viewport" : {
               "northeast" : {
                  "lat" : 41.20976,
                  "lng" : 30.367743
               },
               "southwest" : {
                  "lat" : 40.524151,
                  "lng" : 29.3331261
               }
            }
         },
         "place_id" : "ChIJQ8zKb5QgyxQRWdhW642zLKg",
         "types" : [ "administrative_area_level_1", "political" ]
      },
      {
         "address_components" : [
            {
               "long_name" : "Turkey",
               "short_name" : "TR",
               "types" : [ "country", "political" ]
            }
         ],
         "formatted_address" : "Turkey",
         "geometry" : {
            "bounds" : {
               "northeast" : {
                  "lat" : 42.3666999,
                  "lng" : 44.8178449
               },
               "southwest" : {
                  "lat" : 35.808592,
                  "lng" : 25.5377
               }
            },
            "location" : {
               "lat" : 38.963745,
               "lng" : 35.243322
            },
            "location_type" : "APPROXIMATE",
            "viewport" : {
               "northeast" : {
                  "lat" : 42.3666999,
                  "lng" : 44.8178449
               },
               "southwest" : {
                  "lat" : 35.808592,
                  "lng" : 25.5377
               }
            }
         },
         "place_id" : "ChIJcSZPllwVsBQRKl9iKtTb2UA",
         "types" : [ "country", "political" ]
      }
   ],
   "status" : "OK"
}
