{
   "plus_code" : {
      "compound_code" : "5W5C+582 Beypazarı/Ankara, Turkey",
      "global_code" : "8GGH5W5C+582"
   },
   "results" : [
      {
         "address_components" : [
            {
               "long_name" : "31",
               "short_name" : "31",
               "types" : [ "street_number" ]
            },
            {
               "long_name" : "Şehit Ali Başmakçı Sokak",
               "short_name" : "Şht. Ali Başmakçı Sk.",
               "types" : [ "route" ]
            },
            {
               "long_name" : "Hacıkara",
               "short_name" : "Hacıkara",
               "types" : [ "administrative_area_level_4", "political" ]
            },
            {
               "long_name" : "Beypazarı",
               "short_name" : "Beypazarı",
               "types" : [ "administrative_area_level_2", "political" ]
            },
            {
               "long_name" : "Ankara",
               "short_name" : "Ankara",
               "types" : [ "administrative_area_level_1", "political" ]
            },
            {
               "long_name" : "Turkey",
               "short_name" : "TR",
               "types" : [ "country", "political" ]
            },
            {
               "long_name" : "06730",
               "short_name" : "06730",
               "types" : [ "postal_code" ]
            }
         ],
         "formatted_address" : "Hacıkara, Şht. Ali Başmakçı Sk. No:31, 06730 Beypazarı/Ankara, Turkey",
         "geometry" : {
            "bounds" : {
               "northeast" : {
                  "lat" : 40.158086,
                  "lng" : 31.9207042
               },
               "southwest" : {
                  "lat" : 40.1578806,
                  "lng" : 31.9205076
               }
            },
            "location" : {
               "lat" : 40.1579539,
               "lng" : 31.9205996
            },
            "location_type" : "ROOFTOP",
            "viewport" : {
               "northeast" : {
                  "lat" : 40.15933228029149,
                  "lng" : 31.9219548802915
               },
               "southwest" : {
                  "lat" : 40.15663431970849,
                  "lng" : 31.9192569197085
               }
            }
         },
         "place_id" : "ChIJJ-uCy5S50hQRcuyNvqqjVt8",
         "types" : [ "premise" ]
      },
      {
         "address_components" : [
            {
               "long_name" : "31",
               "short_name" : "31",
               "types" : [ "street_number" ]
            },
            {
               "long_name" : "Şehit Ali Başmakçı Sokak",
               "short_name" : "Şht. Ali Başmakçı Sk.",
               "types" : [ "route" ]
            },
            {
               "long_name" : "Hacıkara",
               "short_name" : "Hacıkara",
               "types" : [ "administrative_area_level_4", "political" ]
            },
            {
               "long_name" : "Beypazarı",
               "short_name" : "Beypazarı",
               "types" : [ "administrative_area_level_2", "political" ]
            },
            {
               "long_name" : "Ankara",
               "short_name" : "Ankara",
               "types" : [ "administrative_area_level_1", "political" ]
            },
            {
               "long_name" : "Turkey",
               "short_name" : "TR",
               "types" : [ "country", "political" ]
            },
            {
               "long_name" : "06730",
               "short_name" : "06730",
               "types" : [ "postal_code" ]
            }
         ],
         "formatted_address" : "Hacıkara, Şht. Ali Başmakçı Sk. No:31, 06730 Beypazarı/Ankara, Turkey",
         "geometry" : {
            "location" : {
               "lat" : 40.1580426,
               "lng" : 31.9205309
            },
            "location_type" : "ROOFTOP",
            "viewport" : {
               "northeast" : {
                  "lat" : 40.1593915802915,
                  "lng" : 31.9218798802915
               },
               "southwest" : {
                  "lat" : 40.15669361970851,
                  "lng" : 31.9191819197085
               }
            }
         },
         "place_id" : "ChIJqdFWypS50hQRsR4TlqjrQlU",
         "plus_code" : {
            "compound_code" : "5W5C+66 Beypazarı/Ankara, Turkey",
            "global_code" : "8GGH5W5C+66"
         },
         "types" : [
            "establishment",
            "food",
            "grocery_or_supermarket",
            "point_of_interest",
            "store"
         ]
      },
      {
         "address_components" : [
            {
               "long_name" : "33",
               "short_name" : "33",
               "types" : [ "street_number" ]
            },
            {
               "long_name" : "Şehit Ali Başmakçı Sokak",
               "short_name" : "Şht. Ali Başmakçı Sk.",
               "types" : [ "route" ]
            },
            {
               "long_name" : "Hacıkara",
               "short_name" : "Hacıkara",
               "types" : [ "administrative_area_level_4", "political" ]
            },
            {
               "long_name" : "Beypazarı",
               "short_name" : "Beypazarı",
               "types" : [ "administrative_area_level_2", "political" ]
            },
            {
               "long_name" : "Ankara",
               "short_name" : "Ankara",
               "types" : [ "administrative_area_level_1", "political" ]
            },
            {
               "long_name" : "Turkey",
               "short_name" : "TR",
               "types" : [ "country", "political" ]
            },
            {
               "long_name" : "06730",
               "short_name" : "06730",
               "types" : [ "postal_code" ]
            }
         ],
         "formatted_address" : "Hacıkara, Şht. Ali Başmakçı Sk. No:33, 06730 Beypazarı/Ankara, Turkey",
         "geometry" : {
            "location" : {
               "lat" : 40.157849,
               "lng" : 31.920401
            },
            "location_type" : "ROOFTOP",
            "viewport" : {
               "northeast" : {
                  "lat" : 40.1591979802915,
                  "lng" : 31.9217499802915
               },
               "southwest" : {
                  "lat" : 40.1565000197085,
                  "lng" : 31.9190520197085
               }
            }
         },
         "place_id" : "ChIJ36OWyZS50hQRv2O7uIQmSZA",
         "plus_code" : {
            "compound_code" : "5W5C+45 Beypazarı/Ankara, Turkey",
            "global_code" : "8GGH5W5C+45"
         },
         "types" : [ "street_address" ]
      },
      {
         "address_components" : [
            {
               "long_name" : "32",
               "short_name" : "32",
               "types" : [ "street_number" ]
            },
            {
               "long_name" : "Madadin Sokak",
               "short_name" : "Madadin Sk.",
               "types" : [ "route" ]
            },
            {
               "long_name" : "Hacıkara",
               "short_name" : "Hacıkara",
               "types" : [ "administrative_area_level_4", "political" ]
            },
            {
               "long_name" : "Beypazarı",
               "short_name" : "Beypazarı",
               "types" : [ "administrative_area_level_2", "political" ]
            },
            {
               "long_name" : "Ankara",
               "short_name" : "Ankara",
               "types" : [ "administrative_area_level_1", "political" ]
            },
            {
               "long_name" : "Turkey",
               "short_name" : "TR",
               "types" : [ "country", "political" ]
            },
            {
               "long_name" : "06730",
               "short_name" : "06730",
               "types" : [ "postal_code" ]
            }
         ],
         "formatted_address" : "Hacıkara, Madadin Sk. No:32, 06730 Beypazarı/Ankara, Turkey",
         "geometry" : {
            "location" : {
               "lat" : 40.157971,
               "lng" : 31.921108
            },
            "location_type" : "RANGE_INTERPOLATED",
            "viewport" : {
               "northeast" : {
                  "lat" : 40.15931998029149,
                  "lng" : 31.9224569802915
               },
               "southwest" : {
                  "lat" : 40.15662201970849,
                  "lng" : 31.9197590197085
               }
            }
         },
         "place_id" : "Ej1IYWPEsWthcmEsIE1hZGFkaW4gU2suIE5vOjMyLCAwNjczMCBCZXlwYXphcsSxL0Fua2FyYSwgVHVya2V5IhoSGAoUChIJheY7Leu50hQR8nEAZQ-RC-wQIA",
         "types" : [ "street_address" ]
      },
      {
         "address_components" : [
            {
               "long_name" : "5W5C+58",
               "short_name" : "5W5C+58",
               "types" : [ "plus_code" ]
            },
            {
               "long_name" : "Beypazarı",
               "short_name" : "Beypazarı",
               "types" : [ "administrative_area_level_2", "political" ]
            },
            {
               "long_name" : "Ankara",
               "short_name" : "Ankara",
               "types" : [ "administrative_area_level_1", "political" ]
            },
            {
               "long_name" : "Turkey",
               "short_name" : "TR",
               "types" : [ "country", "political" ]
            }
         ],
         "formatted_address" : "5W5C+58 Beypazarı/Ankara, Turkey",
         "geometry" : {
            "bounds" : {
               "northeast" : {
                  "lat" : 40.158,
                  "lng" : 31.920875
               },
               "southwest" : {
                  "lat" : 40.157875,
                  "lng" : 31.92075
               }
            },
            "location" : {
               "lat" : 40.1578852,
               "lng" : 31.9207764
            },
            "location_type" : "GEOMETRIC_CENTER",
            "viewport" : {
               "northeast" : {
                  "lat" : 40.15928648029149,
                  "lng" : 31.9221614802915
               },
               "southwest" : {
                  "lat" : 40.1565885197085,
                  "lng" : 31.9194635197085
               }
            }
         },
         "place_id" : "GhIJ3kINlTUUREARue2MALjrP0A",
         "plus_code" : {
            "compound_code" : "5W5C+58 Beypazarı/Ankara, Turkey",
            "global_code" : "8GGH5W5C+58"
         },
         "types" : [ "plus_code" ]
      },
      {
         "address_components" : [
            {
               "long_name" : "Madadin 1. Sokak",
               "short_name" : "Madadin 1. Sk.",
               "types" : [ "route" ]
            },
            {
               "long_name" : "Hacıkara",
               "short_name" : "Hacıkara",
               "types" : [ "administrative_area_level_4", "political" ]
            },
            {
               "long_name" : "Beypazarı",
               "short_name" : "Beypazarı",
               "types" : [ "administrative_area_level_2", "political" ]
            },
            {
               "long_name" : "Ankara",
               "short_name" : "Ankara",
               "types" : [ "administrative_area_level_1", "political" ]
            },
            {
               "long_name" : "Turkey",
               "short_name" : "TR",
               "types" : [ "country", "political" ]
            },
            {
               "long_name" : "06730",
               "short_name" : "06730",
               "types" : [ "postal_code" ]
            }
         ],
         "formatted_address" : "Hacıkara, Madadin 1. Sk., 06730 Beypazarı/Ankara, Turkey",
         "geometry" : {
            "bounds" : {
               "northeast" : {
                  "lat" : 40.1579183,
                  "lng" : 31.9209375
               },
               "southwest" : {
                  "lat" : 40.1577376,
                  "lng" : 31.92091039999999
               }
            },
            "location" : {
               "lat" : 40.1578277,
               "lng" : 31.9209263
            },
            "location_type" : "GEOMETRIC_CENTER",
            "viewport" : {
               "northeast" : {
                  "lat" : 40.15917693029149,
                  "lng" : 31.92227293029149
               },
               "southwest" : {
                  "lat" : 40.15647896970849,
                  "lng" : 31.9195749697085
               }
            }
         },
         "place_id" : "ChIJBzyXzZS50hQRyh1gTtnq3F0",
         "types" : [ "route" ]
      },
      {
         "address_components" : [
            {
               "long_name" : "06730",
               "short_name" : "06730",
               "types" : [ "postal_code" ]
            },
            {
               "long_name" : "Hacıkara",
               "short_name" : "Hacıkara",
               "types" : [ "administrative_area_level_4", "political" ]
            },
            {
               "long_name" : "Beypazarı",
               "short_name" : "Beypazarı",
               "types" : [ "administrative_area_level_2", "political" ]
            },
            {
               "long_name" : "Ankara",
               "short_name" : "Ankara",
               "types" : [ "administrative_area_level_1", "political" ]
            },
            {
               "long_name" : "Turkey",
               "short_name" : "TR",
               "types" : [ "country", "political" ]
            }
         ],
         "formatted_address" : "Hacıkara, 06730 Beypazarı/Ankara, Turkey",
         "geometry" : {
            "bounds" : {
               "northeast" : {
                  "lat" : 40.167208,
                  "lng" : 31.926789
               },
               "southwest" : {
                  "lat" : 40.115182,
                  "lng" : 31.903533
               }
            },
            "location" : {
               "lat" : 40.1387766,
               "lng" : 31.9160211
            },
            "location_type" : "APPROXIMATE",
            "viewport" : {
               "northeast" : {
                  "lat" : 40.167208,
                  "lng" : 31.926789
               },
               "southwest" : {
                  "lat" : 40.115182,
                  "lng" : 31.903533
               }
            }
         },
         "place_id" : "ChIJ6fWs2Xe50hQRk_-I9ijTARs",
         "types" : [ "postal_code" ]
      },
      {
         "address_components" : [
            {
               "long_name" : "Hacıkara",
               "short_name" : "Hacıkara",
               "types" : [ "administrative_area_level_4", "political" ]
            },
            {
               "long_name" : "Beypazarı",
               "short_name" : "Beypazarı",
               "types" : [ "administrative_area_level_2", "political" ]
            },
            {
               "long_name" : "Ankara",
               "short_name" : "Ankara",
               "types" : [ "administrative_area_level_1", "political" ]
            },
            {
               "long_name" : "Turkey",
               "short_name" : "TR",
               "types" : [ "country", "political" ]
            }
         ],
         "formatted_address" : "Hacıkara, Beypazarı/Ankara, Turkey",
         "geometry" : {
            "bounds" : {
               "northeast" : {
                  "lat" : 40.167208,
                  "lng" : 31.932164
               },
               "southwest" : {
                  "lat" : 40.1143481,
                  "lng" : 31.903533
               }
            },
            "location" : {
               "lat" : 40.1526195,
               "lng" : 31.9160211
            },
            "location_type" : "APPROXIMATE",
            "viewport" : {
               "northeast" : {
                  "lat" : 40.167208,
                  "lng" : 31.932164
               },
               "southwest" : {
                  "lat" : 40.1143481,
                  "lng" : 31.903533
               }
            }
         },
         "place_id" : "ChIJQc_rs5G50hQRM4uo2T1Ce_Q",
         "types" : [ "administrative_area_level_4", "political" ]
      },
      {
         "address_components" : [
            {
               "long_name" : "Beypazarı",
               "short_name" : "Beypazarı",
               "types" : [ "locality", "political" ]
            },
            {
               "long_name" : "Beypazarı",
               "short_name" : "Beypazarı",
               "types" : [ "administrative_area_level_2", "political" ]
            },
            {
               "long_name" : "Ankara",
               "short_name" : "Ankara",
               "types" : [ "administrative_area_level_1", "political" ]
            },
            {
               "long_name" : "Turkey",
               "short_name" : "TR",
               "types" : [ "country", "political" ]
            }
         ],
         "formatted_address" : "Beypazarı, Ankara, Turkey",
         "geometry" : {
            "bounds" : {
               "northeast" : {
                  "lat" : 40.181357,
                  "lng" : 31.9550281
               },
               "southwest" : {
                  "lat" : 40.1433898,
                  "lng" : 31.896961
               }
            },
            "location" : {
               "lat" : 40.168218,
               "lng" : 31.920441
            },
            "location_type" : "APPROXIMATE",
            "viewport" : {
               "northeast" : {
                  "lat" : 40.181357,
                  "lng" : 31.9550281
               },
               "southwest" : {
                  "lat" : 40.1433898,
                  "lng" : 31.896961
               }
            }
         },
         "place_id" : "ChIJb0PCYey50hQRMK-EAWiA6N4",
         "types" : [ "locality", "political" ]
      },
      {
         "address_components" : [
            {
               "long_name" : "Beypazarı",
               "short_name" : "Beypazarı",
               "types" : [ "administrative_area_level_2", "political" ]
            },
            {
               "long_name" : "Ankara",
               "short_name" : "Ankara",
               "types" : [ "administrative_area_level_1", "political" ]
            },
            {
               "long_name" : "Turkey",
               "short_name" : "TR",
               "types" : [ "country", "political" ]
            }
         ],
         "formatted_address" : "Beypazarı/Ankara, Turkey",
         "geometry" : {
            "bounds" : {
               "northeast" : {
                  "lat" : 40.421678,
                  "lng" : 32.2130269
               },
               "southwest" : {
                  "lat" : 39.869159,
                  "lng" : 31.6840201
               }
            },
            "location" : {
               "lat" : 40.1085204,
               "lng" : 31.9017954
            },
            "location_type" : "APPROXIMATE",
            "viewport" : {
               "northeast" : {
                  "lat" : 40.421678,
                  "lng" : 32.2130269
               },
               "southwest" : {
                  "lat" : 39.869159,
                  "lng" : 31.6840201
               }
            }
         },
         "place_id" : "ChIJXfvkXEu40hQRUhxfGKqcgR8",
         "types" : [ "administrative_area_level_2", "political" ]
      },
      {
         "address_components" : [
            {
               "long_name" : "Ankara",
               "short_name" : "Ankara",
               "types" : [ "administrative_area_level_1", "political" ]
            },
            {
               "long_name" : "Turkey",
               "short_name" : "TR",
               "types" : [ "country", "political" ]
            }
         ],
         "formatted_address" : "Ankara, Turkey",
         "geometry" : {
            "bounds" : {
               "northeast" : {
                  "lat" : 40.756282,
                  "lng" : 33.871969
               },
               "southwest" : {
                  "lat" : 38.6699421,
                  "lng" : 30.8240371
               }
            },
            "location" : {
               "lat" : 39.7805245,
               "lng" : 32.7181375
            },
            "location_type" : "APPROXIMATE",
            "viewport" : {
               "northeast" : {
                  "lat" : 40.756282,
                  "lng" : 33.871969
               },
               "southwest" : {
                  "lat" : 38.6699421,
                  "lng" : 30.8240371
               }
            }
         },
         "place_id" : "ChIJ2UbubYMC0xQRePrg-9apYgY",
         "types" : [ "administrative_area_level_1", "political" ]
      },
      {
         "address_components" : [
            {
               "long_name" : "Turkey",
               "short_name" : "TR",
               "types" : [ "country", "political" ]
            }
         ],
         "formatted_address" : "Turkey",
         "geometry" : {
            "bounds" : {
               "northeast" : {
                  "lat" : 42.3666999,
                  "lng" : 44.8178449
               },
               "southwest" : {
                  "lat" : 35.808592,
                  "lng" : 25.5377
               }
            },
            "location" : {
               "lat" : 38.963745,
               "lng" : 35.243322
            },
            "location_type" : "APPROXIMATE",
            "viewport" : {
               "northeast" : {
                  "lat" : 42.3666999,
                  "lng" : 44.8178449
               },
               "southwest" : {
                  "lat" : 35.808592,
                  "lng" : 25.5377
               }
            }
         },
         "place_id" : "ChIJcSZPllwVsBQRKl9iKtTb2UA",
         "types" : [ "country", "political" ]
      }
   ],
   "status" : "OK"
}
