{
   "plus_code" : {
      "compound_code" : "QWCW+VH İzmit/Kocaeli, Turkey",
      "global_code" : "8GGFQWCW+VH"
   },
   "results" : [
      {
         "address_components" : [
            {
               "long_name" : "32",
               "short_name" : "32",
               "types" : [ "street_number" ]
            },
            {
               "long_name" : "Kanlıbağ Sokak",
               "short_name" : "Kanlıbağ Sk.",
               "types" : [ "route" ]
            },
            {
               "long_name" : "Erenler",
               "short_name" : "Erenler",
               "types" : [ "administrative_area_level_4", "political" ]
            },
            {
               "long_name" : "İzmit",
               "short_name" : "İzmit",
               "types" : [ "administrative_area_level_2", "political" ]
            },
            {
               "long_name" : "Kocaeli",
               "short_name" : "Kocaeli",
               "types" : [ "administrative_area_level_1", "political" ]
            },
            {
               "long_name" : "Turkey",
               "short_name" : "TR",
               "types" : [ "country", "political" ]
            },
            {
               "long_name" : "41060",
               "short_name" : "41060",
               "types" : [ "postal_code" ]
            }
         ],
         "formatted_address" : "Erenler, Kanlıbağ Sk. No:32, 41060 İzmit/Kocaeli, Turkey",
         "geometry" : {
            "location" : {
               "lat" : 40.7720925,
               "lng" : 29.9463941
            },
            "location_type" : "ROOFTOP",
            "viewport" : {
               "northeast" : {
                  "lat" : 40.7734414802915,
                  "lng" : 29.9477430802915
               },
               "southwest" : {
                  "lat" : 40.7707435197085,
                  "lng" : 29.9450451197085
               }
            }
         },
         "place_id" : "ChIJJRPzNpJPyxQRT-OLYNk7U1U",
         "plus_code" : {
            "compound_code" : "QWCW+RH İzmit/Kocaeli, Turkey",
            "global_code" : "8GGFQWCW+RH"
         },
         "types" : [ "street_address" ]
      },
      {
         "address_components" : [
            {
               "long_name" : "34",
               "short_name" : "34",
               "types" : [ "street_number" ]
            },
            {
               "long_name" : "Kanlıbağ Sokak",
               "short_name" : "Kanlıbağ Sk.",
               "types" : [ "route" ]
            },
            {
               "long_name" : "Erenler",
               "short_name" : "Erenler",
               "types" : [ "administrative_area_level_4", "political" ]
            },
            {
               "long_name" : "İzmit",
               "short_name" : "İzmit",
               "types" : [ "administrative_area_level_2", "political" ]
            },
            {
               "long_name" : "Kocaeli",
               "short_name" : "Kocaeli",
               "types" : [ "administrative_area_level_1", "political" ]
            },
            {
               "long_name" : "Turkey",
               "short_name" : "TR",
               "types" : [ "country", "political" ]
            },
            {
               "long_name" : "41060",
               "short_name" : "41060",
               "types" : [ "postal_code" ]
            }
         ],
         "formatted_address" : "Erenler, Kanlıbağ Sk. No:34, 41060 İzmit/Kocaeli, Turkey",
         "geometry" : {
            "location" : {
               "lat" : 40.7722152,
               "lng" : 29.9464513
            },
            "location_type" : "RANGE_INTERPOLATED",
            "viewport" : {
               "northeast" : {
                  "lat" : 40.77356418029149,
                  "lng" : 29.9478002802915
               },
               "southwest" : {
                  "lat" : 40.77086621970849,
                  "lng" : 29.9451023197085
               }
            }
         },
         "place_id" : "EjtFcmVubGVyLCBLYW5sxLFiYcSfIFNrLiBObzozNCwgNDEwNjAgxLB6bWl0L0tvY2FlbGksIFR1cmtleSIaEhgKFAoSCRe7rzaST8sUEdtbhAlfpeDQECI",
         "types" : [ "street_address" ]
      },
      {
         "address_components" : [
            {
               "long_name" : "35-13",
               "short_name" : "35-13",
               "types" : [ "street_number" ]
            },
            {
               "long_name" : "Kanlıbağ Sokak",
               "short_name" : "Kanlıbağ Sk.",
               "types" : [ "route" ]
            },
            {
               "long_name" : "Erenler",
               "short_name" : "Erenler",
               "types" : [ "administrative_area_level_4", "political" ]
            },
            {
               "long_name" : "İzmit",
               "short_name" : "İzmit",
               "types" : [ "administrative_area_level_2", "political" ]
            },
            {
               "long_name" : "Kocaeli",
               "short_name" : "Kocaeli",
               "types" : [ "administrative_area_level_1", "political" ]
            },
            {
               "long_name" : "Turkey",
               "short_name" : "TR",
               "types" : [ "country", "political" ]
            },
            {
               "long_name" : "41060",
               "short_name" : "41060",
               "types" : [ "postal_code" ]
            }
         ],
         "formatted_address" : "Erenler, Kanlıbağ Sk. 35-13, 41060 İzmit/Kocaeli, Turkey",
         "geometry" : {
            "bounds" : {
               "northeast" : {
                  "lat" : 40.7724407,
                  "lng" : 29.9466417
               },
               "southwest" : {
                  "lat" : 40.7716814,
                  "lng" : 29.9459252
               }
            },
            "location" : {
               "lat" : 40.7720637,
               "lng" : 29.94627869999999
            },
            "location_type" : "GEOMETRIC_CENTER",
            "viewport" : {
               "northeast" : {
                  "lat" : 40.7734100302915,
                  "lng" : 29.9476324302915
               },
               "southwest" : {
                  "lat" : 40.7707120697085,
                  "lng" : 29.9449344697085
               }
            }
         },
         "place_id" : "ChIJF7uvNpJPyxQR2luECV-l4NA",
         "types" : [ "route" ]
      },
      {
         "address_components" : [
            {
               "long_name" : "QWCW+VH",
               "short_name" : "QWCW+VH",
               "types" : [ "plus_code" ]
            },
            {
               "long_name" : "İzmit",
               "short_name" : "İzmit",
               "types" : [ "administrative_area_level_2", "political" ]
            },
            {
               "long_name" : "Kocaeli",
               "short_name" : "Kocaeli",
               "types" : [ "administrative_area_level_1", "political" ]
            },
            {
               "long_name" : "Turkey",
               "short_name" : "TR",
               "types" : [ "country", "political" ]
            }
         ],
         "formatted_address" : "QWCW+VH İzmit/Kocaeli, Turkey",
         "geometry" : {
            "bounds" : {
               "northeast" : {
                  "lat" : 40.77225,
                  "lng" : 29.9465
               },
               "southwest" : {
                  "lat" : 40.772125,
                  "lng" : 29.946375
               }
            },
            "location" : {
               "lat" : 40.7721569,
               "lng" : 29.946413
            },
            "location_type" : "GEOMETRIC_CENTER",
            "viewport" : {
               "northeast" : {
                  "lat" : 40.77353648029149,
                  "lng" : 29.94778648029151
               },
               "southwest" : {
                  "lat" : 40.7708385197085,
                  "lng" : 29.94508851970851
               }
            }
         },
         "place_id" : "GhIJvHCMCdZiREARX4JTH0jyPUA",
         "plus_code" : {
            "compound_code" : "QWCW+VH İzmit/Kocaeli, Turkey",
            "global_code" : "8GGFQWCW+VH"
         },
         "types" : [ "plus_code" ]
      },
      {
         "address_components" : [
            {
               "long_name" : "Erenler",
               "short_name" : "Erenler",
               "types" : [ "administrative_area_level_4", "political" ]
            },
            {
               "long_name" : "İzmit",
               "short_name" : "İzmit",
               "types" : [ "administrative_area_level_2", "political" ]
            },
            {
               "long_name" : "Kocaeli",
               "short_name" : "Kocaeli",
               "types" : [ "administrative_area_level_1", "political" ]
            },
            {
               "long_name" : "Turkey",
               "short_name" : "TR",
               "types" : [ "country", "political" ]
            },
            {
               "long_name" : "41060",
               "short_name" : "41060",
               "types" : [ "postal_code" ]
            }
         ],
         "formatted_address" : "Erenler, 41060 İzmit/Kocaeli, Turkey",
         "geometry" : {
            "bounds" : {
               "northeast" : {
                  "lat" : 40.78165509999999,
                  "lng" : 29.94917999999999
               },
               "southwest" : {
                  "lat" : 40.768521,
                  "lng" : 29.937464
               }
            },
            "location" : {
               "lat" : 40.7766241,
               "lng" : 29.9436979
            },
            "location_type" : "APPROXIMATE",
            "viewport" : {
               "northeast" : {
                  "lat" : 40.78165509999999,
                  "lng" : 29.94917999999999
               },
               "southwest" : {
                  "lat" : 40.768521,
                  "lng" : 29.937464
               }
            }
         },
         "place_id" : "ChIJ6_NlM5FPyxQRqnfbY372WDk",
         "types" : [ "administrative_area_level_4", "political" ]
      },
      {
         "address_components" : [
            {
               "long_name" : "41060",
               "short_name" : "41060",
               "types" : [ "postal_code" ]
            },
            {
               "long_name" : "Erenler",
               "short_name" : "Erenler",
               "types" : [ "administrative_area_level_4", "political" ]
            },
            {
               "long_name" : "İzmit",
               "short_name" : "İzmit",
               "types" : [ "administrative_area_level_2", "political" ]
            },
            {
               "long_name" : "Kocaeli",
               "short_name" : "Kocaeli",
               "types" : [ "administrative_area_level_1", "political" ]
            },
            {
               "long_name" : "Turkey",
               "short_name" : "TR",
               "types" : [ "country", "political" ]
            }
         ],
         "formatted_address" : "Erenler, 41060 İzmit/Kocaeli, Turkey",
         "geometry" : {
            "bounds" : {
               "northeast" : {
                  "lat" : 40.78165509999999,
                  "lng" : 29.94917999999999
               },
               "southwest" : {
                  "lat" : 40.768521,
                  "lng" : 29.937464
               }
            },
            "location" : {
               "lat" : 40.7766241,
               "lng" : 29.9436979
            },
            "location_type" : "APPROXIMATE",
            "viewport" : {
               "northeast" : {
                  "lat" : 40.78165509999999,
                  "lng" : 29.94917999999999
               },
               "southwest" : {
                  "lat" : 40.768521,
                  "lng" : 29.937464
               }
            }
         },
         "place_id" : "ChIJy3DMMJFPyxQR-jTIsIyfBZg",
         "types" : [ "postal_code" ]
      },
      {
         "address_components" : [
            {
               "long_name" : "İzmit",
               "short_name" : "İzmit",
               "types" : [ "locality", "political" ]
            },
            {
               "long_name" : "İzmit",
               "short_name" : "İzmit",
               "types" : [ "administrative_area_level_2", "political" ]
            },
            {
               "long_name" : "Kocaeli",
               "short_name" : "Kocaeli",
               "types" : [ "administrative_area_level_1", "political" ]
            },
            {
               "long_name" : "Turkey",
               "short_name" : "TR",
               "types" : [ "country", "political" ]
            }
         ],
         "formatted_address" : "İzmit, Kocaeli, Turkey",
         "geometry" : {
            "bounds" : {
               "northeast" : {
                  "lat" : 40.805401,
                  "lng" : 30.014834
               },
               "southwest" : {
                  "lat" : 40.736827,
                  "lng" : 29.8541681
               }
            },
            "location" : {
               "lat" : 40.7654408,
               "lng" : 29.9408089
            },
            "location_type" : "APPROXIMATE",
            "viewport" : {
               "northeast" : {
                  "lat" : 40.805401,
                  "lng" : 30.014834
               },
               "southwest" : {
                  "lat" : 40.736827,
                  "lng" : 29.8541681
               }
            }
         },
         "place_id" : "ChIJnftLZGZPyxQRuX5rWOcOaYI",
         "types" : [ "locality", "political" ]
      },
      {
         "address_components" : [
            {
               "long_name" : "İzmit",
               "short_name" : "İzmit",
               "types" : [ "administrative_area_level_2", "political" ]
            },
            {
               "long_name" : "Kocaeli",
               "short_name" : "Kocaeli",
               "types" : [ "administrative_area_level_1", "political" ]
            },
            {
               "long_name" : "Turkey",
               "short_name" : "TR",
               "types" : [ "country", "political" ]
            }
         ],
         "formatted_address" : "İzmit/Kocaeli, Turkey",
         "geometry" : {
            "bounds" : {
               "northeast" : {
                  "lat" : 40.971557,
                  "lng" : 30.2639339
               },
               "southwest" : {
                  "lat" : 40.720553,
                  "lng" : 29.8541681
               }
            },
            "location" : {
               "lat" : 40.8506635,
               "lng" : 30.0202964
            },
            "location_type" : "APPROXIMATE",
            "viewport" : {
               "northeast" : {
                  "lat" : 40.971557,
                  "lng" : 30.2639339
               },
               "southwest" : {
                  "lat" : 40.720553,
                  "lng" : 29.8541681
               }
            }
         },
         "place_id" : "ChIJL2DfPLZQyxQRitx6sY9PIGU",
         "types" : [ "administrative_area_level_2", "political" ]
      },
      {
         "address_components" : [
            {
               "long_name" : "Kocaeli",
               "short_name" : "Kocaeli",
               "types" : [ "administrative_area_level_1", "political" ]
            },
            {
               "long_name" : "Turkey",
               "short_name" : "TR",
               "types" : [ "country", "political" ]
            }
         ],
         "formatted_address" : "Kocaeli, Turkey",
         "geometry" : {
            "bounds" : {
               "northeast" : {
                  "lat" : 41.20976,
                  "lng" : 30.367743
               },
               "southwest" : {
                  "lat" : 40.524151,
                  "lng" : 29.3331261
               }
            },
            "location" : {
               "lat" : 40.8532704,
               "lng" : 29.8815203
            },
            "location_type" : "APPROXIMATE",
            "viewport" : {
               "northeast" : {
                  "lat" : 41.20976,
                  "lng" : 30.367743
               },
               "southwest" : {
                  "lat" : 40.524151,
                  "lng" : 29.3331261
               }
            }
         },
         "place_id" : "ChIJQ8zKb5QgyxQRWdhW642zLKg",
         "types" : [ "administrative_area_level_1", "political" ]
      },
      {
         "address_components" : [
            {
               "long_name" : "Turkey",
               "short_name" : "TR",
               "types" : [ "country", "political" ]
            }
         ],
         "formatted_address" : "Turkey",
         "geometry" : {
            "bounds" : {
               "northeast" : {
                  "lat" : 42.3666999,
                  "lng" : 44.8178449
               },
               "southwest" : {
                  "lat" : 35.808592,
                  "lng" : 25.5377
               }
            },
            "location" : {
               "lat" : 38.963745,
               "lng" : 35.243322
            },
            "location_type" : "APPROXIMATE",
            "viewport" : {
               "northeast" : {
                  "lat" : 42.3666999,
                  "lng" : 44.8178449
               },
               "southwest" : {
                  "lat" : 35.808592,
                  "lng" : 25.5377
               }
            }
         },
         "place_id" : "ChIJcSZPllwVsBQRKl9iKtTb2UA",
         "types" : [ "country", "political" ]
      }
   ],
   "status" : "OK"
}
