{
   "plus_code" : {
      "compound_code" : "PXJV+72 Başiskele/Kocaeli, Turkey",
      "global_code" : "8GGFPXJV+72"
   },
   "results" : [
      {
         "address_components" : [
            {
               "long_name" : "15",
               "short_name" : "15",
               "types" : [ "street_number" ]
            },
            {
               "long_name" : "Akik Sokak",
               "short_name" : "Akik Sk.",
               "types" : [ "route" ]
            },
            {
               "long_name" : "Ovacık",
               "short_name" : "Ovacık",
               "types" : [ "administrative_area_level_4", "political" ]
            },
            {
               "long_name" : "Başiskele",
               "short_name" : "Başiskele",
               "types" : [ "administrative_area_level_2", "political" ]
            },
            {
               "long_name" : "Kocaeli",
               "short_name" : "Kocaeli",
               "types" : [ "administrative_area_level_1", "political" ]
            },
            {
               "long_name" : "Turkey",
               "short_name" : "TR",
               "types" : [ "country", "political" ]
            },
            {
               "long_name" : "41140",
               "short_name" : "41140",
               "types" : [ "postal_code" ]
            }
         ],
         "formatted_address" : "Ovacık, Akik Sk. No:15, 41140 Başiskele/Kocaeli, Turkey",
         "geometry" : {
            "location" : {
               "lat" : 40.7307683,
               "lng" : 29.99337359999999
            },
            "location_type" : "ROOFTOP",
            "viewport" : {
               "northeast" : {
                  "lat" : 40.7321172802915,
                  "lng" : 29.99472258029149
               },
               "southwest" : {
                  "lat" : 40.72941931970851,
                  "lng" : 29.99202461970849
               }
            }
         },
         "place_id" : "ChIJmT9XGr9ayxQR93ohQZsI5fk",
         "plus_code" : {
            "compound_code" : "PXJV+88 Başiskele/Kocaeli, Turkey",
            "global_code" : "8GGFPXJV+88"
         },
         "types" : [ "establishment", "point_of_interest", "stadium" ]
      },
      {
         "address_components" : [
            {
               "long_name" : "15",
               "short_name" : "15",
               "types" : [ "street_number" ]
            },
            {
               "long_name" : "Yeni Yol Caddesi",
               "short_name" : "Yeni Yol Cd.",
               "types" : [ "route" ]
            },
            {
               "long_name" : "Ovacık",
               "short_name" : "Ovacık",
               "types" : [ "administrative_area_level_4", "political" ]
            },
            {
               "long_name" : "Başiskele",
               "short_name" : "Başiskele",
               "types" : [ "administrative_area_level_2", "political" ]
            },
            {
               "long_name" : "Kocaeli",
               "short_name" : "Kocaeli",
               "types" : [ "administrative_area_level_1", "political" ]
            },
            {
               "long_name" : "Turkey",
               "short_name" : "TR",
               "types" : [ "country", "political" ]
            },
            {
               "long_name" : "41140",
               "short_name" : "41140",
               "types" : [ "postal_code" ]
            }
         ],
         "formatted_address" : "Ovacık, Yeni Yol Cd. No:15, 41140 Başiskele/Kocaeli, Turkey",
         "geometry" : {
            "location" : {
               "lat" : 40.729951,
               "lng" : 29.993556
            },
            "location_type" : "ROOFTOP",
            "viewport" : {
               "northeast" : {
                  "lat" : 40.7312999802915,
                  "lng" : 29.9949049802915
               },
               "southwest" : {
                  "lat" : 40.7286020197085,
                  "lng" : 29.9922070197085
               }
            }
         },
         "place_id" : "ChIJP8Zfbb9ayxQRysMSB2veEqA",
         "plus_code" : {
            "compound_code" : "PXHV+XC Başiskele/Kocaeli, Turkey",
            "global_code" : "8GGFPXHV+XC"
         },
         "types" : [ "street_address" ]
      },
      {
         "address_components" : [
            {
               "long_name" : "PXJV+72",
               "short_name" : "PXJV+72",
               "types" : [ "plus_code" ]
            },
            {
               "long_name" : "Başiskele",
               "short_name" : "Başiskele",
               "types" : [ "administrative_area_level_2", "political" ]
            },
            {
               "long_name" : "Kocaeli",
               "short_name" : "Kocaeli",
               "types" : [ "administrative_area_level_1", "political" ]
            },
            {
               "long_name" : "Turkey",
               "short_name" : "TR",
               "types" : [ "country", "political" ]
            }
         ],
         "formatted_address" : "PXJV+72 Başiskele/Kocaeli, Turkey",
         "geometry" : {
            "bounds" : {
               "northeast" : {
                  "lat" : 40.73075,
                  "lng" : 29.992625
               },
               "southwest" : {
                  "lat" : 40.730625,
                  "lng" : 29.9925
               }
            },
            "location" : {
               "lat" : 40.7307386,
               "lng" : 29.9925041
            },
            "location_type" : "GEOMETRIC_CENTER",
            "viewport" : {
               "northeast" : {
                  "lat" : 40.73203648029149,
                  "lng" : 29.9939114802915
               },
               "southwest" : {
                  "lat" : 40.72933851970849,
                  "lng" : 29.9912135197085
               }
            }
         },
         "place_id" : "GhIJYHaq14hdREARWqWqvxT-PUA",
         "plus_code" : {
            "compound_code" : "PXJV+72 Başiskele/Kocaeli, Turkey",
            "global_code" : "8GGFPXJV+72"
         },
         "types" : [ "plus_code" ]
      },
      {
         "address_components" : [
            {
               "long_name" : "Yeni Yol Sokak",
               "short_name" : "Yeni Yol Sk.",
               "types" : [ "route" ]
            },
            {
               "long_name" : "Ovacık",
               "short_name" : "Ovacık",
               "types" : [ "administrative_area_level_4", "political" ]
            },
            {
               "long_name" : "Başiskele",
               "short_name" : "Başiskele",
               "types" : [ "administrative_area_level_2", "political" ]
            },
            {
               "long_name" : "Kocaeli",
               "short_name" : "Kocaeli",
               "types" : [ "administrative_area_level_1", "political" ]
            },
            {
               "long_name" : "Turkey",
               "short_name" : "TR",
               "types" : [ "country", "political" ]
            },
            {
               "long_name" : "41140",
               "short_name" : "41140",
               "types" : [ "postal_code" ]
            }
         ],
         "formatted_address" : "Ovacık, Yeni Yol Sk., 41140 Başiskele/Kocaeli, Turkey",
         "geometry" : {
            "bounds" : {
               "northeast" : {
                  "lat" : 40.7304935,
                  "lng" : 29.993346
               },
               "southwest" : {
                  "lat" : 40.7297615,
                  "lng" : 29.9929248
               }
            },
            "location" : {
               "lat" : 40.73012749999999,
               "lng" : 29.9931354
            },
            "location_type" : "GEOMETRIC_CENTER",
            "viewport" : {
               "northeast" : {
                  "lat" : 40.7314764802915,
                  "lng" : 29.9944843802915
               },
               "southwest" : {
                  "lat" : 40.7287785197085,
                  "lng" : 29.9917864197085
               }
            }
         },
         "place_id" : "ChIJKw3Qbb9ayxQRFN6QcKk1V6A",
         "types" : [ "route" ]
      },
      {
         "address_components" : [
            {
               "long_name" : "26",
               "short_name" : "26",
               "types" : [ "street_number" ]
            },
            {
               "long_name" : "Topsahası Sokak",
               "short_name" : "Topsahası Sk.",
               "types" : [ "route" ]
            },
            {
               "long_name" : "Ovacık",
               "short_name" : "Ovacık",
               "types" : [ "administrative_area_level_4", "political" ]
            },
            {
               "long_name" : "Başiskele",
               "short_name" : "Başiskele",
               "types" : [ "administrative_area_level_2", "political" ]
            },
            {
               "long_name" : "Kocaeli",
               "short_name" : "Kocaeli",
               "types" : [ "administrative_area_level_1", "political" ]
            },
            {
               "long_name" : "Turkey",
               "short_name" : "TR",
               "types" : [ "country", "political" ]
            },
            {
               "long_name" : "41140",
               "short_name" : "41140",
               "types" : [ "postal_code" ]
            }
         ],
         "formatted_address" : "Ovacık, Topsahası Sk. No:26, 41140 Başiskele/Kocaeli, Turkey",
         "geometry" : {
            "location" : {
               "lat" : 40.7297553,
               "lng" : 29.9933327
            },
            "location_type" : "RANGE_INTERPOLATED",
            "viewport" : {
               "northeast" : {
                  "lat" : 40.7311042802915,
                  "lng" : 29.9946816802915
               },
               "southwest" : {
                  "lat" : 40.7284063197085,
                  "lng" : 29.9919837197085
               }
            }
         },
         "place_id" : "Ej9PdmFjxLFrLCBUb3BzYWhhc8SxIFNrLiBObzoyNiwgNDExNDAgQmHFn2lza2VsZS9Lb2NhZWxpLCBUdXJrZXkiGhIYChQKEglTzkFkv1rLFBGXKFtOEf-yKxAa",
         "types" : [ "street_address" ]
      },
      {
         "address_components" : [
            {
               "long_name" : "Ovacık",
               "short_name" : "Ovacık",
               "types" : [ "administrative_area_level_4", "political" ]
            },
            {
               "long_name" : "Başiskele",
               "short_name" : "Başiskele",
               "types" : [ "administrative_area_level_2", "political" ]
            },
            {
               "long_name" : "Kocaeli",
               "short_name" : "Kocaeli",
               "types" : [ "administrative_area_level_1", "political" ]
            },
            {
               "long_name" : "Turkey",
               "short_name" : "TR",
               "types" : [ "country", "political" ]
            },
            {
               "long_name" : "41140",
               "short_name" : "41140",
               "types" : [ "postal_code" ]
            }
         ],
         "formatted_address" : "Ovacık, 41140 Başiskele/Kocaeli, Turkey",
         "geometry" : {
            "bounds" : {
               "northeast" : {
                  "lat" : 40.76206699999999,
                  "lng" : 30.0033109
               },
               "southwest" : {
                  "lat" : 40.7228191,
                  "lng" : 29.9615271
               }
            },
            "location" : {
               "lat" : 40.748149,
               "lng" : 29.9827252
            },
            "location_type" : "APPROXIMATE",
            "viewport" : {
               "northeast" : {
                  "lat" : 40.76206699999999,
                  "lng" : 30.0033109
               },
               "southwest" : {
                  "lat" : 40.7228191,
                  "lng" : 29.9615271
               }
            }
         },
         "place_id" : "ChIJv2Pfja9ayxQR2OKu0RD2zAU",
         "types" : [ "administrative_area_level_4", "political" ]
      },
      {
         "address_components" : [
            {
               "long_name" : "41140",
               "short_name" : "41140",
               "types" : [ "postal_code" ]
            },
            {
               "long_name" : "Başiskele",
               "short_name" : "Başiskele",
               "types" : [ "administrative_area_level_2", "political" ]
            },
            {
               "long_name" : "Kocaeli",
               "short_name" : "Kocaeli",
               "types" : [ "administrative_area_level_1", "political" ]
            },
            {
               "long_name" : "Turkey",
               "short_name" : "TR",
               "types" : [ "country", "political" ]
            }
         ],
         "formatted_address" : "41140 Başiskele/Kocaeli, Turkey",
         "geometry" : {
            "bounds" : {
               "northeast" : {
                  "lat" : 40.76206699999999,
                  "lng" : 30.006598
               },
               "southwest" : {
                  "lat" : 40.722767,
                  "lng" : 29.9615271
               }
            },
            "location" : {
               "lat" : 40.743522,
               "lng" : 29.9827252
            },
            "location_type" : "APPROXIMATE",
            "viewport" : {
               "northeast" : {
                  "lat" : 40.76206699999999,
                  "lng" : 30.006598
               },
               "southwest" : {
                  "lat" : 40.722767,
                  "lng" : 29.9615271
               }
            }
         },
         "place_id" : "ChIJZxSLwOFEyxQRF-uwpy6UpKI",
         "types" : [ "postal_code" ]
      },
      {
         "address_components" : [
            {
               "long_name" : "Başiskele",
               "short_name" : "Başiskele",
               "types" : [ "administrative_area_level_2", "political" ]
            },
            {
               "long_name" : "Kocaeli",
               "short_name" : "Kocaeli",
               "types" : [ "administrative_area_level_1", "political" ]
            },
            {
               "long_name" : "Turkey",
               "short_name" : "TR",
               "types" : [ "country", "political" ]
            }
         ],
         "formatted_address" : "Başiskele/Kocaeli, Turkey",
         "geometry" : {
            "bounds" : {
               "northeast" : {
                  "lat" : 40.76206699999999,
                  "lng" : 30.0578921
               },
               "southwest" : {
                  "lat" : 40.52744,
                  "lng" : 29.847083
               }
            },
            "location" : {
               "lat" : 40.6298368,
               "lng" : 29.950926
            },
            "location_type" : "APPROXIMATE",
            "viewport" : {
               "northeast" : {
                  "lat" : 40.76206699999999,
                  "lng" : 30.0578921
               },
               "southwest" : {
                  "lat" : 40.52744,
                  "lng" : 29.847083
               }
            }
         },
         "place_id" : "ChIJhREav-NCyxQRkAWgNA8cqiY",
         "types" : [ "administrative_area_level_2", "political" ]
      },
      {
         "address_components" : [
            {
               "long_name" : "Kocaeli",
               "short_name" : "Kocaeli",
               "types" : [ "administrative_area_level_1", "political" ]
            },
            {
               "long_name" : "Turkey",
               "short_name" : "TR",
               "types" : [ "country", "political" ]
            }
         ],
         "formatted_address" : "Kocaeli, Turkey",
         "geometry" : {
            "bounds" : {
               "northeast" : {
                  "lat" : 41.20976,
                  "lng" : 30.367743
               },
               "southwest" : {
                  "lat" : 40.524151,
                  "lng" : 29.3331261
               }
            },
            "location" : {
               "lat" : 40.8532704,
               "lng" : 29.8815203
            },
            "location_type" : "APPROXIMATE",
            "viewport" : {
               "northeast" : {
                  "lat" : 41.20976,
                  "lng" : 30.367743
               },
               "southwest" : {
                  "lat" : 40.524151,
                  "lng" : 29.3331261
               }
            }
         },
         "place_id" : "ChIJQ8zKb5QgyxQRWdhW642zLKg",
         "types" : [ "administrative_area_level_1", "political" ]
      },
      {
         "address_components" : [
            {
               "long_name" : "Turkey",
               "short_name" : "TR",
               "types" : [ "country", "political" ]
            }
         ],
         "formatted_address" : "Turkey",
         "geometry" : {
            "bounds" : {
               "northeast" : {
                  "lat" : 42.3666999,
                  "lng" : 44.8178449
               },
               "southwest" : {
                  "lat" : 35.808592,
                  "lng" : 25.5377
               }
            },
            "location" : {
               "lat" : 38.963745,
               "lng" : 35.243322
            },
            "location_type" : "APPROXIMATE",
            "viewport" : {
               "northeast" : {
                  "lat" : 42.3666999,
                  "lng" : 44.8178449
               },
               "southwest" : {
                  "lat" : 35.808592,
                  "lng" : 25.5377
               }
            }
         },
         "place_id" : "ChIJcSZPllwVsBQRKl9iKtTb2UA",
         "types" : [ "country", "political" ]
      }
   ],
   "status" : "OK"
}
