{
   "plus_code" : {
      "compound_code" : "53X5+WGW Osmangazi/Bursa, Turkey",
      "global_code" : "8GGF53X5+WGW"
   },
   "results" : [
      {
         "address_components" : [
            {
               "long_name" : "167",
               "short_name" : "167",
               "types" : [ "street_number" ]
            },
            {
               "long_name" : "Doktor Sadık Ahmet Caddesi",
               "short_name" : "Dr. Sadık Ahmet Cd.",
               "types" : [ "route" ]
            },
            {
               "long_name" : "Santral Garaj",
               "short_name" : "Santral Garaj",
               "types" : [ "administrative_area_level_4", "political" ]
            },
            {
               "long_name" : "Osmangazi",
               "short_name" : "Osmangazi",
               "types" : [ "administrative_area_level_2", "political" ]
            },
            {
               "long_name" : "Bursa",
               "short_name" : "Bursa",
               "types" : [ "administrative_area_level_1", "political" ]
            },
            {
               "long_name" : "Turkey",
               "short_name" : "TR",
               "types" : [ "country", "political" ]
            },
            {
               "long_name" : "16200",
               "short_name" : "16200",
               "types" : [ "postal_code" ]
            }
         ],
         "formatted_address" : "Santral Garaj, Dr. Sadık Ahmet Cd. No:167, 16200 Osmangazi/Bursa, Turkey",
         "geometry" : {
            "location" : {
               "lat" : 40.1998065,
               "lng" : 29.0588602
            },
            "location_type" : "ROOFTOP",
            "viewport" : {
               "northeast" : {
                  "lat" : 40.2011554802915,
                  "lng" : 29.0602091802915
               },
               "southwest" : {
                  "lat" : 40.19845751970851,
                  "lng" : 29.0575112197085
               }
            }
         },
         "place_id" : "ChIJjXMvYRA-yhQRaCVa0t-LFRE",
         "plus_code" : {
            "compound_code" : "53X5+WG Osmangazi/Bursa, Turkey",
            "global_code" : "8GGF53X5+WG"
         },
         "types" : [ "street_address" ]
      },
      {
         "address_components" : [
            {
               "long_name" : "167",
               "short_name" : "167",
               "types" : [ "street_number" ]
            },
            {
               "long_name" : "Doktor Sadık Ahmet Caddesi",
               "short_name" : "Dr. Sadık Ahmet Cd.",
               "types" : [ "route" ]
            },
            {
               "long_name" : "Santral Garaj",
               "short_name" : "Santral Garaj",
               "types" : [ "administrative_area_level_4", "political" ]
            },
            {
               "long_name" : "Osmangazi",
               "short_name" : "Osmangazi",
               "types" : [ "administrative_area_level_2", "political" ]
            },
            {
               "long_name" : "Bursa",
               "short_name" : "Bursa",
               "types" : [ "administrative_area_level_1", "political" ]
            },
            {
               "long_name" : "Turkey",
               "short_name" : "TR",
               "types" : [ "country", "political" ]
            },
            {
               "long_name" : "16200",
               "short_name" : "16200",
               "types" : [ "postal_code" ]
            }
         ],
         "formatted_address" : "Santral Garaj, Dr. Sadık Ahmet Cd. No:167, 16200 Osmangazi/Bursa, Turkey",
         "geometry" : {
            "location" : {
               "lat" : 40.1998065,
               "lng" : 29.0588602
            },
            "location_type" : "ROOFTOP",
            "viewport" : {
               "northeast" : {
                  "lat" : 40.2011554802915,
                  "lng" : 29.0602091802915
               },
               "southwest" : {
                  "lat" : 40.19845751970851,
                  "lng" : 29.0575112197085
               }
            }
         },
         "place_id" : "ChIJuwMWYRA-yhQRzAMQxKq3xUM",
         "plus_code" : {
            "compound_code" : "53X5+WG Osmangazi/Bursa, Turkey",
            "global_code" : "8GGF53X5+WG"
         },
         "types" : [
            "establishment",
            "furniture_store",
            "home_goods_store",
            "point_of_interest",
            "store"
         ]
      },
      {
         "address_components" : [
            {
               "long_name" : "169",
               "short_name" : "169",
               "types" : [ "street_number" ]
            },
            {
               "long_name" : "Doktor Sadık Ahmet Caddesi",
               "short_name" : "Dr. Sadık Ahmet Cd.",
               "types" : [ "route" ]
            },
            {
               "long_name" : "Santral Garaj",
               "short_name" : "Santral Garaj",
               "types" : [ "administrative_area_level_4", "political" ]
            },
            {
               "long_name" : "Osmangazi",
               "short_name" : "Osmangazi",
               "types" : [ "administrative_area_level_2", "political" ]
            },
            {
               "long_name" : "Bursa",
               "short_name" : "Bursa",
               "types" : [ "administrative_area_level_1", "political" ]
            },
            {
               "long_name" : "Turkey",
               "short_name" : "TR",
               "types" : [ "country", "political" ]
            },
            {
               "long_name" : "16200",
               "short_name" : "16200",
               "types" : [ "postal_code" ]
            }
         ],
         "formatted_address" : "Santral Garaj, Dr. Sadık Ahmet Cd. No:169, 16200 Osmangazi/Bursa, Turkey",
         "geometry" : {
            "bounds" : {
               "northeast" : {
                  "lat" : 40.1998799,
                  "lng" : 29.0587549
               },
               "southwest" : {
                  "lat" : 40.199756,
                  "lng" : 29.0586913
               }
            },
            "location" : {
               "lat" : 40.19982,
               "lng" : 29.058732
            },
            "location_type" : "ROOFTOP",
            "viewport" : {
               "northeast" : {
                  "lat" : 40.2011669302915,
                  "lng" : 29.0600720802915
               },
               "southwest" : {
                  "lat" : 40.1984689697085,
                  "lng" : 29.0573741197085
               }
            }
         },
         "place_id" : "ChIJnWRWYRA-yhQRg1h_WSHGiEM",
         "types" : [ "premise" ]
      },
      {
         "address_components" : [
            {
               "long_name" : "222",
               "short_name" : "222",
               "types" : [ "street_number" ]
            },
            {
               "long_name" : "Doktor Sadık Ahmet Caddesi",
               "short_name" : "Dr. Sadık Ahmet Cd.",
               "types" : [ "route" ]
            },
            {
               "long_name" : "Küplüpınar",
               "short_name" : "Küplüpınar",
               "types" : [ "administrative_area_level_4", "political" ]
            },
            {
               "long_name" : "Osmangazi",
               "short_name" : "Osmangazi",
               "types" : [ "administrative_area_level_2", "political" ]
            },
            {
               "long_name" : "Bursa",
               "short_name" : "Bursa",
               "types" : [ "administrative_area_level_1", "political" ]
            },
            {
               "long_name" : "Turkey",
               "short_name" : "TR",
               "types" : [ "country", "political" ]
            },
            {
               "long_name" : "16200",
               "short_name" : "16200",
               "types" : [ "postal_code" ]
            }
         ],
         "formatted_address" : "Küplüpınar, Dr. Sadık Ahmet Cd. No:222, 16200 Osmangazi/Bursa, Turkey",
         "geometry" : {
            "location" : {
               "lat" : 40.19991539999999,
               "lng" : 29.0588202
            },
            "location_type" : "RANGE_INTERPOLATED",
            "viewport" : {
               "northeast" : {
                  "lat" : 40.2012643802915,
                  "lng" : 29.0601691802915
               },
               "southwest" : {
                  "lat" : 40.1985664197085,
                  "lng" : 29.0574712197085
               }
            }
         },
         "place_id" : "EklLw7xwbMO8cMSxbmFyLCBEci4gU2FkxLFrIEFobWV0IENkLiBObzoyMjIsIDE2MjAwIE9zbWFuZ2F6aS9CdXJzYSwgVHVya2V5IhsSGQoUChIJbXKtfBA-yhQRR0pLzO2Z0AkQ3gE",
         "types" : [ "street_address" ]
      },
      {
         "address_components" : [
            {
               "long_name" : "53X5+WG",
               "short_name" : "53X5+WG",
               "types" : [ "plus_code" ]
            },
            {
               "long_name" : "Osmangazi",
               "short_name" : "Osmangazi",
               "types" : [ "administrative_area_level_2", "political" ]
            },
            {
               "long_name" : "Bursa",
               "short_name" : "Bursa",
               "types" : [ "administrative_area_level_1", "political" ]
            },
            {
               "long_name" : "Turkey",
               "short_name" : "TR",
               "types" : [ "country", "political" ]
            }
         ],
         "formatted_address" : "53X5+WG Osmangazi/Bursa, Turkey",
         "geometry" : {
            "bounds" : {
               "northeast" : {
                  "lat" : 40.199875,
                  "lng" : 29.058875
               },
               "southwest" : {
                  "lat" : 40.19975,
                  "lng" : 29.05875
               }
            },
            "location" : {
               "lat" : 40.1998549,
               "lng" : 29.0588379
            },
            "location_type" : "GEOMETRIC_CENTER",
            "viewport" : {
               "northeast" : {
                  "lat" : 40.2011614802915,
                  "lng" : 29.0601614802915
               },
               "southwest" : {
                  "lat" : 40.1984635197085,
                  "lng" : 29.0574635197085
               }
            }
         },
         "place_id" : "GhIJAblp2JQZREAR7EMoABAPPUA",
         "plus_code" : {
            "compound_code" : "53X5+WG Osmangazi/Bursa, Turkey",
            "global_code" : "8GGF53X5+WG"
         },
         "types" : [ "plus_code" ]
      },
      {
         "address_components" : [
            {
               "long_name" : "5-1",
               "short_name" : "5-1",
               "types" : [ "street_number" ]
            },
            {
               "long_name" : "11. Esen Sokak",
               "short_name" : "11. Esen Sk.",
               "types" : [ "route" ]
            },
            {
               "long_name" : "Santral Garaj",
               "short_name" : "Santral Garaj",
               "types" : [ "administrative_area_level_4", "political" ]
            },
            {
               "long_name" : "Osmangazi",
               "short_name" : "Osmangazi",
               "types" : [ "administrative_area_level_2", "political" ]
            },
            {
               "long_name" : "Bursa",
               "short_name" : "Bursa",
               "types" : [ "administrative_area_level_1", "political" ]
            },
            {
               "long_name" : "Turkey",
               "short_name" : "TR",
               "types" : [ "country", "political" ]
            },
            {
               "long_name" : "16200",
               "short_name" : "16200",
               "types" : [ "postal_code" ]
            }
         ],
         "formatted_address" : "Santral Garaj, 11. Esen Sk. 5-1, 16200 Osmangazi/Bursa, Turkey",
         "geometry" : {
            "bounds" : {
               "northeast" : {
                  "lat" : 40.1999078,
                  "lng" : 29.0589277
               },
               "southwest" : {
                  "lat" : 40.1996294,
                  "lng" : 29.0589087
               }
            },
            "location" : {
               "lat" : 40.1997686,
               "lng" : 29.0589182
            },
            "location_type" : "GEOMETRIC_CENTER",
            "viewport" : {
               "northeast" : {
                  "lat" : 40.20111758029149,
                  "lng" : 29.0602671802915
               },
               "southwest" : {
                  "lat" : 40.1984196197085,
                  "lng" : 29.0575692197085
               }
            }
         },
         "place_id" : "ChIJBwHGYBA-yhQRdO_VlVN5weA",
         "types" : [ "route" ]
      },
      {
         "address_components" : [
            {
               "long_name" : "16200",
               "short_name" : "16200",
               "types" : [ "postal_code" ]
            },
            {
               "long_name" : "Santral Garaj",
               "short_name" : "Santral Garaj",
               "types" : [ "administrative_area_level_4", "political" ]
            },
            {
               "long_name" : "Osmangazi",
               "short_name" : "Osmangazi",
               "types" : [ "administrative_area_level_2", "political" ]
            },
            {
               "long_name" : "Bursa",
               "short_name" : "Bursa",
               "types" : [ "administrative_area_level_1", "political" ]
            },
            {
               "long_name" : "Turkey",
               "short_name" : "TR",
               "types" : [ "country", "political" ]
            }
         ],
         "formatted_address" : "Santral Garaj, 16200 Osmangazi/Bursa, Turkey",
         "geometry" : {
            "bounds" : {
               "northeast" : {
                  "lat" : 40.202518,
                  "lng" : 29.0625841
               },
               "southwest" : {
                  "lat" : 40.195526,
                  "lng" : 29.047812
               }
            },
            "location" : {
               "lat" : 40.1980795,
               "lng" : 29.053266
            },
            "location_type" : "APPROXIMATE",
            "viewport" : {
               "northeast" : {
                  "lat" : 40.202518,
                  "lng" : 29.0625841
               },
               "southwest" : {
                  "lat" : 40.195526,
                  "lng" : 29.047812
               }
            }
         },
         "place_id" : "ChIJ0R9i0Ro-yhQRg4EsxIQhjO0",
         "types" : [ "postal_code" ]
      },
      {
         "address_components" : [
            {
               "long_name" : "Santral Garaj",
               "short_name" : "Santral Garaj",
               "types" : [ "administrative_area_level_4", "political" ]
            },
            {
               "long_name" : "Osmangazi",
               "short_name" : "Osmangazi",
               "types" : [ "administrative_area_level_2", "political" ]
            },
            {
               "long_name" : "Bursa",
               "short_name" : "Bursa",
               "types" : [ "administrative_area_level_1", "political" ]
            },
            {
               "long_name" : "Turkey",
               "short_name" : "TR",
               "types" : [ "country", "political" ]
            }
         ],
         "formatted_address" : "Santral Garaj, Osmangazi/Bursa, Turkey",
         "geometry" : {
            "bounds" : {
               "northeast" : {
                  "lat" : 40.202518,
                  "lng" : 29.0625841
               },
               "southwest" : {
                  "lat" : 40.195526,
                  "lng" : 29.047812
               }
            },
            "location" : {
               "lat" : 40.1980795,
               "lng" : 29.053266
            },
            "location_type" : "APPROXIMATE",
            "viewport" : {
               "northeast" : {
                  "lat" : 40.202518,
                  "lng" : 29.0625841
               },
               "southwest" : {
                  "lat" : 40.195526,
                  "lng" : 29.047812
               }
            }
         },
         "place_id" : "ChIJ0R9i0Ro-yhQRWF6gylupx-0",
         "types" : [ "administrative_area_level_4", "political" ]
      },
      {
         "address_components" : [
            {
               "long_name" : "Bursa",
               "short_name" : "Bursa",
               "types" : [ "locality", "political" ]
            },
            {
               "long_name" : "Bursa",
               "short_name" : "Bursa",
               "types" : [ "administrative_area_level_1", "political" ]
            },
            {
               "long_name" : "Turkey",
               "short_name" : "TR",
               "types" : [ "country", "political" ]
            }
         ],
         "formatted_address" : "Bursa, Turkey",
         "geometry" : {
            "bounds" : {
               "northeast" : {
                  "lat" : 40.276336,
                  "lng" : 29.202363
               },
               "southwest" : {
                  "lat" : 40.16702,
                  "lng" : 28.862216
               }
            },
            "location" : {
               "lat" : 40.1885281,
               "lng" : 29.0609636
            },
            "location_type" : "APPROXIMATE",
            "viewport" : {
               "northeast" : {
                  "lat" : 40.276336,
                  "lng" : 29.202363
               },
               "southwest" : {
                  "lat" : 40.16702,
                  "lng" : 28.862216
               }
            }
         },
         "place_id" : "ChIJlVbU2IIVyhQRkjOX_FUFoGE",
         "types" : [ "locality", "political" ]
      },
      {
         "address_components" : [
            {
               "long_name" : "Osmangazi",
               "short_name" : "Osmangazi",
               "types" : [ "administrative_area_level_2", "political" ]
            },
            {
               "long_name" : "Bursa",
               "short_name" : "Bursa",
               "types" : [ "administrative_area_level_1", "political" ]
            },
            {
               "long_name" : "Turkey",
               "short_name" : "TR",
               "types" : [ "country", "political" ]
            }
         ],
         "formatted_address" : "Osmangazi/Bursa, Turkey",
         "geometry" : {
            "bounds" : {
               "northeast" : {
                  "lat" : 40.3447159,
                  "lng" : 29.26984
               },
               "southwest" : {
                  "lat" : 39.98636399999999,
                  "lng" : 28.919984
               }
            },
            "location" : {
               "lat" : 40.1794498,
               "lng" : 29.0227201
            },
            "location_type" : "APPROXIMATE",
            "viewport" : {
               "northeast" : {
                  "lat" : 40.3447159,
                  "lng" : 29.26984
               },
               "southwest" : {
                  "lat" : 39.98636399999999,
                  "lng" : 28.919984
               }
            }
         },
         "place_id" : "ChIJO1HUDDM8yhQROsoHltWpfgY",
         "types" : [ "administrative_area_level_2", "political" ]
      },
      {
         "address_components" : [
            {
               "long_name" : "Bursa",
               "short_name" : "Bursa",
               "types" : [ "administrative_area_level_1", "political" ]
            },
            {
               "long_name" : "Turkey",
               "short_name" : "TR",
               "types" : [ "country", "political" ]
            }
         ],
         "formatted_address" : "Bursa, Turkey",
         "geometry" : {
            "bounds" : {
               "northeast" : {
                  "lat" : 40.6212121,
                  "lng" : 29.9561661
               },
               "southwest" : {
                  "lat" : 39.5937439,
                  "lng" : 28.0876659
               }
            },
            "location" : {
               "lat" : 40.0655459,
               "lng" : 29.2320784
            },
            "location_type" : "APPROXIMATE",
            "viewport" : {
               "northeast" : {
                  "lat" : 40.6212121,
                  "lng" : 29.9561661
               },
               "southwest" : {
                  "lat" : 39.5937439,
                  "lng" : 28.0876659
               }
            }
         },
         "place_id" : "ChIJqSK43XuPtRQRzUZGtXCmLJI",
         "types" : [ "administrative_area_level_1", "political" ]
      },
      {
         "address_components" : [
            {
               "long_name" : "Turkey",
               "short_name" : "TR",
               "types" : [ "country", "political" ]
            }
         ],
         "formatted_address" : "Turkey",
         "geometry" : {
            "bounds" : {
               "northeast" : {
                  "lat" : 42.3666999,
                  "lng" : 44.8178449
               },
               "southwest" : {
                  "lat" : 35.808592,
                  "lng" : 25.5377
               }
            },
            "location" : {
               "lat" : 38.963745,
               "lng" : 35.243322
            },
            "location_type" : "APPROXIMATE",
            "viewport" : {
               "northeast" : {
                  "lat" : 42.3666999,
                  "lng" : 44.8178449
               },
               "southwest" : {
                  "lat" : 35.808592,
                  "lng" : 25.5377
               }
            }
         },
         "place_id" : "ChIJcSZPllwVsBQRKl9iKtTb2UA",
         "types" : [ "country", "political" ]
      }
   ],
   "status" : "OK"
}
