{
   "plus_code" : {
      "compound_code" : "PXWH+QXX Başiskele/Kocaeli, Turkey",
      "global_code" : "8GGFPXWH+QXX"
   },
   "results" : [
      {
         "address_components" : [
            {
               "long_name" : "PXWH+QX",
               "short_name" : "PXWH+QX",
               "types" : [ "plus_code" ]
            },
            {
               "long_name" : "Başiskele",
               "short_name" : "Başiskele",
               "types" : [ "administrative_area_level_2", "political" ]
            },
            {
               "long_name" : "Kocaeli",
               "short_name" : "Kocaeli",
               "types" : [ "administrative_area_level_1", "political" ]
            },
            {
               "long_name" : "Turkey",
               "short_name" : "TR",
               "types" : [ "country", "political" ]
            }
         ],
         "formatted_address" : "PXWH+QX Başiskele/Kocaeli, Turkey",
         "geometry" : {
            "bounds" : {
               "northeast" : {
                  "lat" : 40.747,
                  "lng" : 29.98
               },
               "southwest" : {
                  "lat" : 40.746875,
                  "lng" : 29.979875
               }
            },
            "location" : {
               "lat" : 40.7469969,
               "lng" : 29.9799728
            },
            "location_type" : "GEOMETRIC_CENTER",
            "viewport" : {
               "northeast" : {
                  "lat" : 40.7482864802915,
                  "lng" : 29.9812864802915
               },
               "southwest" : {
                  "lat" : 40.7455885197085,
                  "lng" : 29.9785885197085
               }
            }
         },
         "place_id" : "GhIJUNsrmJ1fREARNPhWf9_6PUA",
         "plus_code" : {
            "compound_code" : "PXWH+QX Başiskele/Kocaeli, Turkey",
            "global_code" : "8GGFPXWH+QX"
         },
         "types" : [ "plus_code" ]
      },
      {
         "address_components" : [
            {
               "long_name" : "54",
               "short_name" : "54",
               "types" : [ "street_number" ]
            },
            {
               "long_name" : "Demiryolu Caddesi",
               "short_name" : "Demiryolu Cd.",
               "types" : [ "route" ]
            },
            {
               "long_name" : "Ovacık Mh.",
               "short_name" : "Ovacık Mh.",
               "types" : [ "administrative_area_level_4", "political" ]
            },
            {
               "long_name" : "Başiskele",
               "short_name" : "Başiskele",
               "types" : [ "administrative_area_level_2", "political" ]
            },
            {
               "long_name" : "Kocaeli",
               "short_name" : "Kocaeli",
               "types" : [ "administrative_area_level_1", "political" ]
            },
            {
               "long_name" : "Turkey",
               "short_name" : "TR",
               "types" : [ "country", "political" ]
            },
            {
               "long_name" : "41140",
               "short_name" : "41140",
               "types" : [ "postal_code" ]
            }
         ],
         "formatted_address" : "Ovacık Mh., Demiryolu Cd. No:54, 41140 Başiskele/Kocaeli, Turkey",
         "geometry" : {
            "location" : {
               "lat" : 40.7485349,
               "lng" : 29.980745
            },
            "location_type" : "ROOFTOP",
            "viewport" : {
               "northeast" : {
                  "lat" : 40.74988388029149,
                  "lng" : 29.9820939802915
               },
               "southwest" : {
                  "lat" : 40.7471859197085,
                  "lng" : 29.9793960197085
               }
            }
         },
         "place_id" : "ChIJKzf9dqlayxQR3-XmEkJDc0M",
         "plus_code" : {
            "compound_code" : "PXXJ+C7 Başiskele/Kocaeli, Turkey",
            "global_code" : "8GGFPXXJ+C7"
         },
         "types" : [ "street_address" ]
      },
      {
         "address_components" : [
            {
               "long_name" : "No:52, 41140",
               "short_name" : "No:52, 41140",
               "types" : [ "street_number" ]
            },
            {
               "long_name" : "Demiryolu Caddesi",
               "short_name" : "Demiryolu Cd.",
               "types" : [ "route" ]
            },
            {
               "long_name" : "Ovacık",
               "short_name" : "Ovacık",
               "types" : [ "administrative_area_level_4", "political" ]
            },
            {
               "long_name" : "Başiskele",
               "short_name" : "Başiskele",
               "types" : [ "administrative_area_level_2", "political" ]
            },
            {
               "long_name" : "Kocaeli",
               "short_name" : "Kocaeli",
               "types" : [ "administrative_area_level_1", "political" ]
            },
            {
               "long_name" : "Turkey",
               "short_name" : "TR",
               "types" : [ "country", "political" ]
            },
            {
               "long_name" : "41140",
               "short_name" : "41140",
               "types" : [ "postal_code" ]
            }
         ],
         "formatted_address" : "Ovacık, Demiryolu Cd. No:52, 41140, 41140 Başiskele/Kocaeli, Turkey",
         "geometry" : {
            "location" : {
               "lat" : 40.7488441,
               "lng" : 29.9794475
            },
            "location_type" : "ROOFTOP",
            "viewport" : {
               "northeast" : {
                  "lat" : 40.7501930802915,
                  "lng" : 29.9807964802915
               },
               "southwest" : {
                  "lat" : 40.7474951197085,
                  "lng" : 29.9780985197085
               }
            }
         },
         "place_id" : "ChIJX_xkOy9byxQRw6qhGFkhF7A",
         "plus_code" : {
            "compound_code" : "PXXH+GQ Başiskele/Kocaeli, Turkey",
            "global_code" : "8GGFPXXH+GQ"
         },
         "types" : [ "establishment", "point_of_interest" ]
      },
      {
         "address_components" : [
            {
               "long_name" : "Demiryolu Caddesi",
               "short_name" : "Demiryolu Cd.",
               "types" : [ "route" ]
            },
            {
               "long_name" : "Ovacık",
               "short_name" : "Ovacık",
               "types" : [ "administrative_area_level_4", "political" ]
            },
            {
               "long_name" : "Başiskele",
               "short_name" : "Başiskele",
               "types" : [ "administrative_area_level_2", "political" ]
            },
            {
               "long_name" : "Kocaeli",
               "short_name" : "Kocaeli",
               "types" : [ "administrative_area_level_1", "political" ]
            },
            {
               "long_name" : "Turkey",
               "short_name" : "TR",
               "types" : [ "country", "political" ]
            },
            {
               "long_name" : "41140",
               "short_name" : "41140",
               "types" : [ "postal_code" ]
            }
         ],
         "formatted_address" : "Ovacık, Demiryolu Cd., 41140 Başiskele/Kocaeli, Turkey",
         "geometry" : {
            "bounds" : {
               "northeast" : {
                  "lat" : 40.7487533,
                  "lng" : 29.9848691
               },
               "southwest" : {
                  "lat" : 40.7478801,
                  "lng" : 29.9798517
               }
            },
            "location" : {
               "lat" : 40.748217,
               "lng" : 29.9823302
            },
            "location_type" : "GEOMETRIC_CENTER",
            "viewport" : {
               "northeast" : {
                  "lat" : 40.74966568029149,
                  "lng" : 29.9848691
               },
               "southwest" : {
                  "lat" : 40.7469677197085,
                  "lng" : 29.9798517
               }
            }
         },
         "place_id" : "ChIJNe7IqalayxQRwHt7kcSbawM",
         "types" : [ "route" ]
      },
      {
         "address_components" : [
            {
               "long_name" : "60",
               "short_name" : "60",
               "types" : [ "street_number" ]
            },
            {
               "long_name" : "Demiryolu Caddesi",
               "short_name" : "Demiryolu Cd.",
               "types" : [ "route" ]
            },
            {
               "long_name" : "Ovacık",
               "short_name" : "Ovacık",
               "types" : [ "administrative_area_level_4", "political" ]
            },
            {
               "long_name" : "Başiskele",
               "short_name" : "Başiskele",
               "types" : [ "administrative_area_level_2", "political" ]
            },
            {
               "long_name" : "Kocaeli",
               "short_name" : "Kocaeli",
               "types" : [ "administrative_area_level_1", "political" ]
            },
            {
               "long_name" : "Turkey",
               "short_name" : "TR",
               "types" : [ "country", "political" ]
            },
            {
               "long_name" : "41140",
               "short_name" : "41140",
               "types" : [ "postal_code" ]
            }
         ],
         "formatted_address" : "Ovacık, Demiryolu Cd. No:60, 41140 Başiskele/Kocaeli, Turkey",
         "geometry" : {
            "location" : {
               "lat" : 40.7480277,
               "lng" : 29.9835682
            },
            "location_type" : "RANGE_INTERPOLATED",
            "viewport" : {
               "northeast" : {
                  "lat" : 40.7493766802915,
                  "lng" : 29.9849171802915
               },
               "southwest" : {
                  "lat" : 40.74667871970851,
                  "lng" : 29.9822192197085
               }
            }
         },
         "place_id" : "Ej5PdmFjxLFrLCBEZW1pcnlvbHUgQ2QuIE5vOjYwLCA0MTE0MCBCYcWfaXNrZWxlL0tvY2FlbGksIFR1cmtleSIaEhgKFAoSCTXuyKmpWssUEcF7e5HEm2sDEDw",
         "types" : [ "street_address" ]
      },
      {
         "address_components" : [
            {
               "long_name" : "Ovacık",
               "short_name" : "Ovacık",
               "types" : [ "administrative_area_level_4", "political" ]
            },
            {
               "long_name" : "Başiskele",
               "short_name" : "Başiskele",
               "types" : [ "administrative_area_level_2", "political" ]
            },
            {
               "long_name" : "Kocaeli",
               "short_name" : "Kocaeli",
               "types" : [ "administrative_area_level_1", "political" ]
            },
            {
               "long_name" : "Turkey",
               "short_name" : "TR",
               "types" : [ "country", "political" ]
            },
            {
               "long_name" : "41140",
               "short_name" : "41140",
               "types" : [ "postal_code" ]
            }
         ],
         "formatted_address" : "Ovacık, 41140 Başiskele/Kocaeli, Turkey",
         "geometry" : {
            "bounds" : {
               "northeast" : {
                  "lat" : 40.76206699999999,
                  "lng" : 30.0033109
               },
               "southwest" : {
                  "lat" : 40.7228191,
                  "lng" : 29.9615271
               }
            },
            "location" : {
               "lat" : 40.748149,
               "lng" : 29.9827252
            },
            "location_type" : "APPROXIMATE",
            "viewport" : {
               "northeast" : {
                  "lat" : 40.76206699999999,
                  "lng" : 30.0033109
               },
               "southwest" : {
                  "lat" : 40.7228191,
                  "lng" : 29.9615271
               }
            }
         },
         "place_id" : "ChIJv2Pfja9ayxQR2OKu0RD2zAU",
         "types" : [ "administrative_area_level_4", "political" ]
      },
      {
         "address_components" : [
            {
               "long_name" : "41140",
               "short_name" : "41140",
               "types" : [ "postal_code" ]
            },
            {
               "long_name" : "Başiskele",
               "short_name" : "Başiskele",
               "types" : [ "administrative_area_level_2", "political" ]
            },
            {
               "long_name" : "Kocaeli",
               "short_name" : "Kocaeli",
               "types" : [ "administrative_area_level_1", "political" ]
            },
            {
               "long_name" : "Turkey",
               "short_name" : "TR",
               "types" : [ "country", "political" ]
            }
         ],
         "formatted_address" : "41140 Başiskele/Kocaeli, Turkey",
         "geometry" : {
            "bounds" : {
               "northeast" : {
                  "lat" : 40.76206699999999,
                  "lng" : 30.006598
               },
               "southwest" : {
                  "lat" : 40.722767,
                  "lng" : 29.9615271
               }
            },
            "location" : {
               "lat" : 40.743522,
               "lng" : 29.9827252
            },
            "location_type" : "APPROXIMATE",
            "viewport" : {
               "northeast" : {
                  "lat" : 40.76206699999999,
                  "lng" : 30.006598
               },
               "southwest" : {
                  "lat" : 40.722767,
                  "lng" : 29.9615271
               }
            }
         },
         "place_id" : "ChIJZxSLwOFEyxQRF-uwpy6UpKI",
         "types" : [ "postal_code" ]
      },
      {
         "address_components" : [
            {
               "long_name" : "Başiskele",
               "short_name" : "Başiskele",
               "types" : [ "administrative_area_level_2", "political" ]
            },
            {
               "long_name" : "Kocaeli",
               "short_name" : "Kocaeli",
               "types" : [ "administrative_area_level_1", "political" ]
            },
            {
               "long_name" : "Turkey",
               "short_name" : "TR",
               "types" : [ "country", "political" ]
            }
         ],
         "formatted_address" : "Başiskele/Kocaeli, Turkey",
         "geometry" : {
            "bounds" : {
               "northeast" : {
                  "lat" : 40.76206699999999,
                  "lng" : 30.0578921
               },
               "southwest" : {
                  "lat" : 40.52744,
                  "lng" : 29.847083
               }
            },
            "location" : {
               "lat" : 40.6298368,
               "lng" : 29.950926
            },
            "location_type" : "APPROXIMATE",
            "viewport" : {
               "northeast" : {
                  "lat" : 40.76206699999999,
                  "lng" : 30.0578921
               },
               "southwest" : {
                  "lat" : 40.52744,
                  "lng" : 29.847083
               }
            }
         },
         "place_id" : "ChIJhREav-NCyxQRkAWgNA8cqiY",
         "types" : [ "administrative_area_level_2", "political" ]
      },
      {
         "address_components" : [
            {
               "long_name" : "Kocaeli",
               "short_name" : "Kocaeli",
               "types" : [ "administrative_area_level_1", "political" ]
            },
            {
               "long_name" : "Turkey",
               "short_name" : "TR",
               "types" : [ "country", "political" ]
            }
         ],
         "formatted_address" : "Kocaeli, Turkey",
         "geometry" : {
            "bounds" : {
               "northeast" : {
                  "lat" : 41.20976,
                  "lng" : 30.367743
               },
               "southwest" : {
                  "lat" : 40.524151,
                  "lng" : 29.3331261
               }
            },
            "location" : {
               "lat" : 40.8532704,
               "lng" : 29.8815203
            },
            "location_type" : "APPROXIMATE",
            "viewport" : {
               "northeast" : {
                  "lat" : 41.20976,
                  "lng" : 30.367743
               },
               "southwest" : {
                  "lat" : 40.524151,
                  "lng" : 29.3331261
               }
            }
         },
         "place_id" : "ChIJQ8zKb5QgyxQRWdhW642zLKg",
         "types" : [ "administrative_area_level_1", "political" ]
      },
      {
         "address_components" : [
            {
               "long_name" : "Turkey",
               "short_name" : "TR",
               "types" : [ "country", "political" ]
            }
         ],
         "formatted_address" : "Turkey",
         "geometry" : {
            "bounds" : {
               "northeast" : {
                  "lat" : 42.3666999,
                  "lng" : 44.8178449
               },
               "southwest" : {
                  "lat" : 35.808592,
                  "lng" : 25.5377
               }
            },
            "location" : {
               "lat" : 38.963745,
               "lng" : 35.243322
            },
            "location_type" : "APPROXIMATE",
            "viewport" : {
               "northeast" : {
                  "lat" : 42.3666999,
                  "lng" : 44.8178449
               },
               "southwest" : {
                  "lat" : 35.808592,
                  "lng" : 25.5377
               }
            }
         },
         "place_id" : "ChIJcSZPllwVsBQRKl9iKtTb2UA",
         "types" : [ "country", "political" ]
      }
   ],
   "status" : "OK"
}
